time,pos_x,pos_y,pos_z,vel_x,vel_y,vel_z,acc_x,acc_y,acc_z,att_phi,att_theta,att_psi,distance_est,centroid_x,centroid_y,divergence,true_divergence,divergence_sp,dt,raw_divergence,color_count,mu_x,p_output,i_output,mu_y, mu_z,rpm_obs_1,rpm_obs_2,rpm_obs_3,rpm_obs_4,rpm_ref_1,rpm_ref_2,rpm_ref_3,rpm_ref_4,ekf_X1,ekf_X2,ekf_X3,ekf_X4,ekf_X5,ekf_X6,ekf_X7,ekf_X8,ekf_X9,ekf_X10,ekf_X11,ekf_X12,ekf_X13,ekf_X14,ekf_X15,ekf_U1,ekf_U2,ekf_U3,ekf_U4,ekf_U5,ekf_U6,ekf_Z1,ekf_Z2,ekf_Z3,ekf_Z4,cmd_thrust,cmd_roll,cmd_pitch,cmd_yaw
0 days 00:00:37.457687,-5.0437342727272725,1.558521090909091,-0.5127089696969698,0.029296030303030303,0.04522748484848485,0.027736272727272727,0.5623316363636364,-0.20822472727272728,-0.09497687878787875,-0.009769363636363635,-0.02592551515151515,-0.13082527272727273,10.0,-7.0,34.06060606060606,0.0,0.0,0.0,0.065,0.0,585.7272727272727,0.0,0.0,0.0,0.0,0.0,7567.060606060606,7720.454545454545,7272.151515151515,7419.060606060606,7559.060606060606,7720.878787878788,7280.787878787879,7416.393939393939,-1.1437342727272728,1.058521090909091,-1.2127089696969697,0.029296030303030303,0.04522748484848485,0.027736272727272727,-0.009769363636363635,-0.02592551515151515,-0.13082527272727273,-0.302616,0.045985,0.016994,-0.003951,-0.024258,0.004107,-0.25831560606060605,0.03737569696969697,-9.90500715151515,0.028253757575757578,0.031671787878787876,0.005164030303030303,-1.145192,1.053282,-1.227503,0.015673,6346.060606060606,-13.121212121212121,290.8787878787879,210.0
0 days 00:00:37.522687,-5.042403882352941,1.5601442941176469,-0.5135005294117647,0.0388554705882353,0.036014500000000005,0.022453941176470586,0.2586859411764706,-0.16130932352941177,0.11608508823529409,-0.009446352941176472,-0.022200941176470586,-0.13084282352941176,10.0,-6.794117647058823,33.970588235294116,0.0,0.00020705882352941177,0.0,0.07983270588235294,0.0,549.3529411764706,0.0,0.0,0.0,0.0008823529411764705,0.29147058823529415,7560.235294117647,7705.088235294118,7281.088235294118,7423.617647058823,7459.35294117647,7585.558823529412,7147.441176470588,7283.088235294118,-1.1424038823529412,1.0601442941176469,-1.2135005294117647,0.0388554705882353,0.036014500000000005,0.022453941176470586,-0.009446352941176472,-0.022200941176470586,-0.13084282352941176,-0.3028108529411765,0.045465882352941175,0.017100617647058825,-0.003947323529411764,-0.024260941176470586,0.004118029411764706,-0.5329733823529412,0.04219329411764706,-9.679285411764706,-0.015876323529411766,0.007984794117647059,0.009499970588235295,-1.1457618529411764,1.0552084705882354,-1.226721382352941,0.012053882352941176,6154.088235294118,4.676470588235294,306.44117647058823,189.94117647058823
0 days 00:00:37.587687,-5.040362212121212,1.561667696969697,-0.5122468787878787,0.043615272727272725,0.026458878787878788,0.06411833333333333,0.5710753030303031,-0.25418478787878784,0.09554975757575752,-0.008429363636363636,-0.0186849696969697,-0.13122606060606062,10.0,-6.151515151515151,30.757575757575758,0.0,0.008019151515151514,0.0,0.002056969696969697,0.0,505.3030303030303,-1.5,0.0,0.0,-6.977834060606061,9.413114545454544,7325.212121212121,7520.69696969697,7226.272727272727,7245.969696969697,7325.424242424242,7915.606060606061,8237.636363636364,7673.333333333333,-1.1403622121212122,1.061667696969697,-1.2122468787878786,0.043615272727272725,0.026458878787878788,0.06411833333333333,-0.008429363636363636,-0.0186849696969697,-0.13122606060606062,-0.3028980909090909,0.04519778787878788,0.017154151515151515,-0.003945272727272728,-0.024262848484848484,0.004123818181818182,-0.14109854545454545,-0.021277363636363622,-9.706261848484848,4.4424242424241434e-05,0.020936939393939393,-0.0009766060606060608,-1.1459684545454545,1.0561388484848484,-1.2260122424242426,0.010530636363636364,6679.636363636364,-576.3636363636364,-334.3030303030303,50.18181818181818
0 days 00:00:37.652687,-5.03954303030303,1.5615916363636364,-0.514230393939394,0.04068909090909091,0.004087090909090909,-0.08766136363636363,0.3859464545454546,-0.7535714242424243,-2.7914737575757576,-0.04581330303030303,-0.0493920303030303,-0.13174433333333332,10.0,-7.666666666666667,35.0,0.0033129090909090908,0.00799290909090909,0.0,0.002056969696969697,0.02436,577.0,-1.5,0.0,0.0,-3.3074483636363636,9.59926609090909,8303.90909090909,8579.787878787878,8931.424242424242,8248.969696969696,8246.151515151516,8024.969696969697,7988.606060606061,7761.606060606061,-1.1395430303030303,1.0615916363636364,-1.214230393939394,0.04068909090909091,0.004087090909090909,-0.08766136363636363,-0.04581330303030303,-0.0493920303030303,-0.13174433333333332,-0.303022,0.044609,0.017264,-0.00394,-0.024269,0.004137,-0.8006924242424242,-0.06744209090909091,-12.621715121212121,-1.3834339696969697,-1.1240604848484848,-0.04358275757575758,-1.145979,1.057856,-1.222911,0.008933,7067.545454545455,-2.8484848484848486,259.969696969697,-316.3030303030303
0 days 00:00:37.717687,-5.037517424242424,1.558919909090909,-0.524148606060606,0.07719815151515151,-0.06899175757575757,-0.1697671212121212,1.2651226363636363,-1.5375783636363636,-0.4157513030303031,-0.13521930303030302,-0.12177442424242425,-0.13277130303030302,10.0,-8.454545454545455,35.0,-0.009249636363636364,0.010657212121212121,0.0,0.0025713333333333335,-0.06221751515151515,569.3636363636364,-1.5,0.0,0.0,-0.49500000000000005,9.758349363636365,8420.272727272728,7544.69696969697,6972.636363636364,7505.545454545455,8257.939393939394,7639.606060606061,6778.424242424242,7573.787878787879,-1.1375174242424242,1.058919909090909,-1.224148606060606,0.07719815151515151,-0.06899175757575757,-0.1697671212121212,-0.13521930303030302,-0.12177442424242425,-0.13277130303030302,-0.3024468181818182,0.046411696969696964,0.017250181818181817,-0.003935969696969697,-0.024274181818181816,0.004148515151515151,-0.396632393939394,0.1112098484848485,-10.405125515151516,-0.7210656363636364,-0.803111696969697,-0.1325609696969697,-1.1453951818181818,1.0560556060606061,-1.226223909090909,0.020259878787878785,6442.272727272727,705.7878787878788,771.3939393939394,125.03030303030303
0 days 00:00:37.782687,-5.031884382352941,1.5505162941176471,-0.535922794117647,0.13792473529411767,-0.16304379411764705,-0.16849182352941178,1.1953291176470588,-1.2313891764705882,0.2654575,-0.10910970588235294,-0.137968,-0.13618420588235294,10.0,-3.7058823529411766,34.73529411764706,-0.006995764705882355,0.01756123529411765,0.0,0.0024955588235294115,-0.033421823529411754,572.5,-1.5,0.0,0.0,-0.4498741176470588,10.09930794117647,7765.382352941177,7895.294117647059,6848.764705882353,7652.323529411765,7695.088235294118,8161.117647058823,7235.470588235294,7777.794117647059,-1.1318843823529412,1.0505162941176471,-1.235922794117647,0.13792473529411767,-0.16304379411764705,-0.16849182352941178,-0.10910970588235294,-0.137968,-0.13618420588235294,-0.30203076470588236,0.04790529411764705,0.017238235294117644,-0.0039327058823529415,-0.024278588235294118,0.004157941176470588,-0.5624713235294118,0.040010323529411765,-9.678308794117648,1.1206342352941177,0.11177323529411765,-0.027824941176470587,-1.1444905882352943,1.053939117647059,-1.2295308235294116,0.031143823529411762,6660.941176470588,38.1764705882353,420.8529411764706,711.6470588235294
0 days 00:00:37.847687,-5.0234100303030305,1.5365002424242424,-0.5489673636363639,0.20963127272727272,-0.22675030303030302,-0.2404070606060606,1.5969055757575759,-0.6522562727272727,-2.14591403030303,-0.03311918181818182,-0.1190089696969697,-0.13597381818181817,10.0,11.0,34.0,0.064089,0.027741,0.0,0.0,0.50343,610.0,-1.5,0.0,0.0,-0.303215,11.198565,7953.212121212121,8695.787878787878,7847.848484848485,8186.242424242424,7930.727272727273,8709.969696969696,8046.757575757576,8179.69696969697,-1.1234100303030303,1.0365002424242424,-1.2489673636363638,0.20963127272727272,-0.22675030303030302,-0.2404070606060606,-0.03311918181818182,-0.1190089696969697,-0.13597381818181817,-0.302155,0.05055,0.01721,-0.003928,-0.024288,0.004173,-0.3882575454545455,0.022964,-12.057794727272727,0.9700595151515151,0.31175278787878785,0.07266512121212121,-1.1369,1.041301,-1.243384,0.071749,7366.0,-322.6666666666667,206.6969696969697,643.9090909090909
0 days 00:00:37.912687,-5.009674969696969,1.5207825454545454,-0.568308484848485,0.26755399999999996,-0.24729536363636365,-0.3609051818181818,1.0574247575757574,-0.1076051515151515,-1.4048209393939395,2.133333333333333e-05,-0.10232063636363636,-0.13143806060606059,10.0,17.060606060606062,31.727272727272727,0.021719545454545453,0.04239627272727273,0.0,0.002057030303030303,-0.12682818181818184,588.030303030303,-1.5,0.0,0.0,0.08306136363636364,10.828159909090909,7990.0,8402.575757575758,8026.30303030303,8055.424242424242,7968.818181818182,8225.363636363636,8016.151515151515,7976.575757575758,-1.1096749696969697,1.0207825454545454,-1.268308484848485,0.26755399999999996,-0.24729536363636365,-0.3609051818181818,2.133333333333333e-05,-0.10232063636363636,-0.13143806060606059,-0.3029977878787879,0.05146233333333333,0.017200727272727274,-0.0039264545454545455,-0.02429418181818182,0.004180727272727273,-0.7015566363636363,0.10348596969696966,-11.242838545454545,0.12701236363636365,0.13733272727272727,0.06797466666666667,-1.1277761515151516,1.0298574242424243,-1.2553267575757576,0.07901057575757577,7126.0,-147.72727272727272,100.63636363636364,153.0
0 days 00:00:37.977687,-4.992297647058823,1.5042827647058825,-0.5943634117647059,0.3213659411764706,-0.24922679411764706,-0.4417002941176471,1.376523382352941,-0.19893776470588234,-1.2083783823529413,0.0022767647058823527,-0.10043764705882353,-0.13024314705882353,10.0,13.411764705882353,32.11764705882353,0.005831,0.047892,0.0,-0.026417029411764704,-0.363175,577.0882352941177,-1.5,0.0,0.0,0.21203264705882352,10.636316823529413,8038.176470588235,8013.176470588235,7900.529411764706,7869.941176470588,8023.117647058823,8052.058823529412,7912.470588235294,7846.794117647059,-1.0922976470588235,1.0042827647058825,-1.2943634117647058,0.3213659411764706,-0.24922679411764706,-0.4417002941176471,0.0022767647058823527,-0.10043764705882353,-0.13024314705882353,-0.303791,0.052321,0.017192,-0.003925,-0.0243,0.004188,-0.31821576470588236,0.023638676470588222,-11.087718235294117,0.044835676470588226,-0.11716591176470588,-0.008135617647058823,-1.119189,1.019087,-1.266567,0.085845,7001.588235294118,-47.05882352941177,157.7058823529412,-26.029411764705884
0 days 00:00:38.042687,-4.972795818181818,1.4876169696969699,-0.6238475454545453,0.3900811212121212,-0.2555889090909091,-0.5082713030303031,1.2948576363636364,-0.0020929696969696873,-0.298850303030303,0.007613696969696969,-0.10862472727272728,-0.13185506060606061,10.0,7.0,33.666666666666664,0.015246,0.0654378181818182,0.0,0.002057030303030303,-0.05942272727272728,580.0,-1.4460254545454545,0.0,0.0,-0.6553404545454544,9.585838545454546,7735.242424242424,7880.606060606061,7674.060606060606,7568.090909090909,7374.151515151515,7806.151515151515,7584.0,7221.333333333333,-1.0727958181818182,0.9876169696969698,-1.3238475454545453,0.3900811212121212,-0.2555889090909091,-0.5082713030303031,0.007613696969696969,-0.10862472727272728,-0.13185506060606061,-0.30586142424242424,0.05461030303030303,0.017119666666666665,-0.003923121212121212,-0.02431409090909091,0.004205848484848485,-0.403941696969697,0.1591500909090909,-10.174360757575757,0.05969609090909091,-0.17511542424242424,-0.011393242424242424,-1.0937689999999998,0.9958398181818181,-1.3011658181818184,0.09081533333333333,6349.090909090909,-396.72727272727275,187.0909090909091,48.90909090909091
0 days 00:00:38.107687,-4.947382393939394,1.470988696969697,-0.654844,0.4482149393939394,-0.2603567878787879,-0.4670538787878788,1.0725188484848485,-0.33444372727272725,1.147714,-0.0170289696969697,-0.11267563636363637,-0.13121763636363637,10.0,5.848484848484849,34.0,0.028702969696969696,0.07717466666666667,0.0,0.002056969696969697,0.15997448484848484,589.2121212121212,-0.875090696969697,0.0,0.0,-1.0625616666666666,9.118381333333334,7117.909090909091,7615.939393939394,7192.606060606061,6762.787878787879,7310.393939393939,7584.727272727273,7205.69696969697,6929.30303030303,-1.047382393939394,0.970988696969697,-1.354844,0.4482149393939394,-0.2603567878787879,-0.4670538787878788,-0.0170289696969697,-0.11267563636363637,-0.13121763636363637,-0.30672699999999997,0.055898666666666666,0.017069666666666667,-0.003922,-0.02432,0.004213666666666666,-0.41163584848484847,0.02420696969696969,-8.720259272727272,-0.956461606060606,0.07794009090909092,0.05220172727272727,-1.0796986666666666,0.985251,-1.3183166666666668,0.09043933333333333,6011.757575757576,-275.0,379.45454545454544,-1.3636363636363635
0 days 00:00:38.172687,-4.92006403030303,1.4530205757575758,-0.6811751212121211,0.48854630303030305,-0.2985963939393939,-0.42230978787878787,0.7922374848484848,-0.9691888484848485,0.15498615151515152,-0.08783336363636364,-0.09131648484848486,-0.13079154545454544,10.0,5.0,34.0,0.087261,0.089577,0.0,0.0,0.492202,624.0,-0.820498696969697,0.0,0.0,-0.48,9.88634,7785.090909090909,7431.787878787879,7294.151515151515,7458.0,7858.484848484848,7478.151515151515,7376.30303030303,7622.666666666667,-1.0200640303030302,0.9530205757575757,-1.381175121212121,0.48854630303030305,-0.2985963939393939,-0.42230978787878787,-0.08783336363636364,-0.09131648484848486,-0.13079154545454544,-0.308191,0.05818,0.016979,-0.00392,-0.02433,0.004227,-0.5526752121212122,0.07347896969696971,-9.719756181818182,-0.846709303030303,0.42470851515151514,0.0008138181818181824,-1.054838,0.967073,-1.348154,0.089046,6472.575757575758,312.8484848484849,168.6060606060606,-94.63636363636364
0 days 00:00:38.237687,-4.891327029411764,1.431092,-0.7058202941176472,0.5040686764705883,-0.3656598235294118,-0.4196759705882353,0.6137265,-1.0931703823529413,-0.2220502941176471,-0.10174479411764706,-0.06249820588235294,-0.1356315,10.0,5.9411764705882355,32.11764705882353,0.043066852941176466,0.09595297058823529,0.0,0.0029948235294117646,-0.08858208823529412,607.0588235294117,-0.7685209117647059,0.0,0.0,-0.1840174705882353,10.007389529411766,7753.205882352941,7476.264705882353,7366.794117647059,7793.470588235294,7714.264705882353,7574.441176470588,7415.676470588235,7828.705882352941,-0.9913270294117646,0.931092,-1.4058202941176472,0.5040686764705883,-0.3656598235294118,-0.4196759705882353,-0.10174479411764706,-0.06249820588235294,-0.1356315,-0.3083101176470588,0.06102452941176471,0.01682335294117647,-0.003916823529411765,-0.02434270588235294,0.0042492352941176465,-0.4527515882352941,0.09828811764705883,-10.095530794117646,0.34942264705882353,0.34586826470588233,-0.020622676470588235,-1.0212452352941177,0.9431128823529411,-1.3775101470588236,0.02517273529411765,6542.294117647059,276.02941176470586,22.11764705882353,192.7941176470588
0 days 00:00:38.302687,-4.860192757575757,1.4052282424242424,-0.7317164545454546,0.5118747878787878,-0.4210577878787879,-0.4193328484848485,0.10341348484848478,-0.49324921212121214,0.42288987878787876,-0.0509660303030303,-0.04784612121212121,-0.13802533333333333,10.0,3.727272727272727,32.0,0.0470889090909091,0.09966527272727273,0.0,0.002056969696969697,0.04783336363636364,613.5757575757576,-0.7198511818181819,0.0,0.0,-0.36964745454545456,9.800862545454546,7403.939393939394,7753.454545454545,7441.333333333333,7651.575757575758,7334.060606060606,7800.575757575758,7474.181818181818,7548.181818181818,-0.9601927575757576,0.9052282424242424,-1.4317164545454546,0.5118747878787878,-0.4210577878787879,-0.4193328484848485,-0.0509660303030303,-0.04784612121212121,-0.13802533333333333,-0.3086159090909091,0.06249727272727272,0.016735,-0.003915757575757576,-0.024350121212121212,0.004259848484848485,-0.8328894242424243,0.08055148484848487,-9.375887787878787,0.9102746060606061,0.08121745454545454,0.021558363636363636,-1.0013832727272727,0.927771303030303,-1.3938470606060607,0.011565727272727274,6409.515151515152,-195.87878787878788,56.06060606060606,381.4848484848485
0 days 00:00:38.367687,-4.831524181818182,1.3778082727272727,-0.7544693636363637,0.4964420909090909,-0.43658375757575757,-0.38384575757575756,0.006628060606060625,-0.16123251515151515,0.6320447575757576,-0.011088454545454545,-0.044255969696969696,-0.13589893939393938,10.0,-1.3636363636363635,31.454545454545453,0.06528721212121212,0.09884730303030302,0.0,0.0025712424242424242,0.16847890909090912,628.5454545454545,-0.6749170606060606,0.0,0.0,-0.3512042424242425,9.54879687878788,7234.363636363636,7738.030303030303,7475.393939393939,7335.575757575758,7272.0,7651.363636363636,7464.393939393939,7297.090909090909,-0.9315241818181818,0.8778082727272728,-1.4544693636363637,0.4964420909090909,-0.43658375757575757,-0.38384575757575756,-0.011088454545454545,-0.044255969696969696,-0.13589893939393938,-0.309475,0.064795,0.016585,-0.003915,-0.024363,0.004275,-0.9332978181818182,0.022372212121212116,-9.14396893939394,0.24070039393939394,-0.00214548484848485,0.05620412121212121,-0.966531,0.899241,-1.421116,0.020793,6242.848484848485,-272.8181818181818,80.93939393939394,149.63636363636363
0 days 00:00:38.432687,-4.802608636363637,1.3500530606060606,-0.7751785454545455,0.4933623939393939,-0.43960584848484846,-0.34467745454545456,0.4242476666666667,-0.12078069696969697,0.5418775151515152,-0.013735878787878788,-0.04125578787878788,-0.1338229090909091,10.0,-7.333333333333333,30.666666666666668,0.06869812121212121,0.09747530303030304,0.0,0.0025712424242424242,0.11229036363636365,634.6666666666666,-0.6327903636363637,0.0,0.0,-0.25367454545454543,9.385229545454546,7282.666666666667,7405.848484848485,7409.424242424242,7205.545454545455,7344.636363636364,7375.787878787879,7419.606060606061,7231.575757575758,-0.9026086363636363,0.8500530606060606,-1.4751785454545454,0.4933623939393939,-0.43960584848484846,-0.34467745454545456,-0.013735878787878788,-0.04125578787878788,-0.1338229090909091,-0.3102981212121212,0.06679669696969696,0.016454666666666666,-0.00391569696969697,-0.024372757575757575,0.0042861515151515145,-0.49736627272727263,0.14914775757575757,-9.25828593939394,-0.22723572727272726,0.015477060606060605,0.020448666666666667,-0.9336688787878789,0.8699508484848485,-1.4451593636363638,0.027196757575757576,6132.363636363636,-109.45454545454545,34.57575757575758,-110.60606060606061
0 days 00:00:38.497687,-4.772146029411765,1.3213655588235294,-0.7944848529411765,0.4954280882352941,-0.4477618823529412,-0.308015,0.38134847058823534,-0.2773578823529412,0.4164393235294118,-0.029322058823529413,-0.04017870588235294,-0.13420179411764704,10.0,-12.294117647058824,30.0,0.04451882352941177,0.09862347058823528,0.0,0.001996529411764706,-0.097811,627.0294117647059,-0.5927243529411764,0.0,0.0,-0.2640176470588235,9.40635588235294,7409.0,7304.35294117647,7346.411764705882,7229.35294117647,7431.14705882353,7356.0,7356.294117647059,7263.029411764706,-0.8721460294117647,0.8213655588235294,-1.4944848529411765,0.4954280882352941,-0.4477618823529412,-0.308015,-0.029322058823529413,-0.04017870588235294,-0.13420179411764704,-0.3106650588235294,0.06825911764705883,0.01635785294117647,-0.003915794117647059,-0.02437885294117647,0.004293882352941176,-0.5200769705882353,0.14220470588235296,-9.385569911764705,-0.18645164705882356,-0.021161235294117647,-0.011639794117647059,-0.9093936470588235,0.8481038529411764,-1.461521617647059,0.02762694117647059,6144.64705882353,-9.0,83.70588235294117,-118.91176470588235
0 days 00:00:38.562687,-4.742058575757576,1.2917213333333333,-0.8103717575757576,0.4909009696969697,-0.46456766666666666,-0.271819696969697,0.22762348484848482,-0.35883609090909097,0.31861590909090914,-0.033859848484848486,-0.037909484848484845,-0.13562993939393939,10.0,-14.0,30.0,0.049265,0.098777,0.0,0.0,0.081679,633.0,-0.5551736666666667,0.0,0.0,-0.42,9.622685,7438.060606060606,7477.787878787879,7421.757575757576,7339.848484848485,7446.545454545455,7530.636363636364,7459.818181818182,7374.060606060606,-0.8420585757575757,0.7917213333333333,-1.5103717575757576,0.4909009696969697,-0.46456766666666666,-0.271819696969697,-0.033859848484848486,-0.037909484848484845,-0.13562993939393939,-0.3107,0.070543,0.016203,-0.003915,-0.024386,0.004305,-0.6447680606060605,0.08889678787878787,-9.478249333333332,-0.014167575757575757,0.03713163636363637,-0.003928363636363636,-0.870871,0.812957,-1.484312,0.018547,6287.424242424242,-84.81818181818181,71.54545454545455,-1.121212121212121
0 days 00:00:38.627687,-4.711667272727272,1.261519212121212,-0.8254314242424241,0.4938285454545454,-0.485033,-0.2632450606060606,0.5069587878787879,-0.4578605454545454,-0.15250348484848483,-0.034315787878787876,-0.03270036363636364,-0.1359759393939394,10.0,-14.0,30.0,0.08332075757575756,0.09956063636363637,0.0,0.0025712424242424242,0.24769112121212122,658.4545454545455,-0.5205192121212121,0.0,0.0,-0.42,9.71196681818182,7435.363636363636,7544.090909090909,7488.727272727273,7400.272727272727,7445.666666666667,7574.151515151515,7521.242424242424,7431.090909090909,-0.8116672727272727,0.7615192121212121,-1.525431424242424,0.4938285454545454,-0.485033,-0.2632450606060606,-0.034315787878787876,-0.03270036363636364,-0.1359759393939394,-0.3105232727272727,0.07214118181818181,0.016093363636363635,-0.0039155454545454545,-0.024390363636363637,0.004310454545454546,-0.32735557575757573,0.04939036363636363,-9.96845403030303,-0.010224242424242426,0.06505975757575758,0.0056299696969696975,-0.8427020909090909,0.7864135454545454,-1.4983498181818184,0.015447727272727273,6344.272727272727,-109.06060606060606,33.75757575757576,27.242424242424242
0 days 00:00:38.692687,-4.680221529411765,1.229338794117647,-0.8410617058823531,0.4984119411764706,-0.5042853529411765,-0.2676464705882353,0.08451338235294119,-0.16649067647058824,0.14039091176470586,-0.03568670588235295,-0.027724,-0.13585805882352942,10.0,-14.735294117647058,29.264705882352942,0.09852876470588236,0.10041305882352941,0.0,0.002495676470588235,0.14142441176470588,677.4117647058823,-0.4875610294117647,0.0,0.0,-0.28462870588235295,9.721347058823529,7473.0,7564.323529411765,7518.294117647059,7452.058823529412,7480.911764705882,7550.323529411765,7497.088235294118,7449.5,-0.7802215294117647,0.7293387941176471,-1.541061705882353,0.4984119411764706,-0.5042853529411765,-0.2676464705882353,-0.03568670588235295,-0.027724,-0.13585805882352942,-0.310376,0.073473,0.016002,-0.003916,-0.024394,0.004315,-0.7372759705882352,0.2849839117647059,-9.645795029411765,-0.022784,0.031996764705882356,0.010505264705882353,-0.819228,0.764294,-1.510048,0.012865,6346.235294117647,-58.35294117647059,42.3235294117647,15.382352941176471
0 days 00:00:38.757687,-4.649335545454545,1.1964739393939394,-0.854678909090909,0.4950042727272727,-0.5185262424242424,-0.2594683636363636,0.21179269696969694,-0.28402524242424243,0.21575333333333335,-0.031050242424242425,-0.024936575757575755,-0.13631609090909091,10.0,-17.181818181818183,27.90909090909091,0.0981569696969697,0.10124372727272728,0.0,0.002056969696969697,0.09148745454545455,685.5454545454545,-0.4566736363636364,0.0,0.0,-0.07616106060606061,9.559041545454546,7436.333333333333,7529.909090909091,7427.484848484848,7404.636363636364,7399.484848484848,7487.424242424242,7391.575757575758,7391.212121212121,-0.7493355454545455,0.6964739393939394,-1.554678909090909,0.4950042727272727,-0.5185262424242424,-0.2594683636363636,-0.031050242424242425,-0.024936575757575755,-0.13631609090909091,-0.3098242424242424,0.07616099999999999,0.015809030303030304,-0.003916,-0.024398848484848485,0.004322757575757576,-0.5545395151515151,0.1460700606060606,-9.584013939393941,0.130593,0.02282354545454545,0.001930939393939394,-0.7694146666666667,0.7145330303030303,-1.533256727272727,0.006038333333333333,6237.545454545455,-44.09090909090909,51.90909090909091,61.84848484848485
0 days 00:00:38.822687,-4.618583484848485,1.1632748787878788,-0.8688267878787879,0.4774120606060606,-0.5216846363636363,-0.22294721212121213,-0.1309538787878787,-0.07018572727272725,0.6468811212121213,-0.017539242424242422,-0.021094060606060606,-0.13653154545454546,10.0,-19.060606060606062,26.96969696969697,0.100524,0.101891,0.0,0.0,0.128478,691.2424242424242,-0.4281599090909091,0.0,0.0,0.066957,9.425363,7307.212121212121,7402.090909090909,7326.212121212121,7353.666666666667,7311.848484848485,7441.0,7336.363636363636,7329.727272727273,-0.7185834848484849,0.6632748787878788,-1.5688267878787878,0.4774120606060606,-0.5216846363636363,-0.22294721212121213,-0.017539242424242422,-0.021094060606060606,-0.13653154545454546,-0.3096529696969697,0.07723063636363636,0.015726969696969698,-0.003917181818181818,-0.024400969696969695,0.004325757575757576,-0.8690222424242424,0.1754557272727273,-9.130208363636363,0.2991759090909091,-0.0006066363636363614,-0.003336666666666667,-0.7489296060606061,0.6930395454545454,-1.5423563636363635,0.007594969696969697,6149.0,-67.72727272727273,43.39393939393939,86.51515151515152
0 days 00:00:38.887687,-4.589423909090909,1.1303550303030303,-0.8796952121212123,0.45955639393939396,-0.5188775757575758,-0.18748645454545454,-0.03423421212121212,0.033585333333333314,0.5207462424242425,0.0024213030303030306,-0.01937730303030303,-0.1369731212121212,10.0,-21.12121212121212,25.757575757575758,0.0974080909090909,0.09538136363636363,0.0,0.0051424848484848485,0.08591581818181818,703.0,-0.4014421515151515,0.0,0.0,-0.16441936363636364,9.58659309090909,7267.0,7589.151515151515,7422.969696969697,7315.454545454545,7279.30303030303,7620.060606060606,7474.545454545455,7342.181818181818,-0.6894239090909091,0.6303550303030303,-1.5796952121212122,0.45955639393939396,-0.5188775757575758,-0.18748645454545454,0.0024213030303030306,-0.01937730303030303,-0.1369731212121212,-0.309416,0.078747,0.015609999999999999,-0.003919,-0.024404,0.00433,-0.7827592121212121,0.1102332121212121,-9.265151545454545,0.20512248484848483,0.03137572727272727,0.010860575757575756,-0.719809,0.662365,-1.55524,0.010318,6253.909090909091,-236.15151515151516,41.333333333333336,147.06060606060606
0 days 00:00:38.952687,-4.560216764705882,1.0972732647058825,-0.8887593529411764,0.45793023529411764,-0.510861,-0.182171,0.41893626470588236,0.09027970588235296,-0.29338888235294125,0.005067852941176471,-0.014633411764705881,-0.1361345294117647,10.0,-22.0,24.0,0.127729,0.093845,0.0,0.0,0.268714,732.0,-0.3760228823529412,0.0,0.0,0.023557,9.631074,7328.64705882353,7553.823529411765,7486.176470588235,7395.529411764706,7359.205882352941,7528.470588235294,7489.764705882353,7415.882352941177,-0.6602167647058823,0.5972732647058824,-1.5887593529411763,0.45793023529411764,-0.510861,-0.182171,0.005067852941176471,-0.014633411764705881,-0.1361345294117647,-0.30950385294117644,0.08042644117647059,0.015477794117647058,-0.003920705882352942,-0.024406558823529413,0.004332558823529412,-0.3160903235294118,0.2024069117647059,-10.097598735294117,-0.07775158823529411,0.0424805294117647,0.014246294117647058,-0.6797395294117647,0.6183668823529412,-1.570053029411765,0.018643558823529412,6281.176470588235,-121.44117647058823,-8.911764705882353,67.44117647058823
0 days 00:00:39.017687,-4.531078121212121,1.0648197272727273,-0.8992930909090908,0.44308054545454545,-0.4946641515151516,-0.16914121212121214,0.019866424242424255,0.17584478787878788,0.2314541818181818,-0.0005866363636363637,-0.01237090909090909,-0.13639478787878787,10.0,-23.87878787878788,23.060606060606062,0.127729,0.093845,0.0,-0.028246,0.268714,739.5151515151515,-0.35219975757575755,0.0,0.0,0.037193363636363636,9.612891272727273,7392.484848484848,7514.242424242424,7444.363636363636,7422.0,7392.363636363636,7518.272727272727,7420.484848484848,7427.939393939394,-0.6310781212121213,0.5648197272727272,-1.5992930909090908,0.44308054545454545,-0.4946641515151516,-0.16914121212121214,-0.0005866363636363637,-0.01237090909090909,-0.13639478787878787,-0.3094761212121212,0.08099872727272728,0.015428636363636363,-0.003922060606060606,-0.024408060606060607,0.004334515151515152,-0.6959043636363637,0.29711172727272733,-9.55456912121212,-0.071866,-0.00590381818181818,-0.00660660606060606,-0.6657635757575757,0.6031361515151515,-1.5749118484848488,0.01894051515151515,6269.060606060606,-59.18181818181818,31.09090909090909,94.27272727272727
0 days 00:00:39.082687,-4.50473009090909,1.0354340606060606,-0.9061251212121211,0.42096263636363634,-0.4774427272727273,-0.13745933333333335,0.08785166666666668,0.07534187878787878,0.4118924242424243,0.0006417878787878788,-0.011076030303030303,-0.13734548484848486,10.0,-26.181818181818183,21.545454545454547,0.10341103030303031,0.08992593939393939,0.0,0.002057030303030303,0.011343303030303037,732.7272727272727,-0.33021821212121216,0.0,0.0,0.2750792424242424,9.37455006060606,7317.212121212121,7460.090909090909,7298.909090909091,7405.878787878788,7282.363636363636,7420.666666666667,7250.878787878788,7372.787878787879,-0.6047300909090909,0.5354340606060606,-1.606125121212121,0.42096263636363634,-0.4774427272727273,-0.13745933333333335,0.0006417878787878788,-0.011076030303030303,-0.13734548484848486,-0.309236,0.082582,0.015281,-0.003928,-0.024414,0.004343,-0.595466303030303,0.19395115151515152,-9.37863996969697,0.11294830303030304,-0.0003181212121212098,-0.008722393939393938,-0.626186,0.560325,-1.587819,0.012565,6116.454545454545,-8.121212121212121,39.666666666666664,183.72727272727272
0 days 00:00:39.147687,-4.476828147058823,1.0044249411764707,-0.9123588235294118,0.41316482352941175,-0.4624588823529412,-0.10930438235294118,-0.08052164705882356,0.31857414705882353,0.5183194117647059,0.017957176470588233,-0.009309941176470589,-0.13786747058823529,10.0,-27.529411764705884,20.470588235294116,0.110852,0.08834449999999999,0.0,0.002994735294117647,0.072748,750.1176470588235,-0.30930158823529413,0.0,0.0,0.12761599999999998,9.426304,7188.14705882353,7475.205882352941,7248.588235294118,7324.794117647059,7191.558823529412,7568.058823529412,7337.5,7322.117647058823,-0.5768281470588236,0.5044249411764706,-1.6123588235294117,0.41316482352941175,-0.4624588823529412,-0.10930438235294118,0.017957176470588233,-0.009309941176470589,-0.13786747058823529,-0.3096802941176471,0.08374894117647058,0.015202235294117647,-0.003927235294117647,-0.024411705882352943,0.004344529411764705,-0.7814511176470588,0.25442338235294115,-9.271283323529412,0.35016941176470584,0.006290205882352941,0.004207911764705882,-0.5922093529411765,0.5230654705882353,-1.5981899411764706,0.01460829411764706,6149.117647058823,-195.61764705882354,50.0,255.05882352941177
0 days 00:00:39.212687,-4.449867060606061,0.974877787878788,-0.9181570606060607,0.40092103030303033,-0.4369369393939394,-0.08946578787878788,0.021501787878787895,0.31692518181818186,0.2684906666666667,0.02894809090909091,-0.005826151515151515,-0.13665584848484846,10.0,-28.636363636363637,18.727272727272727,0.12562539393939393,0.0866039696969697,0.0,0.002057,0.15449542424242424,774.3636363636364,-0.2897120909090909,0.0,0.0,0.07406427272727273,9.559953393939393,7232.060606060606,7627.878787878788,7454.515151515152,7354.363636363636,7281.121212121212,7566.272727272727,7443.030303030303,7368.666666666667,-0.5498670606060606,0.4748777878787879,-1.6181570606060607,0.40092103030303033,-0.4369369393939394,-0.08946578787878788,0.02894809090909091,-0.005826151515151515,-0.13665584848484846,-0.3098716060606061,0.08417539393939394,0.015173212121212122,-0.003927060606060606,-0.02441081818181818,0.00434530303030303,-0.6479344545454546,0.15388257575757575,-9.529178515151516,-0.07992272727272727,0.03467527272727272,0.03218960606060606,-0.5789891818181818,0.5086168181818181,-1.6019836666666665,0.015468393939393942,6233.818181818182,-179.3939393939394,17.90909090909091,148.84848484848484
0 days 00:00:39.277687,-4.42392196969697,0.9474595151515152,-0.9212206969696972,0.38581627272727276,-0.41603133333333336,-0.06968512121212121,0.1486130303030303,0.19426236363636362,0.1981108787878788,0.017301939393939394,-0.0035592424242424244,-0.13583969696969697,7.532868757575757,-29.12121212121212,17.757575757575758,0.12066718181818181,0.08509918181818181,0.07860299999999999,0.002057,0.0794090909090909,777.030303030303,-0.4912488787878788,-0.018470363636363635,-0.3636790909090909,0.2046772727272727,9.54543290909091,7360.121212121212,7448.848484848485,7424.181818181818,7425.181818181818,7347.909090909091,7405.272727272727,7438.424242424242,7460.69696969697,-0.5239219696969697,0.44745951515151516,-1.6212206969696972,0.38581627272727276,-0.41603133333333336,-0.06968512121212121,0.017301939393939394,-0.0035592424242424244,-0.13583969696969697,-0.310718,0.08522,0.015099,-0.003928,-0.024408,0.00435,-0.5162464242424242,0.16474321212121212,-9.59783387878788,-0.20946530303030303,-0.019930757575757574,0.006066515151515152,-0.536119,0.462362,-1.611325,0.019055,6231.424242424242,-17.545454545454547,-72.84848484848484,56.121212121212125
0 days 00:00:39.342687,-4.398179121212121,0.9202731515151514,-0.9242910909090909,0.38013724242424246,-0.404370696969697,-0.0563709696969697,0.06512133333333331,0.07779651515151519,0.308839,0.009806969696969696,-0.01281039393939394,-0.1362709393939394,5.891438848484849,-30.0,16.0,0.092149,0.082161,0.12351900000000002,0.0,-0.07633,770.0,-0.803645,-0.203174,-0.60047,0.23195,9.536342,7344.909090909091,7356.424242424242,7435.363636363636,7540.030303030303,7364.969696969697,7410.363636363636,7394.515151515152,7503.969696969697,-0.49817912121212116,0.4202731515151515,-1.6242910909090909,0.38013724242424246,-0.404370696969697,-0.0563709696969697,0.009806969696969696,-0.01281039393939394,-0.1362709393939394,-0.311437696969697,0.08617690909090908,0.015062151515151515,-0.003925121212121212,-0.0244039696969697,0.004351151515151515,-0.6714607272727273,0.12032430303030303,-9.481918757575757,-0.015077606060606064,-0.3470570606060606,-0.0023009090909090913,-0.5121634545454545,0.436849606060606,-1.6148555454545455,0.017025454545454545,6239.0,32.0,-61.39393939393939,109.3030303030303
0 days 00:00:39.407687,-4.372434235294118,0.8933354705882353,-0.9263740294117648,0.3793148823529412,-0.3949139705882353,-0.03467185294117647,0.6501297352941177,0.11652567647058823,0.16168655882352947,0.016201558823529413,-0.037769411764705885,-0.13683567647058825,5.84403355882353,-31.764705882352942,15.058823529411764,0.11654517647058824,0.08058776470588236,0.12351900000000002,0.0024955882352941175,0.19423382352941176,798.5882352941177,-0.6456914705882353,-0.04517194117647059,-0.6005194117647059,0.01121441176470588,9.479697588235293,7398.117647058823,7571.823529411765,7285.14705882353,7334.029411764706,7368.088235294118,7601.558823529412,7286.205882352941,7285.382352941177,-0.4724342352941177,0.39333547058823526,-1.6263740294117648,0.3793148823529412,-0.3949139705882353,-0.03467185294117647,0.016201558823529413,-0.037769411764705885,-0.13683567647058825,-0.31215294117647063,0.08708052941176471,0.01503005882352941,-0.00392264705882353,-0.024400117647058822,0.0043525294117647065,-0.34779991176470587,0.1745173823529412,-9.655962735294118,0.14097682352941177,-0.3266960294117647,0.006663676470588235,-0.4908917941176471,0.41443679411764706,-1.6177019411764706,0.018698970588235296,6192.235294117647,-116.97058823529412,198.73529411764707,164.23529411764707
0 days 00:00:39.472687,-4.3446224242424245,0.8665049090909092,-0.9265587575757577,0.4013466666666667,-0.3815877878787879,-0.020923757575757575,0.5444684848484849,0.09892533333333332,-0.11932342424242426,0.018350727272727272,-0.04635433333333333,-0.13638136363636363,5.796984181818182,-30.0,14.0,0.116626,0.087004,0.12351900000000002,0.002057030303030303,0.100122,812.0,-0.645276,-0.044646,-0.60063,0.040972,9.757315,7468.848484848485,7648.121212121212,7391.878787878788,7382.636363636364,7517.515151515152,7662.636363636364,7438.272727272727,7435.151515151515,-0.4446224242424242,0.3665049090909091,-1.6265587575757576,0.4013466666666667,-0.3815877878787879,-0.020923757575757575,0.018350727272727272,-0.04635433333333333,-0.13638136363636363,-0.314064,0.089132,0.014979,-0.003919,-0.024391,0.004358,-0.5545395151515151,0.12511839393939395,-9.927172212121212,-0.08448742424242425,-0.02397021212121212,0.015003545454545453,-0.453483,0.37709,-1.620233,0.051445,6373.0,-73.96969696969697,153.12121212121212,100.27272727272727
0 days 00:00:39.537687,-4.317006696969697,0.8412576363636364,-0.9276012424242426,0.41677945454545456,-0.3736441212121212,-0.0325219696969697,0.2819559393939395,0.09185945454545455,-0.0010993333333333276,0.010871787878787878,-0.039670363636363636,-0.1360990606060606,5.751028424242424,-27.424242424242426,13.484848484848484,0.12357484848484847,0.09000181818181818,0.12351900000000002,0.002057,0.15063642424242424,823.8484848484849,-0.6002146666666667,0.00036103030303030477,-0.600575696969697,0.04824618181818181,9.888697787878787,7543.090909090909,7614.969696969697,7500.787878787879,7528.545454545455,7550.181818181818,7626.848484848485,7543.121212121212,7569.636363636364,-0.417006696969697,0.3412576363636364,-1.6276012424242425,0.41677945454545456,-0.3736441212121212,-0.0325219696969697,0.010871787878787878,-0.039670363636363636,-0.1360990606060606,-0.3150332727272727,0.09031945454545455,0.01495390909090909,-0.003916272727272727,-0.02438609090909091,0.004360181818181819,-0.7435782424242424,0.1595347878787879,-9.792080969696968,-0.11436878787878789,0.14745360606060606,-7.424242424241964e-06,-0.4306251818181819,0.3553509090909091,-1.6215606363636363,0.04787772727272727,6456.393939393939,-25.0,32.18181818181818,72.9090909090909
0 days 00:00:39.602687,-4.288481852941176,0.8161827647058824,-0.929518294117647,0.41981241176470585,-0.3679970294117647,-0.044792411764705886,0.2386575588235294,-0.025343529411764716,0.010702117647058933,0.007186529411764706,-0.028852764705882356,-0.13663526470588236,5.7047192941176466,-24.38235294117647,12.382352941176471,0.10849094117647058,0.09351405882352941,0.12351900000000002,0.002495764705882353,0.05067858823529411,830.0588235294117,-0.698121705882353,-0.09733252941176472,-0.6007897647058824,0.03879558823529411,9.852193176470587,7518.117647058823,7632.529411764706,7599.705882352941,7660.588235294118,7436.029411764706,7575.764705882353,7584.264705882353,7639.735294117647,-0.38848185294117643,0.31618276470588236,-1.629518294117647,0.41981241176470585,-0.3679970294117647,-0.044792411764705886,0.007186529411764706,-0.028852764705882356,-0.13663526470588236,-0.3158837058823529,0.09136332352941176,0.01493179411764706,-0.003913882352941177,-0.02438173529411765,0.004362235294117647,-0.6736845882352941,0.07373050000000002,-9.784036117647059,-0.006642117647058823,0.09706744117647059,-0.003123588235294118,-0.4102806176470588,0.336101,-1.6227733529411765,0.04449691176470588,6437.35294117647,-42.14705882352941,-105.88235294117646,137.76470588235293
0 days 00:00:39.667687,-4.258923272727273,0.7906190606060606,-0.9311400303030304,0.4160867272727273,-0.36262690909090906,-0.034029666666666666,0.316930393939394,0.008159454545454553,0.03338451515151512,0.007245575757575758,-0.031255151515151514,-0.13684466666666667,5.65881196969697,-25.272727272727273,11.575757575757576,0.11378184848484849,0.09341484848484849,0.12351900000000002,0.002571121212121212,0.10240139393939394,848.6363636363636,-0.6639105151515151,-0.06306506060606061,-0.6008464545454545,0.032686575757575755,9.62424918181818,7394.575757575758,7534.272727272727,7481.787878787879,7549.212121212121,7421.939393939394,7561.939393939394,7379.818181818182,7448.818181818182,-0.35892327272727276,0.29061906060606063,-1.6311400303030303,0.4160867272727273,-0.36262690909090906,-0.034029666666666666,0.007245575757575758,-0.031255151515151514,-0.13684466666666667,-0.317293,0.093156,0.014892,-0.00391,-0.024373,0.00437,-0.6285215151515152,0.12292848484848484,-9.762192212121212,-0.01308742424242424,-0.2034209090909091,0.007464818181818181,-0.3675,0.298679,-1.626283,0.03103,6287.939393939394,-35.42424242424242,77.54545454545455,147.54545454545453
0 days 00:00:39.732687,-4.23116,0.7669284848484849,-0.9326615757575758,0.41981154545454547,-0.3556017878787879,-0.014974727272727273,0.3605592727272728,0.11426163636363634,0.3965828484848485,0.007635757575757575,-0.03806254545454546,-0.13680254545454545,5.613933818181819,-27.0,11.0,0.146117,0.09291,0.12351900000000002,0.0,0.347422,878.0,-0.454279,0.146361,-0.600641,0.041789,9.463211,7398.181818181818,7544.121212121212,7235.212121212121,7305.545454545455,7378.606060606061,7513.181818181818,7265.727272727273,7332.242424242424,-0.33116,0.26692848484848486,-1.6326615757575758,0.41981154545454547,-0.3556017878787879,-0.014974727272727273,0.007635757575757575,-0.03806254545454546,-0.13680254545454545,-0.3177980909090909,0.09370618181818181,0.01488509090909091,-0.003908545454545455,-0.024369363636363633,0.004374,-0.6332269090909092,0.22567472727272725,-9.402432424242424,-0.005156545454545453,0.029356060606060608,0.012821060606060607,-0.3502934545454546,0.2843651818181818,-1.627856818181818,0.03355290909090909,6174.0,-33.878787878787875,146.66666666666666,141.96969696969697
0 days 00:00:39.797687,-4.202652363636363,0.7435087575757575,-0.9324142424242425,0.4157971212121212,-0.3440470909090909,0.01158530303030303,0.21073396969696975,0.0703209696969697,0.3900630303030302,0.006964636363636364,-0.029357939393939395,-0.1364510606060606,5.569429212121213,-28.818181818181817,10.090909090909092,0.1380110606060606,0.0955788787878788,0.12351900000000002,0.002057,0.12245406060606061,888.0,-0.5066064242424242,0.0938569393939394,-0.6004643636363637,0.0938009393939394,9.471535757575758,7364.575757575758,7447.151515151515,7303.666666666667,7363.818181818182,7360.454545454545,7440.030303030303,7326.969696969697,7384.818181818182,-0.3026523636363636,0.24350875757575755,-1.6324142424242425,0.4157971212121212,-0.3440470909090909,0.01158530303030303,0.006964636363636364,-0.029357939393939395,-0.1364510606060606,-0.318682,0.094669,0.014873,-0.003906,-0.024363,0.004381,-0.7090139393939393,0.15400090909090908,-9.404237727272728,0.007124424242424242,0.14023290909090907,0.0027151212121212125,-0.320182,0.259316,-1.630611,0.037968,6181.909090909091,-10.848484848484848,44.333333333333336,97.0
0 days 00:00:39.862687,-4.172638852941176,0.7195908529411765,-0.9310791764705881,0.4199523529411765,-0.3403095,0.023717176470588235,0.21722929411764705,0.054209617647058825,-0.06612814705882351,0.008369470588235294,-0.0208355,-0.1369226470588235,5.52458305882353,-26.0,10.0,0.1289031176470588,0.09347685294117647,0.12351900000000002,0.0024958823529411768,0.09797741176470588,904.0,-0.5654981176470589,0.034867117647058826,-0.6003652647058824,-0.11350073529411764,9.81634794117647,7408.735294117647,7571.882352941177,7492.764705882353,7508.323529411765,7446.470588235294,7613.058823529412,7544.705882352941,7548.823529411765,-0.2726388529411765,0.21959085294117647,-1.631079176470588,0.4199523529411765,-0.3403095,0.023717176470588235,0.008369470588235294,-0.0208355,-0.1369226470588235,-0.3198334705882353,0.09555179411764705,0.014881529411764705,-0.003901735294117647,-0.024351911764705882,0.004394647058823529,-0.6408835,0.12511491176470588,-9.860466411764705,-0.0295195,0.055922558823529415,0.009169588235294117,-0.2809569411764706,0.2280923823529412,-1.6317692941176472,0.030311147058823526,6408.176470588235,-81.11764705882354,-17.0,120.61764705882354
0 days 00:00:39.927687,-4.1434849393939395,0.6965970606060606,-0.9300112121212123,0.415324,-0.3362530909090909,0.022355151515151515,-0.23111275757575758,0.10373721212121213,0.6123104545454546,0.002202060606060606,-0.021510696969696968,-0.13663727272727272,5.4801146969696966,-28.454545454545453,8.363636363636363,0.10274451515151516,0.09500060606060606,0.12351900000000002,0.0020566969696969696,-0.030883272727272724,897.4545454545455,-0.7352422424242424,-0.13455148484848486,-0.6006907575757575,0.2518906060606061,9.489731878787879,7412.454545454545,7433.969696969697,7422.121212121212,7533.181818181818,7389.757575757576,7344.818181818182,7346.515151515152,7502.181818181818,-0.2434849393939394,0.1965970606060606,-1.6300112121212122,0.415324,-0.3362530909090909,0.022355151515151515,0.002202060606060606,-0.021510696969696968,-0.13663727272727272,-0.32038933333333336,0.09598066666666666,0.014889666666666666,-0.0038993333333333336,-0.024345666666666665,0.004403,-1.0565519090909092,0.16252360606060606,-9.159416424242425,-0.09132339393939394,-0.12326145454545455,0.007494393939393939,-0.25885766666666665,0.21095333333333333,-1.6318463333333333,0.02813066666666667,6207.0,100.18181818181819,-57.0,78.21212121212122
0 days 00:00:39.992687,-4.115228636363637,0.6740305757575757,-0.9272621818181819,0.39593484848484845,-0.32942654545454547,0.067507,0.4723769696969697,-0.01324672727272729,0.3384975454545453,0.009338484848484848,-0.033959303030303034,-0.13792227272727273,5.43665109090909,-29.606060606060606,7.696969696969697,0.095767,0.095431,0.12351900000000002,-0.02773169696969697,-0.06563,907.8181818181819,-0.780521,-0.179742,-0.600779,0.3561059090909091,9.393538454545455,7333.090909090909,7375.818181818182,7253.515151515152,7434.878787878788,7312.545454545455,7435.121212121212,7247.030303030303,7419.818181818182,-0.21522863636363637,0.17403057575757575,-1.6272621818181818,0.39593484848484845,-0.32942654545454547,0.067507,0.009338484848484848,-0.033959303030303034,-0.13792227272727273,-0.321104,0.096534,0.014903,-0.0038960000000000006,-0.024337,0.004415,-0.4814156666666667,0.06800415151515152,-9.469756181818182,0.2813830606060606,-0.25429839393939396,-0.01700109090909091,-0.228185,0.187442,-1.631601,0.02641,6147.454545454545,25.0,40.333333333333336,208.57575757575756
0 days 00:00:40.057687,-4.085671787878788,0.6517962727272727,-0.9235090303030302,0.42434269696969695,-0.3233621212121212,0.07988742424242425,0.6044508787878787,0.20455430303030303,0.3321666363636364,0.02970339393939394,-0.04620945454545455,-0.13882072727272726,5.393563666666667,-30.606060606060606,6.212121212121212,0.08922009090909092,0.09652554545454546,0.12351900000000002,0.002571272727272727,-0.037188545454545446,935.7878787878788,-0.8231748181818181,-0.22214599999999998,-0.6010284545454546,0.41004045454545457,9.441567909090908,7267.212121212121,7500.878787878788,7228.0,7401.939393939394,7286.69696969697,7526.212121212121,7274.666666666667,7425.848484848485,-0.18567178787878788,0.15179627272727272,-1.6235090303030302,0.42434269696969695,-0.3233621212121212,0.07988742424242425,0.02970339393939394,-0.04620945454545455,-0.13882072727272726,-0.3223100606060606,0.09676657575757575,0.014951484848484848,-0.0038937272727272727,-0.024324878787878788,0.004433181818181819,-0.5139972727272728,0.1146721515151515,-9.482362636363636,0.3020980909090909,-0.15878754545454543,0.013871545454545456,-0.1932228787878788,0.16138518181818182,-1.629610090909091,0.04590166666666666,6182.363636363636,-44.09090909090909,55.96969696969697,275.8484848484849
0 days 00:00:40.122687,-4.054997235294118,0.6306054411764705,-0.9186703235294118,0.4573049705882353,-0.3035395588235294,0.08082276470588236,1.0080516764705882,0.26236173529411766,-0.26316617647058826,0.045969264705882355,-0.05157817647058823,-0.13850652941176472,5.350127411764706,-29.0,4.5,0.08347217647058824,0.10328852941176471,0.12351900000000002,0.001996441176470588,0.07590023529411766,946.5,-0.861078294117647,-0.2593755882352941,-0.6017026470588235,0.3468154705882353,9.657543176470588,7313.323529411765,7580.117647058823,7403.64705882353,7492.176470588235,7346.676470588235,7631.117647058823,7443.764705882353,7491.676470588235,-0.15499723529411763,0.13060544117647058,-1.6186703235294118,0.4573049705882353,-0.3035395588235294,0.08082276470588236,0.045969264705882355,-0.05157817647058823,-0.13850652941176472,-0.32314847058823526,0.096873,0.014985588235294119,-0.0038922941176470593,-0.024317470588235295,0.00444464705882353,-0.21306297058823534,0.049086588235294125,-10.107737882352941,0.17425173529411767,-0.09194758823529413,0.01642926470588235,-0.17077570588235294,0.14556464705882352,-1.627516294117647,0.05827311764705882,6323.529411764706,-118.17647058823529,21.08823529411765,234.64705882352942
0 days 00:00:40.187687,-4.020863666666666,0.6106096363636364,-0.9146275151515151,0.4897810303030303,-0.2787100303030303,0.0729689696969697,0.7963398484848485,0.3164747272727273,-0.25753712121212124,0.04478821212121212,-0.05435324242424243,-0.13774124242424243,5.307073424242424,-28.0,4.0,0.089895,0.108742,0.12351900000000002,0.0,0.147131,956.0,-0.819745,-0.217776,-0.60197,0.190981,9.777321,7456.666666666667,7662.424242424242,7510.060606060606,7506.242424242424,7473.030303030303,7612.757575757576,7512.151515151515,7517.939393939394,-0.12086366666666666,0.11060963636363637,-1.614627515151515,0.4897810303030303,-0.2787100303030303,0.0729689696969697,0.04478821212121212,-0.05435324242424243,-0.13774124242424243,-0.324619,0.096977,0.015046,-0.0038899999999999994,-0.024306,0.004463,-0.45602509090909094,0.09158978787878787,-10.085523242424243,-0.1939513333333333,-0.011001121212121214,0.023037969696969696,-0.134183,0.12124700000000001,-1.622782,0.078209,6395.0,-66.87878787878788,27.818181818181817,102.78787878787878
0 days 00:00:40.252687,-3.9866153333333334,0.5928692121212121,-0.9110854545454545,0.512718,-0.2611598484848485,0.06397678787878788,0.3076908181818181,0.16654112121212122,0.19885118181818176,0.028090696969696967,-0.05131112121212122,-0.1377560606060606,5.2650012727272735,-27.0,3.0,0.11842154545454545,0.1199109696969697,0.12351900000000002,0.002057030303030303,0.2518999696969697,990.0,-0.6350497272727273,-0.03301866666666666,-0.602031090909091,0.20551772727272727,9.715586212121211,7547.909090909091,7551.575757575758,7446.272727272727,7499.878787878788,7541.121212121212,7528.848484848485,7406.151515151515,7502.242424242424,-0.08661533333333332,0.09286921212121213,-1.6110854545454545,0.512718,-0.2611598484848485,0.06397678787878788,0.028090696969696967,-0.05131112121212122,-0.1377560606060606,-0.32531106060606063,0.0970570303030303,0.015084,-0.0038894242424242424,-0.02429909090909091,0.004474515151515152,-0.8553504242424242,0.062381575757575754,-9.587890636363637,-0.28628078787878786,0.0846059393939394,-0.0019605454545454544,-0.10299939393939393,0.10436809090909091,-1.6191535757575757,0.07098554545454545,6346.515151515152,54.24242424242424,80.6969696969697,59.18181818181818
0 days 00:00:40.317687,-3.9514919705882354,0.5758254411764706,-0.9072535588235295,0.5176607058823529,-0.250991,0.07045164705882354,0.22171223529411765,0.0539339705882353,0.1623525,0.016460441176470587,-0.04009329411764706,-0.13849026470588235,5.222622176470588,-26.205882352941178,2.2058823529411766,0.1337934705882353,0.12389541176470587,0.12351900000000002,0.0024956176470588235,0.21524641176470588,1017.7941176470588,-0.5353216470588235,0.06654235294117647,-0.601864,0.18364870588235294,9.71003994117647,7511.117647058823,7494.5,7410.882352941177,7555.205882352941,7487.441176470588,7505.176470588235,7412.029411764706,7552.441176470588,-0.05149197058823529,0.0758254411764706,-1.6072535588235295,0.5176607058823529,-0.250991,0.07045164705882354,0.016460441176470587,-0.04009329411764706,-0.13849026470588235,-0.325821,0.097116,0.015112,-0.003889,-0.024294,0.004483,-0.8183880294117647,0.04966100000000001,-9.624109529411765,-0.07679658823529412,0.17675058823529413,-0.007331470588235294,-0.080022,0.091931,-1.61648,0.065663,6338.882352941177,61.3235294117647,14.0,111.79411764705883
0 days 00:00:40.382687,-3.9138174545454545,0.559251909090909,-0.9045575454545454,0.5415974242424242,-0.24540015151515152,0.05723963636363637,0.43919030303030304,0.06822933333333335,-0.07966493939393944,0.016874030303030304,-0.028210151515151514,-0.13925160606060608,5.180566939393939,-26.0,1.0909090909090908,0.10147084848484848,0.12941672727272727,0.12351900000000002,0.002056969696969697,-0.05828593939393939,1013.1818181818181,-0.7449695151515151,-0.14280072727272727,-0.6021696666666667,0.22880248484848484,9.657142666666667,7372.030303030303,7429.818181818182,7465.242424242424,7637.727272727273,7354.727272727273,7419.818181818182,7473.242424242424,7638.939393939394,-0.013817454545454546,0.05925190909090909,-1.6045575454545453,0.5415974242424242,-0.24540015151515152,0.05723963636363637,0.016874030303030304,-0.028210151515151514,-0.13925160606060608,-0.32620693939393935,0.09690072727272728,0.015173090909090907,-0.003889,-0.024283333333333334,0.004501424242424242,-0.4759706363636364,0.09286215151515152,-9.884114606060606,0.06038409090909091,0.0574100606060606,-0.0003181515151515154,-0.024604787878787882,0.06655403030303031,-1.6114705454545455,0.043967,6314.151515151515,50.21212121212121,-168.6060606060606,162.96969696969697
0 days 00:00:40.447687,-3.8778383939393937,0.5438364242424243,-0.9010255454545455,0.531825,-0.23528945454545455,0.07458075757575756,0.2770309696969697,0.019519030303030305,0.22731187878787887,0.02492166666666667,-0.03534,-0.14015787878787878,5.139488515151514,-27.575757575757574,1.0,0.11161363636363637,0.12952145454545455,0.12351900000000002,0.002057060606060606,0.057724727272727275,1030.121212121212,-0.6792463636363636,-0.07710836363636364,-0.6021386363636363,0.15562236363636361,9.528318181818182,7362.424242424242,7536.69696969697,7377.969696969697,7523.606060606061,7323.424242424242,7562.272727272727,7324.030303030303,7429.969696969697,0.022161606060606062,0.04383642424242424,-1.6010255454545455,0.531825,-0.23528945454545455,0.07458075757575756,0.02492166666666667,-0.03534,-0.14015787878787878,-0.32644581818181817,0.09675127272727273,0.015203181818181817,-0.003889909090909091,-0.024278454545454544,0.004510181818181818,-0.6717862424242425,-0.04876890909090908,-9.567175696969697,0.1663560606060606,-0.2281160606060606,-0.0030924242424242424,0.0023129090909090916,0.055503272727272734,-1.6090162727272728,0.044789,6227.0,-66.33333333333333,65.87878787878788,243.42424242424244
0 days 00:00:40.512687,-3.841985212121212,0.5290722121212121,-0.8961510909090911,0.5290349393939394,-0.22306166666666669,0.10508006060606061,0.08224484848484853,0.1538291515151515,0.6840761515151516,0.02672193939393939,-0.04133821212121212,-0.13980836363636362,5.098749575757576,-30.96969696969697,0.5151515151515151,0.12493918181818182,0.13040427272727273,0.12351900000000002,0.002571212121212121,0.18167572727272727,1058.969696969697,-0.5928989090909091,0.009198181818181819,-0.6020970909090909,0.10217409090909091,9.38663409090909,7241.787878787879,7471.0,7226.575757575758,7330.818181818182,7280.242424242424,7414.484848484848,7273.939393939394,7397.575757575758,0.05801478787878788,0.02907221212121212,-1.596151090909091,0.5290349393939394,-0.22306166666666669,0.10508006060606061,0.02672193939393939,-0.04133821212121212,-0.13980836363636362,-0.326718,0.09658,0.015236999999999999,-0.0038909999999999995,-0.024273,0.00452,-0.9092684242424243,0.059807090909090914,-9.09505203030303,-0.13525387878787878,0.01646848484848485,0.02568657575757576,0.032536,0.043194,-1.606259,0.046589,6130.454545454545,-5.212121212121212,11.545454545454545,182.0909090909091
0 days 00:00:40.577687,-3.804924088235294,0.5155573529411764,-0.890144,0.5458085882352941,-0.2120894705882353,0.12181732352941177,0.6665431176470589,-0.03775023529411765,0.06844811764705892,0.017943294117647057,-0.0376935,-0.13960835294117646,5.057699352941177,-31.11764705882353,-0.29411764705882354,0.11666008823529413,0.13404820588235294,0.12351900000000002,0.001996529411764706,0.0779940588235294,1071.4705882352941,-0.6465828823529411,-0.044424323529411766,-0.6021585588235294,0.22245067647058822,9.569775676470588,7335.617647058823,7357.470588235294,7337.676470588235,7509.970588235294,7395.85294117647,7426.882352941177,7361.588235294118,7528.264705882353,0.09507591176470588,0.015557352941176472,-1.590144,0.5458085882352941,-0.2120894705882353,0.12181732352941177,0.017943294117647057,-0.0376935,-0.13960835294117646,-0.3267930588235294,0.09609382352941176,0.015302676470588234,-0.0038944117647058824,-0.024266176470588235,0.004533647058823529,-0.2965303529411764,0.025706529411764708,-9.746582029411764,-0.07084385294117647,-0.016199470588235298,-0.0011704411764705879,0.080444,0.025300147058823528,-1.6006560294117647,0.04575738235294118,6252.676470588235,67.70588235294117,-33.529411764705884,139.5
0 days 00:00:40.642687,-3.7676432121212122,0.5023637575757576,-0.8828907272727273,0.5480330909090909,-0.205296,0.12949366666666665,0.22387078787878784,0.06488566666666667,-0.13700296969696968,0.0193660303030303,-0.037044181818181816,-0.14011142424242423,5.016994363636363,-29.181818181818183,-0.9090909090909091,0.13778630303030304,0.13824539393939395,0.12351900000000002,0.002057,0.25498536363636365,1100.6363636363637,-0.5095888484848485,0.09240021212121212,-0.6019890606060605,0.2382782424242424,9.817439333333335,7546.363636363636,7593.848484848485,7420.848484848485,7612.878787878788,7502.69696969697,7579.454545454545,7454.878787878788,7617.575757575758,0.13235678787878788,0.002363757575757576,-1.5828907272727273,0.5480330909090909,-0.205296,0.12949366666666665,0.0193660303030303,-0.037044181818181816,-0.14011142424242423,-0.32678563636363633,0.0957590909090909,0.015344181818181818,-0.0038964545454545454,-0.024261363636363633,0.004541454545454546,-0.7623401818181819,0.06087239393939394,-9.925485363636364,0.09715312121212122,0.07836175757575757,0.002937060606060606,0.109532,0.01539281818181818,-1.5962278181818184,0.04444381818181819,6408.666666666667,42.81818181818182,4.9393939393939394,169.03030303030303
0 days 00:00:40.707687,-3.73048403030303,0.4902347575757576,-0.8759467575757576,0.545252393939394,-0.19089736363636364,0.1349098787878788,0.013079151515151525,0.1701750606060606,0.38150306060606065,0.026134151515151516,-0.02951187878787879,-0.13994315151515152,4.977205212121212,-31.0,0.0,0.134443,0.137461,0.12351900000000002,0.0,0.11918,1117.0,-0.531085,0.07075,-0.601835,-0.190975,9.452683,7253.181818181818,7498.30303030303,7441.787878787879,7443.181818181818,7220.0,7450.939393939394,7420.939393939394,7389.515151515152,0.1695159696969697,-0.009765242424242425,-1.5759467575757575,0.545252393939394,-0.19089736363636364,0.1349098787878788,0.026134151515151516,-0.02951187878787879,-0.13994315151515152,-0.32675,0.09532,0.015397000000000001,-0.003899,-0.024255,0.004551,-0.8760062121212122,0.07815457575757577,-9.400834484848485,-0.021950484848484848,0.07602387878787879,0.021070090909090906,0.145981,0.003454,-1.590169,0.042396,6171.0,-130.84848484848484,-69.6969696969697,140.75757575757575
0 days 00:00:40.772687,-3.693083588235294,0.4791590588235294,-0.8684443823529413,0.5336498823529412,-0.17806223529411763,0.15949329411764707,-0.03979458823529418,0.015805676470588247,0.4435733823529411,0.013238205882352942,-0.02659885294117647,-0.13892382352941177,4.9371530588235295,-31.88235294117647,-0.8823529411764706,0.142476,0.13615514705882353,0.12351900000000002,0.0029947941176470586,0.16004100000000002,1151.4117647058824,-0.47880055882352945,0.12277429411764705,-0.6015748529411765,0.1359479705882353,9.527922647058825,7387.941176470588,7369.235294117647,7370.794117647059,7422.117647058823,7447.911764705882,7359.176470588235,7359.705882352941,7449.764705882353,0.20691641176470588,-0.02084094117647059,-1.5684443823529413,0.5336498823529412,-0.17806223529411763,0.15949329411764707,0.013238205882352942,-0.02659885294117647,-0.13892382352941177,-0.3264267941176471,0.09448061764705883,0.015480382352941177,-0.0039029705882352938,-0.02424864705882353,0.004561323529411764,-0.8924631764705883,0.03877508823529411,-9.333898264705883,-0.26421755882352943,-0.0011847941176470595,0.012688117647058824,0.1918635294117647,-0.010817088235294118,-1.5832538235294118,0.035770676470588236,6218.764705882353,89.29411764705883,-1.1764705882352942,0.9705882352941176
