time,pos_x,pos_y,pos_z,vel_x,vel_y,vel_z,acc_x,acc_y,acc_z,att_phi,att_theta,att_psi,distance_est,centroid_x,centroid_y,divergence,true_divergence,divergence_sp,pitch_sum,raw_divergence,color_count,rpm_obs_1,rpm_obs_2,rpm_obs_3,rpm_obs_4,rpm_ref_1,rpm_ref_2,rpm_ref_3,rpm_ref_4,ekf_X1,ekf_X2,ekf_X3,ekf_X4,ekf_X5,ekf_X6,ekf_X7,ekf_X8,ekf_X9,ekf_X10,ekf_X11,ekf_X12,ekf_X13,ekf_X14,ekf_X15,ekf_U1,ekf_U2,ekf_U3,ekf_U4,ekf_U5,ekf_U6,ekf_Z1,ekf_Z2,ekf_Z3,ekf_Z4,cmd_thrust,cmd_roll,cmd_pitch,cmd_yaw,pos_z_inverted
0 days 00:01:08.710867,-6.13283903030303,-2.187552424242424,0.25893781818181816,0.0752399090909091,0.14970227272727274,-0.31997678787878786,0.43115709090909093,1.3406517575757575,-4.763721848484849,0.10573424242424243,-0.05838590909090909,-0.040667666666666664,10.0,8.0,-80.0,-0.014281363636363637,0.009516545454545455,0.0,-1.1578068787878788,-0.12946409090909092,308.969696969697,9456.333333333334,9122.60606060606,9150.363636363636,9310.787878787878,8951.151515151516,8878.424242424242,9142.454545454546,8532.575757575758,-2.1328390303030305,-2.187552424242424,-0.4410621818181818,0.0752399090909091,0.14970227272727274,-0.31997678787878786,0.10573424242424243,-0.05838590909090909,-0.040667666666666664,0.13818145454545452,-0.03653318181818182,0.17406763636363637,0.03309245454545455,-0.019181999999999998,0.019353545454545453,-0.033883757575757574,-0.2698863333333333,-14.465050878787878,1.194269393939394,-0.26646842424242423,0.1192220909090909,-2.1429435454545454,-2.1912952727272725,-0.43659200000000004,0.04801609090909091,8797.90909090909,-265.0,77.06060606060606,-1149.2727272727273,-0.25893781818181816
0 days 00:01:08.775867,-6.12821206060606,-2.1748621212121213,0.23122412121212116,0.11732212121212121,0.2431472727272727,-0.495798303030303,0.6366447575757574,1.5685457575757575,-1.315715424242424,0.14135406060606062,-0.06501369696969697,-0.03796845454545454,10.0,9.0,-79.72727272727273,-0.02622039393939394,0.012894060606060605,0.0,-2.536870090909091,-0.1421971818181818,302.72727272727275,8512.90909090909,7881.787878787879,8589.363636363636,7524.787878787879,8467.939393939394,6731.121212121212,8427.30303030303,7317.818181818182,-2.1282120606060606,-2.1748621212121213,-0.4687758787878788,0.11732212121212121,0.2431472727272727,-0.495798303030303,0.14135406060606062,-0.06501369696969697,-0.03796845454545454,0.137051,-0.03665,0.174064,0.033092,-0.019187,0.019359,0.20623224242424243,-0.050278121212121205,-11.07862806060606,-0.16196881818181819,0.04276160606060606,-0.06321760606060606,-2.141809,-2.186968,-0.440877,0.079682,6687.363636363636,313.1212121212121,-272.6969696969697,-2009.121212121212,-0.23122412121212116
0 days 00:01:08.840867,-6.12190905882353,-2.155540382352941,0.19846261764705875,0.15572779411764706,0.33111220588235296,-0.5331251470588235,0.31843776470588236,1.1597456764705882,0.06605682352941175,0.1238285588235294,-0.06763873529411765,-0.047977,10.0,19.0,-77.0,-0.009347,0.021203,0.0,-3.9973861764705885,0.153013,310.0,8158.14705882353,7619.5,8160.058823529412,7675.264705882353,8220.323529411764,8102.088235294118,8004.176470588235,7862.705882352941,-2.1219090588235296,-2.155540382352941,-0.5015373823529412,0.15572779411764706,0.33111220588235296,-0.5331251470588235,0.1238285588235294,-0.06763873529411765,-0.047977,0.13305473529411765,-0.03750705882352941,0.17399561764705881,0.03309017647058824,-0.019196117647058822,0.019368117647058824,-0.07103061764705883,-0.08832144117647057,-9.642319588235294,-0.331176705882353,-0.2626092058823529,0.0034394705882352947,-2.1331864411764707,-2.1648841470588236,-0.4795230588235294,0.09085567647058823,7126.764705882353,-11.588235294117647,227.38235294117646,-183.35294117647058,-0.19846261764705875
0 days 00:01:08.905867,-6.111788212121212,-2.1313954242424242,0.1642097272727272,0.19476130303030303,0.3963131818181818,-0.5550715454545454,0.40804330303030306,0.7700161515151516,-0.4417993333333334,0.09164151515151514,-0.07276930303030303,-0.04548833333333333,10.0,23.242424242424242,-74.57575757575758,-0.013187878787878788,0.02632148484848485,0.0,-5.668580484848484,0.020712545454545452,307.57575757575756,8290.757575757576,7758.393939393939,7989.424242424242,7781.787878787879,8326.636363636364,7765.939393939394,8049.636363636364,7843.181818181818,-2.1117882121212124,-2.1313954242424242,-0.5357902727272728,0.19476130303030303,0.3963131818181818,-0.5550715454545454,0.09164151515151514,-0.07276930303030303,-0.04548833333333333,0.1309279696969697,-0.037777909090909084,0.1739440909090909,0.03308921212121212,-0.019200545454545456,0.019372151515151516,-0.014470909090909114,-0.20386472727272725,-10.113074121212122,-0.4904045151515151,0.07703745454545455,0.03785663636363636,-2.1264917575757574,-2.1486380606060607,-0.5011242121212122,0.09126966666666667,7054.848484848485,176.75757575757575,99.63636363636364,-541.4545454545455,-0.1642097272727272
0 days 00:01:08.970867,-6.099687333333334,-2.1041658181818184,0.12960760606060595,0.22980836363636362,0.4340451515151515,-0.5686446060606061,0.40696781818181815,0.3782434242424243,-0.1650699393939394,0.060389515151515145,-0.06432424242424242,-0.044991393939393935,10.0,25.21212121212121,-74.18181818181819,-0.005720181818181819,0.03258172727272727,0.0,-7.159685545454545,0.03012363636363636,311.5151515151515,8306.424242424242,7556.363636363636,7866.030303030303,7821.818181818182,8407.757575757576,7448.515151515152,7724.727272727273,7978.909090909091,-2.0996873333333332,-2.1041658181818184,-0.570392393939394,0.22980836363636362,0.4340451515151515,-0.5686446060606061,0.060389515151515145,-0.06432424242424242,-0.044991393939393935,0.128251,-0.038067,0.173875,0.033088,-0.019206,0.019377,0.10046757575757574,-0.2502368181818182,-9.81599190909091,-0.36472390909090907,0.12402345454545456,0.01908739393939394,-2.117476,-2.126932,-0.528603,0.090243,6904.727272727273,605.6969696969697,76.27272727272727,-497.75757575757575,-0.12960760606060595
0 days 00:01:09.035867,-6.08520009090909,-2.075283909090909,0.09605087878787877,0.2732869696969697,0.4554370606060606,-0.5544203030303031,0.4723713636363636,0.4459969696969697,0.8558939393939394,0.07574436363636364,-0.05358672727272727,-0.04657039393939394,10.0,22.90909090909091,-76.0,0.010980848484848484,0.03811275757575757,0.0,-8.363424848484849,0.17301963636363635,319.27272727272725,8018.969696969697,7357.272727272727,7696.181818181818,7844.666666666667,7818.242424242424,7667.121212121212,7757.0,7717.969696969697,-2.085200090909091,-2.075283909090909,-0.6039491212121212,0.2732869696969697,0.4554370606060606,-0.5544203030303031,0.07574436363636364,-0.05358672727272727,-0.04657039393939394,0.12539063636363634,-0.038712090909090904,0.17376154545454547,0.03308654545454545,-0.01921109090909091,0.019381363636363634,0.27914875757575763,-0.242276303030303,-8.803030363636363,0.8351089393939394,0.07061581818181817,-0.010742121212121212,-2.1006679999999998,-2.093436727272727,-0.566939,0.07249827272727273,6693.030303030303,55.90909090909091,5.2727272727272725,-134.21212121212122,-0.09605087878787877
0 days 00:01:09.100867,-6.06723905882353,-2.043638205882353,0.06335405882352929,0.3049221764705883,0.5064350294117647,-0.511700705882353,0.33536244117647057,1.0474487352941175,0.014000029411764814,0.11288938235294119,-0.05055544117647059,-0.04446905882352942,10.0,18.0,-76.0,0.003588,0.044697,0.0,-9.422797882352942,-0.07434,316.0,7739.176470588235,7417.823529411765,7595.382352941177,7473.35294117647,7820.882352941177,7363.0,7662.823529411765,7511.382352941177,-2.0672390588235294,-2.043638205882353,-0.6366459411764707,0.3049221764705883,0.5064350294117647,-0.511700705882353,0.11288938235294119,-0.05055544117647059,-0.04446905882352942,0.12320270588235294,-0.03921517647058824,0.1736848823529412,0.033084823529411764,-0.019214411764705883,0.01938394117647059,0.09360638235294119,-0.09024582352941177,-9.68350755882353,0.3541834117647059,0.05970670588235293,0.040872058823529414,-2.088042176470588,-2.0689061176470585,-0.5930246470588235,0.07128470588235294,6480.5,152.97058823529412,4.882352941176471,-430.02941176470586,-0.06335405882352929
0 days 00:01:09.165867,-6.048142848484849,-2.0070630303030303,0.03362175757575758,0.3239798484848485,0.5787597272727272,-0.46986957575757576,0.040206909090909126,1.0463815454545455,1.0292810303030302,0.1251789090909091,-0.04677984848484849,-0.04452584848484848,10.0,15.909090909090908,-76.0,0.014562666666666665,0.048301000000000004,0.0,-10.378420424242423,0.11212466666666666,322.27272727272725,7776.060606060606,7331.787878787879,7639.666666666667,7461.121212121212,7884.30303030303,7415.333333333333,7641.333333333333,7544.121212121212,-2.0481428484848485,-2.0070630303030303,-0.6663782424242424,0.3239798484848485,0.5787597272727272,-0.46986957575757576,0.1251789090909091,-0.04677984848484849,-0.04452584848484848,0.119578,-0.040064,0.173574,0.033081,-0.019219,0.019387,-0.13304930303030305,-0.09312857575757576,-8.66533493939394,0.06150112121212121,-0.007464727272727276,0.022823454545454546,-2.067493,-2.030004,-0.631081,0.088967,6525.333333333333,185.54545454545453,57.0,-399.6363636363636,-0.03362175757575758
0 days 00:01:09.230867,-6.027919545454545,-1.9670667575757574,0.00761748484848479,0.34196651515151516,0.6422985454545455,-0.40982430303030304,0.31420848484848485,0.9692378181818182,0.6252371818181818,0.12444484848484848,-0.044913242424242425,-0.04482781818181818,10.0,15.969696969696969,-74.54545454545455,0.009630909090909091,0.05213618181818182,0.0,-11.222926181818181,0.034509272727272736,319.6666666666667,7818.69696969697,7438.545454545455,7694.272727272727,7522.121212121212,7866.272727272727,7561.060606060606,7769.060606060606,7604.272727272727,-2.0279195454545453,-1.9670667575757574,-0.6923825151515152,0.34196651515151516,0.6422985454545455,-0.40982430303030304,0.12444484848484848,-0.044913242424242425,-0.04482781818181818,0.11683912121212121,-0.04095987878787878,0.17348245454545455,0.033078696969696966,-0.019222454545454543,0.019388727272727276,0.15252139393939387,-0.1930930909090909,-9.067146090909091,-0.07474403030303031,0.011807515151515154,0.019420272727272727,-2.048319121212121,-1.993519393939394,-0.6572157878787879,0.08920075757575757,6636.636363636364,69.9090909090909,26.90909090909091,-331.75757575757575,-0.00761748484848479
0 days 00:01:09.295867,-6.005536529411765,-1.9223523235294115,-0.017037823529411855,0.3681960588235294,0.7050166764705882,-0.4090470294117647,0.11004394117647068,0.7530379117647059,-0.2501868823529412,0.10431226470588235,-0.041738,-0.04409858823529412,10.0,16.705882352941178,-72.41176470588235,0.008139764705882353,0.05587623529411764,0.0,-11.98228694117647,-0.02025141176470588,321.05882352941177,7974.323529411765,7485.235294117647,7813.205882352941,7738.205882352941,8039.411764705882,7454.823529411765,7750.382352941177,7775.588235294118,-2.005536529411765,-1.9223523235294115,-0.7170378235294118,0.3681960588235294,0.7050166764705882,-0.4090470294117647,0.10431226470588235,-0.041738,-0.04409858823529412,0.11459735294117647,-0.04169964705882352,0.17340670588235296,0.033076764705882354,-0.01922529411764706,0.019390176470588237,-0.04256667647058826,-0.3228114117647059,-9.913401823529412,-0.40731279411764704,0.01683132352941177,0.01897829411764706,-2.0321164705882353,-1.9625215882352942,-0.6786918235294117,0.08833282352941176,6714.14705882353,304.38235294117646,-15.882352941176471,-394.8529411764706,0.017037823529411855
0 days 00:01:09.360867,-5.982200727272727,-1.8732897272727274,-0.04038463636363643,0.3888222121212121,0.7557331212121212,-0.4015847878787879,0.13467748484848482,0.7171322121212121,0.09479933333333336,0.0843459090909091,-0.03949066666666667,-0.04486784848484848,10.0,16.0,-71.0,0.038728,0.059488,0.0,-12.690390787878787,0.397128,338.0,7900.090909090909,7424.787878787879,7677.393939393939,7726.969696969697,7876.787878787879,7469.060606060606,7664.848484848485,7782.333333333333,-1.9822007272727271,-1.8732897272727274,-0.7403846363636364,0.3888222121212121,0.7557331212121212,-0.4015847878787879,0.0843459090909091,-0.03949066666666667,-0.04486784848484848,0.111019,-0.042974,0.173274,0.033073,-0.01923,0.019393,0.01529942424242424,-0.114968,-9.56983896969697,-0.18475521212121213,0.01953860606060606,0.01913921212121212,-1.9989239999999997,-1.896691,-0.714193,0.07169,6634.0,262.1818181818182,-50.57575757575758,-204.87878787878788,0.04038463636363643
0 days 00:01:09.425867,-5.957206545454546,-1.8229405757575756,-0.0641104545454545,0.3984531515151515,0.7942688181818182,-0.37499390909090907,-0.2417689696969697,0.5601317575757576,0.8475986666666667,0.07598563636363637,-0.037720333333333335,-0.044317636363636365,10.0,14.424242424242424,-71.0,0.06328557575757575,0.06352587878787878,0.0,-13.285200272727273,0.41242799999999996,353.75757575757575,7937.181818181818,7319.636363636364,7557.363636363636,7814.151515151515,7924.909090909091,7360.757575757576,7584.181818181818,7815.939393939394,-1.9572065454545455,-1.8229405757575756,-0.7641104545454545,0.3984531515151515,0.7942688181818182,-0.37499390909090907,0.07598563636363637,-0.037720333333333335,-0.044317636363636365,0.10985615151515152,-0.04359,0.17321503030303032,0.033071303030303034,-0.01923169696969697,0.019393848484848486,-0.31877378787878785,-0.14882227272727272,-8.797940333333333,0.0997129393939394,-0.0014129999999999976,0.012184878787878788,-1.9815915757575757,-1.8621623333333333,-0.7305072424242424,0.07209939393939394,6596.121212121212,397.27272727272725,-57.09090909090909,-234.6060606060606,0.0641104545454545
0 days 00:01:09.490867,-5.932077030303031,-1.7700639090909092,-0.0849129393939394,0.41063821212121215,0.829655909090909,-0.33826175757575755,0.27317351515151517,0.44975987878787876,0.4393010909090909,0.09057660606060607,-0.03671618181818182,-0.04438824242424243,10.0,11.696969696969697,-70.42424242424242,0.071144,0.064818,0.0,-13.848105,0.417324,356.8484848484849,7798.30303030303,7416.454545454545,7593.30303030303,7764.181818181818,7813.030303030303,7446.030303030303,7591.666666666667,7756.121212121212,-1.9320770303030304,-1.7700639090909092,-0.7849129393939394,0.41063821212121215,0.829655909090909,-0.33826175757575755,0.09057660606060607,-0.03671618181818182,-0.04438824242424243,0.108278,-0.044426,0.173135,0.033069,-0.019234,0.019395,0.20430878787878784,-0.3988518181818182,-9.208215,0.28673954545454544,-0.02294930303030303,0.035467000000000005,-1.9580689999999998,-1.815302,-0.752648,0.072655,6568.333333333333,265.3030303030303,-44.333333333333336,-143.0909090909091,0.0849129393939394
0 days 00:01:09.555867,-5.904534029411765,-1.7134933823529412,-0.10334832352941181,0.4403450882352941,0.8705211764705882,-0.2908866470588235,0.13749329411764707,0.6825552647058823,0.8510528235294118,0.10467735294117647,-0.03632702941176471,-0.04372823529411765,10.0,9.235294117647058,-69.23529411764706,0.05659258823529412,0.06733764705882352,0.0,-14.384708264705882,0.15396635294117647,346.8235294117647,7773.382352941177,7389.35294117647,7628.0,7658.264705882353,7715.470588235294,7442.029411764706,7659.823529411765,7572.794117647059,-1.904534029411765,-1.7134933823529412,-0.8033483235294118,0.4403450882352941,0.8705211764705882,-0.2908866470588235,0.10467735294117647,-0.03632702941176471,-0.04372823529411765,0.10546858823529412,-0.045869529411764705,0.1730335294117647,0.03306547058823529,-0.019234882352941175,0.019399411764705884,0.0563821176470588,-0.2647633529411765,-8.811868088235295,0.20087026470588235,-0.020256470588235292,0.022381882352941175,-1.9210375294117645,-1.7416996470588235,-0.7829003529411764,0.07089558823529411,6491.764705882353,92.94117647058823,-37.470588235294116,-254.64705882352942,0.10334832352941181
0 days 00:01:09.620867,-5.875176212121212,-1.6545868484848485,-0.12025536363636369,0.4614188181818182,0.9196084848484848,-0.25440278787878784,0.3659142121212121,0.6183498484848485,0.2018859696969697,0.09585478787878787,-0.03543578787878788,-0.04281448484848485,10.0,8.0,-68.0,0.029915,0.071957,0.0,-14.94720203030303,-0.328856,332.0,7699.212121212121,7224.636363636364,7540.333333333333,7510.969696969697,7818.272727272727,7152.969696969697,7515.545454545455,7569.424242424242,-1.875176212121212,-1.6545868484848485,-0.8202553636363636,0.4614188181818182,0.9196084848484848,-0.25440278787878784,0.09585478787878787,-0.03543578787878788,-0.04281448484848485,0.10440018181818182,-0.046366363636363636,0.17300172727272728,0.03306418181818182,-0.019235272727272726,0.01940109090909091,0.2735854545454546,-0.2914003333333333,-9.461440484848485,-0.35074127272727273,-0.003373575757575757,0.025442454545454546,-1.903122818181818,-1.7061863636363637,-0.7955742727272728,0.0696759090909091,6374.0,358.969696969697,-56.72727272727273,-431.6363636363636,0.12025536363636369
0 days 00:01:09.685867,-5.844878333333334,-1.5935775454545456,-0.134907393939394,0.47737251515151513,0.9533972121212121,-0.22757545454545455,-0.2607922727272728,0.47822157575757573,0.5480189999999999,0.07489366666666666,-0.03453333333333333,-0.043868696969696974,10.0,8.878787878787879,-65.36363636363636,0.06689451515151515,0.07816027272727273,0.0,-15.442863969696969,0.314949696969697,366.27272727272725,7873.939393939394,7323.272727272727,7588.969696969697,7679.151515151515,7915.787878787879,7401.333333333333,7624.272727272727,7788.121212121212,-1.8448783333333334,-1.5935775454545456,-0.834907393939394,0.47737251515151513,0.9533972121212121,-0.22757545454545455,0.07489366666666666,-0.03453333333333333,-0.043868696969696974,0.10255,-0.047178,0.172953,0.033062,-0.019236,0.019404,-0.3197206363636364,-0.22552675757575757,-9.093128545454546,-0.284290696969697,-0.0015461212121212092,0.01745969696969697,-1.868517,-1.637654,-0.818615,0.067049,6611.575757575758,338.6363636363636,-47.57575757575758,-247.54545454545453,0.134907393939394
0 days 00:01:09.750867,-5.814128272727273,-1.5305804545454544,-0.1482933333333334,0.48754490909090914,0.9813569393939394,-0.19991154545454545,0.06429375757575757,0.2978298181818182,0.7798865757575758,0.058537,-0.031693484848484846,-0.043854636363636366,10.0,7.666666666666667,-63.666666666666664,0.076025,0.07997881818181818,0.0,-15.911368909090907,0.226082,375.6666666666667,7935.878787878788,7312.242424242424,7610.909090909091,7895.151515151515,7880.181818181818,7314.484848484848,7573.454545454545,7854.363636363636,-1.8141282727272727,-1.5305804545454544,-0.8482933333333333,0.48754490909090914,0.9813569393939394,-0.19991154545454545,0.058537,-0.031693484848484846,-0.043854636363636366,0.10123218181818182,-0.04771109090909091,0.17292245454545455,0.033060545454545454,-0.019236727272727273,0.01940690909090909,0.03299593939393941,-0.23484848484848486,-8.863991545454546,-0.09835169696969696,0.017141727272727274,0.012998666666666667,-1.8342311818181818,-1.5681936363636364,-0.8361924545454545,0.05361263636363636,6573.818181818182,422.6060606060606,-116.39393939393939,-201.03030303030303,0.1482933333333334
0 days 00:01:09.815867,-5.781998529411765,-1.4653669999999999,-0.15981394117647063,0.4931385,1.006159911764706,-0.16462382352941174,-0.24163005882352942,0.321552,0.15496479411764708,0.05761944117647059,-0.030342705882352942,-0.043540676470588235,10.0,6.0588235294117645,-62.529411764705884,0.06614752941176472,0.08149323529411764,0.0,-16.241692588235292,-0.008902382352941175,373.29411764705884,7825.588235294118,7262.676470588235,7527.088235294118,7851.411764705882,7818.764705882353,7285.911764705882,7550.558823529412,7831.117647058823,-1.7819985294117646,-1.4653669999999999,-0.8598139411764706,0.4931385,1.006159911764706,-0.16462382352941174,0.05761944117647059,-0.030342705882352942,-0.043540676470588235,0.10057117647058822,-0.04789064705882353,0.17291311764705886,0.033059882352941175,-0.019237117647058825,0.01940858823529412,-0.23986097058823527,-0.2470128529411765,-9.482393029411766,0.13778864705882354,-0.009614794117647058,0.020471911764705884,-1.815192705882353,-1.5299002352941176,-0.8456589411764706,0.04847470588235294,6525.794117647059,406.1470588235294,-138.23529411764707,-178.14705882352942,0.15981394117647063
0 days 00:01:09.880867,-5.749621727272727,-1.398555696969697,-0.1707009696969698,0.4956052121212121,1.0330222424242423,-0.14194612121212122,-0.22778390909090912,0.45550118181818183,0.47982093939393944,0.06850039393939394,-0.03196987878787878,-0.04359972727272727,10.0,5.0,-62.0,0.051807,0.082897,0.0,-16.533205575757574,-0.159013,368.0,7830.30303030303,7322.69696969697,7533.545454545455,7798.848484848485,7787.878787878788,7384.818181818182,7553.878787878788,7751.787878787879,-1.7496217272727272,-1.398555696969697,-0.8707009696969698,0.4956052121212121,1.0330222424242423,-0.14194612121212122,0.06850039393939394,-0.03196987878787878,-0.04359972727272727,0.09932,-0.047738,0.172929,0.033059,-0.019238,0.019413,-0.2257930303030303,-0.2013197878787879,-9.16533503030303,0.2775953333333333,-0.06591054545454546,0.015883939393939395,-1.768833,-1.438057,-0.867221,0.04773,6523.0,300.030303030303,-66.39393939393939,-145.0,0.1707009696969698
0 days 00:01:09.945867,-5.717170060606061,-1.3314245454545455,-0.1801060909090909,0.5050069696969697,1.056761303030303,-0.10498169696969696,0.07095290909090908,0.30728918181818177,0.6149556969696969,0.07738315151515152,-0.03297787878787879,-0.043213272727272725,10.0,3.0606060606060606,-60.06060606060606,0.07224445454545454,0.08482839393939394,0.0,-16.790242484848484,0.22339924242424244,383.5151515151515,7732.030303030303,7355.060606060606,7568.363636363636,7762.030303030303,7773.515151515152,7327.272727272727,7555.69696969697,7760.878787878788,-1.7171700606060607,-1.3314245454545455,-0.8801060909090909,0.5050069696969697,1.056761303030303,-0.10498169696969696,0.07738315151515152,-0.03297787878787879,-0.043213272727272725,0.09869760606060607,-0.046826,0.17298024242424243,0.033060151515151515,-0.019238,0.01941587878787879,0.07747393939393941,-0.40095287878787883,-9.020892606060606,0.006858121212121213,-0.030783909090909087,0.036044,-1.7392891515151514,-1.3795853636363635,-0.8798888181818182,0.05803087878787879,6501.393939393939,325.3030303030303,-107.66666666666667,-170.1818181818182,0.1801060909090909
0 days 00:01:10.010867,-5.683545176470588,-1.2615995294117648,-0.18722611764705888,0.5120002941176471,1.0824542647058824,-0.08490832352941177,-0.20605773529411764,0.29253155882352944,0.2498606764705882,0.07195882352941177,-0.033126588235294116,-0.043307235294117646,10.0,3.0,-57.705882352941174,0.07499388235294117,0.08623755882352942,0.0,-17.13327829411765,0.13256438235294118,388.5882352941176,7763.794117647059,7360.205882352941,7596.735294117647,7758.323529411765,7760.882352941177,7379.235294117647,7617.029411764706,7804.323529411765,-1.6835451764705882,-1.2615995294117648,-0.8872261176470588,0.5120002941176471,1.0824542647058824,-0.08490832352941177,0.07195882352941177,-0.033126588235294116,-0.043307235294117646,0.098239,-0.046154,0.173018,0.033061,-0.019238,0.019418,-0.22532744117647058,-0.40165449999999997,-9.382209352941176,-0.1307300294117647,0.02058682352941176,0.02160644117647059,-1.71752,-1.336501,-0.889223,0.065621,6552.205882352941,284.02941176470586,-140.47058823529412,-137.38235294117646,0.18722611764705888
0 days 00:01:10.075867,-5.648530909090909,-1.1915300606060606,-0.1965176363636364,0.5238271818181819,1.0903445757575758,-0.08126806060606061,-0.005164121212121222,0.004871666666666634,0.09117993939393944,0.05733106060606061,-0.030499818181818183,-0.04284045454545454,10.0,3.5757575757575757,-55.27272727272727,0.0763740909090909,0.08870454545454545,0.0,-17.444102242424243,0.09022763636363636,393.45454545454544,7827.606060606061,7332.909090909091,7637.090909090909,7879.787878787879,7831.363636363636,7344.69696969697,7642.757575757576,7865.121212121212,-1.648530909090909,-1.1915300606060606,-0.8965176363636363,0.5238271818181819,1.0903445757575758,-0.08126806060606061,0.05733106060606061,-0.030499818181818183,-0.04284045454545454,0.09755730303030302,-0.04312757575757576,0.17317024242424242,0.03306487878787878,-0.019235090909090907,0.019421878787878787,0.009854454545454538,-0.5317530606060606,-9.533942909090909,-0.1772979393939394,0.011511575757575755,0.020877666666666666,-1.6624276363636363,-1.2289305757575757,-0.9068472424242425,0.05673857575757575,6595.545454545455,353.8787878787879,-165.75757575757575,-186.66666666666666,0.1965176363636364
0 days 00:01:10.140867,-5.614002848484848,-1.1214346969696969,-0.20252324242424247,0.5308617575757576,1.101307121212121,-0.06112639393939393,-0.1618397878787879,0.1950892424242424,0.08039633333333333,0.04575793939393939,-0.03042263636363636,-0.043011121212121216,10.0,3.878787878787879,-53.878787878787875,0.07822981818181818,0.09046315151515151,0.0,-17.725605333333334,0.10134130303030302,397.93939393939394,7842.575757575758,7375.515151515152,7657.636363636364,7903.909090909091,7838.727272727273,7359.090909090909,7625.757575757576,7905.515151515152,-1.6140028484848483,-1.1214346969696969,-0.9025232424242424,0.5308617575757576,1.101307121212121,-0.06112639393939393,0.04575793939393939,-0.03042263636363636,-0.043011121212121216,0.09745054545454546,-0.04171057575757576,0.17323439393939394,0.03306651515151515,-0.019233787878787878,0.01942290909090909,-0.15044984848484855,-0.23526281818181818,-9.56001418181818,-0.12323915151515152,-0.006798969696969694,0.017001121212121214,-1.6428005454545453,-1.1908817272727272,-0.9117946666666668,0.05368039393939394,6611.484848484848,379.030303030303,-166.5151515151515,-141.0909090909091,0.20252324242424247
0 days 00:01:10.205867,-5.57813003030303,-1.0514383636363636,-0.20977696969696968,0.5464238181818182,1.108888,-0.05673863636363636,0.0676393636363636,-0.0026874242424242386,0.25925096969696965,0.04080263636363636,-0.03198860606060606,-0.04310093939393939,10.0,2.0,-52.0,0.114544,0.093284,0.0,-17.90600024242424,0.477095,428.0,7772.090909090909,7339.0,7491.484848484848,7806.090909090909,7769.0,7324.606060606061,7457.818181818182,7768.363636363636,-1.5781300303030303,-1.0514383636363636,-0.9097769696969696,0.5464238181818182,1.108888,-0.05673863636363636,0.04080263636363636,-0.03198860606060606,-0.04310093939393939,0.097254,-0.038669,0.173371,0.03307,-0.019231,0.019425,0.1018288787878788,-0.3522727272727273,-9.372898939393938,0.006651,-0.061752848484848494,0.02858669696969697,-1.601618,-1.111101,-0.921907,0.047285,6467.0,376.6969696969697,-66.15151515151516,-94.21212121212122,0.20977696969696968
0 days 00:01:10.270867,-5.540665470588236,-0.9804378235294117,-0.21669594117647062,0.5600975294117647,1.1092399117647058,-0.049124941176470587,-0.15863164705882352,0.04323676470588238,0.2155997941176471,0.042354147058823524,-0.03157435294117647,-0.04301814705882353,10.0,0.29411764705882354,-49.44117647058823,0.10522329411764707,0.09721717647058824,0.0,-18.152195970588235,0.11238347058823528,430.55882352941177,7685.0,7302.794117647059,7539.441176470588,7776.35294117647,7688.970588235294,7349.794117647059,7538.323529411765,7784.705882352941,-1.5406654705882354,-0.9804378235294117,-0.9166959411764706,0.5600975294117647,1.1092399117647058,-0.049124941176470587,0.042354147058823524,-0.03157435294117647,-0.04301814705882353,0.09713929411764706,-0.03491605882352941,0.17352982352941176,0.03307514705882353,-0.019227323529411765,0.019425,-0.13548373529411767,-0.331456794117647,-9.415986911764705,0.07322073529411764,-0.01494279411764706,0.016659029411764704,-1.5594569705882353,-1.0307774705882353,-0.9306187647058825,0.04714529411764706,6481.823529411765,292.1470588235294,-141.91176470588235,-65.67647058823529,0.21669594117647062
0 days 00:01:10.335867,-5.5028777575757575,-0.9086598787878788,-0.22114603030303026,0.5711678787878788,1.108419909090909,-0.013568333333333333,0.04153169696969698,-0.14316260606060605,0.8123285151515152,0.042880303030303026,-0.031783121212121214,-0.04265487878787878,10.0,0.0,-47.0,0.10055963636363635,0.09964263636363636,0.0,-18.405322272727272,0.05556127272727273,434.3333333333333,7709.30303030303,7388.484848484848,7551.606060606061,7753.545454545455,7699.393939393939,7386.424242424242,7607.848484848485,7790.606060606061,-1.5028777575757575,-0.9086598787878788,-0.9211460303030302,0.5711678787878788,1.108419909090909,-0.013568333333333333,0.042880303030303026,-0.031783121212121214,-0.04265487878787878,0.09701360606060606,-0.03283863636363636,0.17361866666666664,0.03307760606060606,-0.01922509090909091,0.019425,0.07836181818181821,-0.4969815151515151,-8.818300151515151,0.010209454545454546,0.02369639393939394,0.02310460606060606,-1.534770818181818,-0.9843541818181816,-0.9349942424242424,0.04668939393939393,6525.090909090909,247.45454545454547,-156.0,-91.84848484848484,0.22114603030303026
0 days 00:01:10.400867,-5.463383393939393,-0.8383987878787879,-0.22558254545454548,0.5883732121212121,1.107673787878788,0.00010148484848484839,-0.0899708787878788,0.04664366666666667,0.03348106060606061,0.03566557575757576,-0.029686666666666667,-0.04213212121212121,10.0,0.0,-46.0,0.099036,0.100547,0.0,-18.588982333333334,0.06775,436.0,7767.272727272727,7330.030303030303,7614.878787878788,7863.939393939394,7785.757575757576,7313.515151515152,7593.484848484848,7856.606060606061,-1.4633833939393939,-0.8383987878787879,-0.9255825454545454,0.5883732121212121,1.107673787878788,0.00010148484848484839,0.03566557575757576,-0.029686666666666667,-0.04213212121212121,0.096541,-0.028771,0.173796,0.033081,-0.01922,0.019425,-0.03580733333333328,-0.26231063636363633,-9.600763545454546,-0.1061790303030303,-0.0055708484848484814,0.018998575757575756,-1.481525,-0.886316,-0.941934,0.044418,6548.0,367.1212121212121,-175.06060606060606,-147.63636363636363,0.22558254545454548
0 days 00:01:10.465867,-5.423483558823529,-0.7664555882352941,-0.22809682352941185,0.5831618529411765,1.1105066176470588,0.015004764705882353,-0.4493528235294118,-0.10585967647058823,0.264924294117647,0.02861744117647059,-0.030518029411764704,-0.04225364705882353,10.0,0.0,-43.44117647058823,0.099036,0.100547,0.0,-18.752126352941175,0.06775,439.4117647058824,7794.0,7374.088235294118,7565.764705882353,7862.5,7798.470588235294,7348.088235294118,7539.588235294118,7862.058823529412,-1.4234835588235293,-0.7664555882352941,-0.9280968235294118,0.5831618529411765,1.1105066176470588,0.015004764705882353,0.02861744117647059,-0.030518029411764704,-0.04225364705882353,0.09633964705882353,-0.025724147058823532,0.1739244705882353,0.0330834705882353,-0.019215676470588236,0.019423764705882352,-0.4128848823529412,-0.3522517647058823,-9.362333470588236,-0.08506141176470589,-0.03091970588235294,0.02686270588235294,-1.444110411764706,-0.8186342352941176,-0.9446201470588236,0.040667029411764706,6547.64705882353,385.7647058823529,-127.29411764705883,-90.41176470588235,0.22809682352941185
0 days 00:01:10.530867,-5.3844076969696975,-0.6944353939393939,-0.2286153333333334,0.5877094545454545,1.104386090909091,0.027789151515151517,0.05279703030303033,-0.17741357575757577,0.16013327272727276,0.02371309090909091,-0.028912969696969697,-0.042184515151515146,10.0,-0.6666666666666666,-40.333333333333336,0.09405645454545454,0.10499263636363637,0.0,-18.961441272727274,0.05284445454545455,442.6666666666667,7668.848484848485,7388.939393939394,7639.272727272727,7789.151515151515,7600.787878787879,7445.515151515152,7681.575757575758,7757.181818181818,-1.384407696969697,-0.6944353939393939,-0.9286153333333333,0.5877094545454545,1.104386090909091,0.027789151515151517,0.02371309090909091,-0.028912969696969697,-0.042184515151515146,0.096215,-0.023838,0.174004,0.033085,-0.019213,0.019423,0.10209512121212123,-0.3469461212121212,-9.473869515151515,-0.06618424242424242,0.024673121212121212,0.018658272727272728,-1.420949,-0.776736,-0.946283,0.038345,6525.363636363636,115.27272727272727,-195.84848484848484,-56.303030303030305,0.2286153333333334
0 days 00:01:10.595867,-5.3434071515151516,-0.6249894242424242,-0.2311306363636364,0.5978082424242424,1.0875907272727274,0.04763739393939394,-0.3414961515151515,-0.4593309696969697,0.7457449393939394,3.030303030303033e-05,-0.027453515151515152,-0.04081809090909091,10.0,-1.0,-38.09090909090909,0.09018178787878788,0.10941281818181818,0.0,-19.118027939393937,0.05347578787878788,445.8181818181818,7808.848484848485,7214.030303030303,7550.454545454545,7899.909090909091,7932.242424242424,7114.575757575758,7489.969696969697,7947.0,-1.3434071515151516,-0.6249894242424242,-0.9311306363636364,0.5978082424242424,1.0875907272727274,0.04763739393939394,3.030303030303033e-05,-0.027453515151515152,-0.04081809090909091,0.096082,-0.018666,0.174215,0.033088,-0.019206,0.019419,-0.25127242424242424,-0.4069602424242424,-8.893495454545453,-0.4027580303030303,-0.01966439393939394,0.023585515151515152,-1.355788,-0.661702,-0.948248,0.032774,6524.878787878788,636.3333333333334,-194.6060606060606,-254.57575757575756,0.2311306363636364
0 days 00:01:10.660867,-5.3037543939393945,-0.5562562424242424,-0.22855154545454548,0.5927969999999999,1.0645934242424242,0.1004999696969697,-0.2303151515151515,-0.3732095454545455,0.7383187575757576,-0.001798969696969697,-0.026494606060606062,-0.04222912121212121,10.0,-1.0,-37.0,0.088785,0.111964,0.0,-19.280927787878788,0.065892,448.0,7727.969696969697,7327.090909090909,7580.636363636364,7911.333333333333,7659.212121212121,7392.878787878788,7565.575757575758,7911.848484848485,-1.303754393939394,-0.5562562424242424,-0.9285515454545454,0.5927969999999999,1.0645934242424242,0.1004999696969697,-0.001798969696969697,-0.026494606060606062,-0.04222912121212121,0.09625881818181818,-0.016077363636363636,0.17431818181818182,0.03308981818181818,-0.01920190909090909,0.019415363636363637,-0.16314509090909088,-0.30308951515151517,-8.902195787878789,0.21235060606060607,1.4818181818182339e-05,0.025656848484848484,-1.3272434545454546,-0.6135574545454545,-0.948063,0.027554454545454545,6541.0,305.7878787878788,-212.24242424242425,56.42424242424242,0.22855154545454548
0 days 00:01:10.725867,-5.263294529411764,-0.4881325588235294,-0.22406002941176473,0.5952112058823529,1.0438558235294118,0.12157899999999999,-0.20243202941176475,-0.338675,0.24609820588235298,0.00824214705882353,-0.02672855882352941,-0.0406960294117647,10.0,-1.9411764705882353,-34.1764705882353,0.10727467647058822,0.11182267647058823,0.0,-19.432298588235295,0.23785447058823528,466.8235294117647,7727.735294117647,7306.205882352941,7576.558823529412,7828.14705882353,7688.823529411765,7301.823529411765,7623.705882352941,7793.676470588235,-1.2632945294117646,-0.4881325588235294,-0.9240600294117647,0.5952112058823529,1.0438558235294118,0.12157899999999999,0.00824214705882353,-0.02672855882352941,-0.0406960294117647,0.096471,-0.012971,0.174442,0.033092,-0.019197,0.019411,-0.1285040882352941,-0.3475701470588235,-9.389820794117648,0.19000605882352942,0.004954647058823525,0.018662323529411766,-1.29299,-0.555784,-0.9478409999999999,0.021291,6498.14705882353,277.97058823529414,-213.08823529411765,-153.1764705882353,0.22406002941176473
0 days 00:01:10.790867,-5.221461424242424,-0.42217215151515153,-0.22034066666666663,0.6058666363636364,1.0281490606060606,0.14652166666666666,-0.06579839393939396,-0.17918945454545454,0.3797926060606061,0.012588969696969696,-0.026302151515151518,-0.04001909090909091,10.0,-2.0,-30.96969696969697,0.10514181818181818,0.1135719090909091,0.0,-19.580470727272726,0.12221527272727273,473.3030303030303,7734.333333333333,7307.545454545455,7622.181818181818,7797.30303030303,7728.212121212121,7317.575757575758,7652.575757575758,7780.333333333333,-1.2214614242424242,-0.42217215151515153,-0.9203406666666666,0.6058666363636364,1.0281490606060606,0.14652166666666666,0.012588969696969696,-0.026302151515151518,-0.04001909090909091,0.09699463636363637,-0.007200363636363636,0.1746686363636364,0.03309772727272727,-0.019189636363636364,0.019399545454545454,-0.00819721212121212,-0.2298769393939394,-9.255889030303031,0.033166,-0.008611454545454544,0.022919727272727272,-1.2377848181818183,-0.46713072727272725,-0.9451851818181818,0.026512636363636363,6523.090909090909,268.75757575757575,-193.33333333333334,-199.5151515151515,0.22034066666666663
0 days 00:01:10.855867,-5.180427575757576,-0.3573211212121212,-0.21381430303030302,0.6147049393939394,1.0088014545454544,0.15271051515151515,-0.17803081818181823,-0.4963757272727273,0.22638251515151514,0.00797890909090909,-0.025049363636363637,-0.039818151515151515,10.0,-2.0,-28.363636363636363,0.09630536363636363,0.11569912121212123,0.0,-19.680785636363634,0.02880615151515151,474.45454545454544,7723.0,7282.484848484848,7642.424242424242,7851.939393939394,7761.0,7265.0,7619.181818181818,7864.515151515152,-1.1804275757575757,-0.3573211212121212,-0.913814303030303,0.6147049393939394,1.0088014545454544,0.15271051515151515,0.00797890909090909,-0.025049363636363637,-0.039818151515151515,0.09740493939393939,-0.003664969696969697,0.1748099090909091,0.03310021212121213,-0.01918466666666667,0.019392454545454546,-0.06824103030303029,-0.5018052424242424,-9.413204272727272,-0.10514321212121212,-0.02053736363636364,0.02756569696969697,-1.2059660909090908,-0.4173457575757576,-0.9428643939393939,0.02612178787878788,6534.0,370.06060606060606,-228.3939393939394,-176.96969696969697,0.21381430303030302
0 days 00:01:10.920867,-5.137375529411765,-0.29330608823529414,-0.2084675588235294,0.6220754411764706,0.9843431470588235,0.15280320588235294,-0.2132764117647059,-0.43801544117647057,0.45364020588235293,0.0031209117647058825,-0.02662670588235294,-0.03945026470588236,10.0,-2.0588235294117645,-26.823529411764707,0.09047905882352941,0.11720814705882353,0.0,-19.712832676470587,0.0014491470588235296,475.8235294117647,7718.558823529412,7321.382352941177,7636.029411764706,7835.235294117647,7748.205882352941,7276.794117647059,7610.058823529412,7870.088235294118,-1.1373755294117647,-0.29330608823529414,-0.9084675588235294,0.6220754411764706,0.9843431470588235,0.15280320588235294,0.0031209117647058825,-0.02662670588235294,-0.03945026470588236,0.098081,0.001517,0.175019,0.033103,-0.019177,0.019382,-0.10874299999999998,-0.3978343823529412,-9.187212735294118,-0.07873535294117646,-0.020967382352941176,0.032499529411764705,-1.160999,-0.348152,-0.938884,0.022554,6532.411764705882,365.1470588235294,-227.2058823529412,-149.05882352941177,0.2084675588235294
0 days 00:01:10.985867,-5.094749787878788,-0.23123054545454547,-0.20192587878787882,0.6160084848484848,0.9601651515151515,0.1978529393939394,-0.460098393939394,-0.30557236363636364,0.6124829696969697,-0.001160878787878788,-0.027409060606060607,-0.03872648484848484,10.0,-3.0,-24.0,0.126979,0.12147000000000001,0.0,-19.778905757575757,0.459164,505.0,7665.030303030303,7287.363636363636,7675.969696969697,7755.606060606061,7666.969696969697,7316.69696969697,7654.848484848485,7718.030303030303,-1.0947497878787877,-0.23123054545454547,-0.9019258787878788,0.6160084848484848,0.9601651515151515,0.1978529393939394,-0.001160878787878788,-0.027409060606060607,-0.03872648484848484,0.09923033333333334,0.006985666666666666,0.175235,0.033107,-0.019170333333333334,0.019370666666666668,-0.3628669696969697,-0.22801257575757578,-9.023200757575758,-0.03616233333333333,-0.05207587878787879,0.02024142424242424,-1.115477,-0.28018666666666664,-0.9329333333333333,0.022020666666666664,6480.0,206.36363636363637,-194.27272727272728,-202.78787878787878,0.20192587878787882
0 days 00:01:11.050867,-5.053714393939394,-0.17102866666666666,-0.1919661515151515,0.6066183333333334,0.9349282424242424,0.22120439393939392,-0.46816706060606067,-0.4958513939393939,0.32845851515151514,-0.009402454545454547,-0.026775606060606062,-0.03821039393939394,8.781281363636364,-2.1515151515151514,-21.454545454545453,0.12186127272727273,0.12122127272727272,0.02560812121212121,-19.885445545454544,0.1541188181818182,512.6363636363636,7782.454545454545,7187.606060606061,7646.848484848485,7865.181818181818,7759.393939393939,7234.181818181818,7686.575757575758,7875.878787878788,-1.053714393939394,-0.17102866666666666,-0.8919661515151515,0.6066183333333334,0.9349282424242424,0.22120439393939392,-0.009402454545454547,-0.026775606060606062,-0.03821039393939394,0.10013090909090909,0.011021212121212121,0.17539572727272726,0.033109454545454546,-0.019165181818181817,0.019361818181818185,-0.3864524242424242,-0.33925187878787877,-9.310191696969698,-0.007967757575757576,0.030931939393939394,0.00837469696969697,-1.0828272121212121,-0.2321808181818182,-0.928328909090909,0.021004,6550.363636363636,356.6969696969697,-283.93939393939394,-237.06060606060606,0.1919661515151515
0 days 00:01:11.115867,-5.0114750606060605,-0.11303027272727273,-0.18407924242424245,0.605369090909091,0.9056441818181818,0.22164009090909093,-0.24363606060606058,-0.5034172424242425,-0.08217206060606055,-0.006480181818181818,-0.02600187878787879,-0.03768136363636364,3.2819278181818183,-2.0,-19.09090909090909,0.11661490909090909,0.12061448484848486,0.120724,-20.04090718181818,0.07532130303030304,517.8181818181819,7716.272727272727,7331.545454545455,7697.454545454545,7823.212121212121,7692.121212121212,7316.0,7718.727272727273,7820.242424242424,-1.0114750606060607,-0.11303027272727273,-0.8840792424242424,0.605369090909091,0.9056441818181818,0.22164009090909093,-0.006480181818181818,-0.02600187878787879,-0.03768136363636364,0.101956,0.018308,0.175691,0.033112,-0.019155,0.019344,-0.15758163636363637,-0.3415897575757576,-9.72558590909091,0.08036666666666667,0.0162390303030303,0.028017,-1.02745,-0.153651,-0.919206,0.016804,6547.212121212121,238.5151515151515,-264.969696969697,-193.93939393939394,0.18407924242424245
0 days 00:01:11.180867,-4.969854735294118,-0.055789647058823534,-0.17366441176470593,0.6059075294117647,0.8778845294117648,0.23363629411764708,-0.30400382352941174,-0.41906373529411767,0.5063272941176471,-0.007063882352941177,-0.02586964705882353,-0.036945882352941176,3.2560945294117647,-2.0,-17.558823529411764,0.11594,0.12044823529411766,0.120724,-20.166323558823528,0.09253158823529412,522.9411764705883,7701.5,7289.823529411765,7701.588235294118,7804.676470588235,7719.323529411765,7304.294117647059,7695.588235294118,7794.529411764706,-0.9698547352941176,-0.055789647058823534,-0.8736644117647059,0.6059075294117647,0.8778845294117648,0.23363629411764708,-0.007063882352941177,-0.02586964705882353,-0.036945882352941176,0.1033945,0.023173000000000003,0.175885,0.033115,-0.019149,0.019331,-0.2080365588235294,-0.25815714705882353,-9.13700594117647,-0.01644358823529412,-0.03282264705882353,0.024665411764705884,-0.9928730000000001,-0.10733150000000001,-0.9126965,0.017364,6535.470588235294,256.55882352941177,-232.85294117647058,-223.14705882352942,0.17366441176470593
0 days 00:01:11.245867,-4.9282078787878785,-0.00042278787878787877,-0.1620184242424243,0.6035634242424243,0.8486242121212121,0.25468118181818183,-0.29467154545454544,-0.6300841818181818,0.31664157575757573,-0.011913030303030302,-0.024435000000000002,-0.03618393939393939,3.230487727272727,-2.0,-15.0,0.13091,0.12188999999999998,0.120724,-20.195062363636364,0.275281,540.0,7670.757575757576,7320.121212121212,7758.121212121212,7770.242424242424,7728.545454545455,7283.30303030303,7714.787878787879,7797.181818181818,-0.9282078787878787,-0.00042278787878787877,-0.8620184242424243,0.6035634242424243,0.8486242121212121,0.25468118181818183,-0.011913030303030302,-0.024435000000000002,-0.03618393939393939,0.104833,0.028038,0.176079,0.033118,-0.019143,0.019318,-0.1513671212121212,-0.40385296969696965,-9.329722939393939,-0.1593203333333333,0.03127218181818182,0.03724251515151515,-0.958296,-0.06101199999999999,-0.906187,0.017924,6539.0,263.42424242424244,-249.63636363636363,-256.06060606060606,0.1620184242424243
0 days 00:01:11.310867,-4.885079212121212,0.05089630303030303,-0.1550679696969698,0.6148590606060605,0.8136373636363636,0.21979460606060605,-0.19350118181818185,-0.5885707272727273,-0.3623356363636364,-0.021552363636363637,-0.023914515151515152,-0.035418818181818176,3.205449424242424,-2.0,-11.242424242424242,0.09921545454545455,0.12455,0.120724,-20.133586242424244,-0.05877718181818182,530.6060606060606,7655.787878787879,7187.969696969697,7824.878787878788,7860.393939393939,7632.787878787879,7205.212121212121,7816.181818181818,7872.090909090909,-0.8850792121212121,0.05089630303030303,-0.8550679696969697,0.6148590606060605,0.8136373636363636,0.21979460606060605,-0.021552363636363637,-0.023914515151515152,-0.035418818181818176,0.10840175757575758,0.037830242424242426,0.17647260606060605,0.03312269696969697,-0.01913078787878788,0.01929169696969697,-0.031486757575757536,-0.23940578787878788,-10.015210636363637,-0.07647515151515152,-0.06643590909090909,0.009824878787878787,-0.8963326363636364,0.01805490909090909,-0.8933389090909092,0.009465696969696971,6539.909090909091,241.3939393939394,-424.5151515151515,-262.3636363636364,0.1550679696969698
0 days 00:01:11.375867,-4.843576484848485,0.10155012121212122,-0.14466578787878792,0.6172479393939394,0.7751087272727273,0.21418642424242423,-0.49544509090909095,-0.6671041818181818,0.1597004848484849,-0.02848790909090909,-0.03404918181818182,-0.03463006060606061,3.180593787878788,-2.0,-9.545454545454545,0.10893018181818181,0.12595066666666668,0.120724,-20.13468396969697,0.16041066666666665,544.5454545454545,7829.545454545455,7209.272727272727,7665.0,7800.090909090909,7830.30303030303,7282.939393939394,7662.030303030303,7743.454545454545,-0.8435764848484849,0.10155012121212122,-0.8446657878787879,0.6172479393939394,0.7751087272727273,0.21418642424242423,-0.02848790909090909,-0.03404918181818182,-0.03463006060606061,0.10988433333333333,0.041716,0.17662866666666666,0.033124,-0.019125333333333334,0.019279666666666667,-0.4079663333333334,-0.2708629393939394,-9.487926212121211,0.03955812121212121,-0.19657757575757578,0.004246545454545455,-0.869095,0.05078066666666667,-0.8872753333333333,0.009825,6537.212121212121,313.93939393939394,-145.8181818181818,-328.8181818181818,0.14466578787878792
0 days 00:01:11.440867,-4.800033029411765,0.1497271470588235,-0.13633408823529414,0.6135144705882353,0.7301036764705883,0.2273625,-0.06507952941176469,-0.7481921176470588,0.28367626470588236,-0.02332876470588235,-0.038036205882352944,-0.034205882352941176,3.155576911764706,-2.0,-8.294117647058824,0.114532,0.126444,0.120724,-20.415473588235294,0.270234,551.4117647058823,7706.323529411765,7319.558823529412,7700.205882352941,7812.85294117647,7704.205882352941,7268.14705882353,7713.529411764706,7829.85294117647,-0.8000330294117647,0.1497271470588235,-0.8363340882352941,0.6135144705882353,0.7301036764705883,0.2273625,-0.02332876470588235,-0.038036205882352944,-0.034205882352941176,0.112389,0.048224,0.17689,0.033126,-0.019116,0.019259,0.0009477941176470442,-0.38884426470588235,-9.373764882352942,0.0752169411764706,0.004437705882352946,0.03624770588235294,-0.822615,0.10603,-0.876806,0.011635,6536.205882352941,275.79411764705884,-285.1470588235294,-225.6764705882353,0.13633408823529414
0 days 00:01:11.505867,-4.755457909090909,0.19544703030303032,-0.1279684848484849,0.6322220000000001,0.6955368484848484,0.22783657575757577,-0.1865629090909091,-0.4763011212121212,0.011749121212121296,-0.019069151515151515,-0.036586818181818186,-0.0331580303030303,3.130754303030303,-1.878787878787879,-5.909090909090909,0.114532,0.126444,0.120724,-20.621456848484847,0.270234,556.7878787878788,7644.181818181818,7262.030303030303,7800.939393939394,7809.878787878788,7636.575757575758,7250.30303030303,7794.848484848485,7836.424242424242,-0.755457909090909,0.19544703030303032,-0.8279684848484848,0.6322220000000001,0.6955368484848484,0.22783657575757577,-0.019069151515151515,-0.036586818181818186,-0.0331580303030303,0.11545718181818182,0.05557290909090909,0.17718863636363635,0.033126818181818174,-0.019103727272727272,0.019233636363636362,-0.0827710606060606,-0.14879254545454546,-9.63263496969697,0.04378987878787879,0.031464606060606054,0.030643303030303028,-0.768196909090909,0.1658227272727273,-0.8640579090909091,0.015889545454545455,6537.0,213.5151515151515,-371.6060606060606,-243.36363636363637,0.1279684848484849
0 days 00:01:11.570867,-4.712400333333333,0.239097,-0.1163112121212121,0.6566292424242425,0.6712169393939393,0.21576266666666666,-0.11034090909090907,-0.5556539393939395,-0.04889933333333333,-0.02500930303030303,-0.03548206060606061,-0.032108090909090906,3.1064862424242423,2.0,-3.0,0.132097,0.135718,0.120724,-20.736171848484847,0.22179,582.0,7750.30303030303,7458.181818181818,7908.69696969697,7761.030303030303,7848.060606060606,7472.333333333333,7899.727272727273,7796.787878787879,-0.7124003333333333,0.239097,-0.816311212121212,0.6566292424242425,0.6712169393939393,0.21576266666666666,-0.02500930303030303,-0.03548206060606061,-0.032108090909090906,0.1167809696969697,0.058529181818181814,0.17730848484848483,0.03312745454545454,-0.019099181818181817,0.019224060606060606,-0.0006511212121212266,-0.15820318181818183,-9.692412424242423,-0.26888763636363633,-0.0005844545454545513,0.039247454545454544,-0.745304,0.1898531818181818,-0.8586043939393939,0.015580606060606059,6713.0,136.0909090909091,-187.72727272727272,-337.93939393939394,0.1163112121212121
0 days 00:01:11.635867,-4.665923352941176,0.28034470588235294,-0.10936726470588243,0.6527283235294118,0.6258231764705883,0.20200920588235294,-0.7208855882352941,-0.8079830882352941,0.011439588235294104,-0.04688173529411765,-0.03036417647058823,-0.03136479411764706,3.0820454117647063,2.0,-1.3529411764705883,0.11846835294117646,0.14006341176470588,0.120724,-20.795138235294118,0.025519058823529412,580.3529411764706,7888.088235294118,7126.617647058823,7841.176470588235,7957.235294117647,7787.5,7171.088235294118,7828.088235294118,7897.323529411765,-0.6659233529411764,0.28034470588235294,-0.8093672647058824,0.6527283235294118,0.6258231764705883,0.20200920588235294,-0.04688173529411765,-0.03036417647058823,-0.03136479411764706,0.120376,0.065939,0.177608,0.03313,-0.019089,0.019202,-0.5564108235294118,-0.22018620588235296,-9.651194735294117,-0.06940067647058823,0.03672173529411765,-0.015014676470588236,-0.684824,0.250015,-0.843929,0.008556,6595.470588235294,342.1764705882353,-382.8235294117647,-386.3235294117647,0.10936726470588243
0 days 00:01:11.700867,-4.621009727272727,0.3190541515151515,-0.10079939393939397,0.6448290606060606,0.5746662727272727,0.19883269696969696,-0.3546190303030303,-0.8113726363636363,-0.15583627272727268,-0.04451257575757576,-0.03099312121212121,-0.031095333333333332,3.057785181818182,2.0,0.0,0.1176059090909091,0.14051151515151517,0.120724,-20.74837406060606,0.03645642424242424,586.0,7704.272727272727,7259.727272727273,7757.515151515152,7889.606060606061,7706.151515151515,7216.454545454545,7795.333333333333,7883.757575757576,-0.6210097272727273,0.3190541515151515,-0.8007993939393939,0.6448290606060606,0.5746662727272727,0.19883269696969696,-0.04451257575757576,-0.03099312121212121,-0.031095333333333332,0.12326933333333333,0.07106433333333334,0.17781799999999998,0.03313,-0.019081,0.019185999999999998,-0.16657790909090908,-0.21277224242424242,-9.816465515151515,0.10271663636363636,-0.01168918181818182,0.04145960606060606,-0.6397226666666667,0.290581,-0.8337596666666668,-0.0005179999999999999,6566.515151515152,288.4848484848485,-377.54545454545456,-283.3333333333333,0.10079939393939397
0 days 00:01:11.765867,-4.578091636363636,0.3543375454545455,-0.09061121212121215,0.6456421515151515,0.5299663636363636,0.1977381212121212,-0.5152109696969697,-0.7361427878787878,0.13331109090909088,-0.03868769696969697,-0.03422181818181819,-0.03017139393939394,3.0340972424242425,1.878787878787879,2.242424242424242,0.12309954545454546,0.13911072727272727,0.120724,-20.698237848484847,0.169777,599.2121212121212,7720.636363636364,7332.030303030303,7816.575757575758,7738.606060606061,7777.636363636364,7280.69696969697,7775.212121212121,7766.212121212121,-0.5780916363636364,0.3543375454545455,-0.7906112121212121,0.6456421515151515,0.5299663636363636,0.1977381212121212,-0.03868769696969697,-0.03422181818181819,-0.03017139393939394,0.12471600000000001,0.073627,0.177923,0.03313,-0.019077,0.019178,-0.35987800000000003,-0.21780309090909092,-9.524621181818182,0.021654575757575754,-0.06042854545454546,0.03500081818181818,-0.617172,0.310864,-0.828675,-0.005055,6565.818181818182,243.45454545454547,-241.12121212121212,-357.09090909090907,0.09061121212121215
0 days 00:01:11.830867,-4.534656454545455,0.3850899393939394,-0.0842449393939394,0.6371254545454546,0.48437260606060606,0.20402815151515152,-0.2618991515151515,-0.7619537272727273,0.4033309696969697,-0.03620221212121212,-0.03370157575757576,-0.02963736363636364,3.010575,1.0,4.0,0.116605,0.140708,0.120724,-20.777226545454543,0.081067,608.0,7739.212121212121,7165.393939393939,7833.454545454545,7783.424242424242,7678.757575757576,7200.060606060606,7840.212121212121,7762.363636363636,-0.5346564545454545,0.3850899393939394,-0.7842449393939394,0.6371254545454546,0.48437260606060606,0.20402815151515152,-0.03620221212121212,-0.03370157575757576,-0.02963736363636364,0.12893145454545454,0.08053063636363636,0.17820936363636364,0.03313454545454545,-0.019070636363636363,0.01916527272727273,-0.11570784848484848,-0.2662463636363636,-9.251657303030303,0.15978633333333334,0.0019604242424242457,0.011326636363636363,-0.5522010909090909,0.36225127272727276,-0.8144668181818183,-0.00044954545454545453,6524.0,200.1818181818182,-361.3030303030303,-392.8484848484849,0.0842449393939394
0 days 00:01:11.895867,-4.491877323529412,0.4147685588235294,-0.07280370588235296,0.6349352352941177,0.4436824705882353,0.2239005882352941,-0.5060533823529411,-0.6393115588235294,0.3761135294117646,-0.032016911764705884,-0.035250823529411765,-0.028877411764705884,2.986892176470588,1.911764705882353,6.735294117647059,0.12159029411764707,0.1418700588235294,0.120724,-20.864898147058824,0.1565955294117647,620.7647058823529,7720.14705882353,7356.470588235294,7902.0,7644.323529411765,7762.735294117647,7379.411764705882,7936.088235294118,7663.14705882353,-0.4918773235294117,0.4147685588235294,-0.7728037058823529,0.6349352352941177,0.4436824705882353,0.2239005882352941,-0.032016911764705884,-0.035250823529411765,-0.028877411764705884,0.1307056470588235,0.08331776470588236,0.17832682352941176,0.033135882352941175,-0.01906764705882353,0.019159000000000002,-0.3822381764705882,-0.20392920588235292,-9.273667294117647,-0.04118797058823529,-0.027214500000000003,0.03377764705882352,-0.5247213529411765,0.38174117647058825,-0.8083704117647059,0.0007280588235294117,6615.764705882353,55.294117647058826,-228.11764705882354,-463.3235294117647,0.07280370588235296
0 days 00:01:11.960867,-4.448386515151515,0.4412638484848485,-0.06296603030303038,0.6334620303030304,0.39978539393939394,0.22137566666666667,-0.3580417878787879,-0.8278864242424242,-0.1195524242424242,-0.046336999999999996,-0.03177030303030303,-0.028183030303030304,2.9633822727272725,2.0,7.848484848484849,0.12168063636363637,0.14217430303030304,0.120724,-20.91137012121212,0.14513839393939393,627.0909090909091,7791.30303030303,7151.969696969697,7986.848484848485,7839.30303030303,7796.666666666667,7132.484848484848,7952.757575757576,7825.878787878788,-0.4483865151515152,0.4412638484848485,-0.7629660303030303,0.6334620303030304,0.39978539393939394,0.22137566666666667,-0.046336999999999996,-0.03177030303030303,-0.028183030303030304,0.133952,0.08835,0.17854,0.033138,-0.019062,0.019147,-0.15358669696969698,-0.22093987878787877,-9.785600181818182,-0.17152727272727272,0.01881360606060606,0.006872939393939393,-0.474363,0.416184,-0.797149,0.002449,6603.969696969697,268.3333333333333,-424.0,-558.4848484848485,0.06296603030303038
0 days 00:01:12.025867,-4.403490393939394,0.46498733333333336,-0.05458624242424248,0.6433435454545454,0.347494,0.21477869696969698,-0.3909174848484849,-0.7896718787878788,0.13131984848484854,-0.049669424242424244,-0.0347200303030303,-0.027913636363636363,2.94042403030303,2.0,9.636363636363637,0.12269318181818181,0.14313818181818183,0.120724,-20.833791636363635,0.1245040909090909,639.0909090909091,7783.0,7227.454545454545,7830.909090909091,7748.787878787879,7769.787878787879,7263.121212121212,7848.727272727273,7724.121212121212,-0.4034903939393939,0.46498733333333336,-0.7545862424242424,0.6433435454545454,0.347494,0.21477869696969698,-0.049669424242424244,-0.0347200303030303,-0.027913636363636363,0.1381231515151515,0.09407303030303031,0.17878096969696972,0.033137151515151515,-0.019050969696969695,0.01912748484848485,-0.20383512121212122,-0.14473839393939392,-9.532256151515153,0.07419660606060607,-0.05456172727272727,0.023437484848484846,-0.41705718181818185,0.4499155151515151,-0.7842240303030303,-0.008153666666666667,6567.909090909091,190.78787878787878,-269.45454545454544,-445.5151515151515,0.05458624242424248
0 days 00:01:12.090867,-4.35962494117647,0.4860427352941176,-0.04307673529411771,0.6497730294117646,0.3001004705882353,0.21490708823529414,-0.3371079411764706,-0.7057799411764707,-0.013715617647058805,-0.04690067647058823,-0.035259294117647055,-0.027356911764705883,2.9172632647058823,2.0294117647058822,12.0,0.131226,0.146442,0.120724,-20.797076147058824,0.180687,658.1764705882352,7751.411764705882,7294.558823529412,7854.558823529412,7697.705882352941,7750.35294117647,7270.764705882353,7861.705882352941,7734.441176470588,-0.3596249411764706,0.4860427352941176,-0.7430767352941177,0.6497730294117646,0.3001004705882353,0.21490708823529414,-0.04690067647058823,-0.035259294117647055,-0.027356911764705883,0.14010447058823527,0.09671782352941177,0.17889341176470588,0.03313676470588235,-0.01904641176470588,0.019119764705882353,-0.1582605588235294,-0.07643041176470587,-9.669979323529411,0.023595470588235294,0.03843058823529411,0.02886605882352941,-0.3901609411764706,0.46407805882352937,-0.7783908235294118,-0.009782058823529411,6572.0,175.91176470588235,-287.0,-428.5,0.04307673529411771
0 days 00:01:12.155867,-4.314015454545455,0.5041565151515152,-0.03495566666666672,0.6576412424242424,0.2600641212121212,0.19634663636363636,-0.37946139393939393,-0.663687909090909,-0.17004521212121212,-0.042019818181818186,-0.03250487878787879,-0.02703045454545455,2.8943365151515152,3.0,12.0,0.123699,0.149445,0.120724,-20.71725409090909,0.066682,664.0,7791.151515151515,7205.181818181818,7838.575757575758,7845.666666666667,7788.090909090909,7260.30303030303,7853.69696969697,7842.969696969697,-0.31401545454545454,0.5041565151515152,-0.7349556666666667,0.6576412424242424,0.2600641212121212,0.19634663636363636,-0.042019818181818186,-0.03250487878787879,-0.02703045454545455,0.144123,0.101992,0.179119,0.033136,-0.019038,0.019106,-0.15826227272727272,-0.06821148484848485,-9.825550424242424,0.2609863636363636,-0.007494424242424247,0.01147460606060606,-0.336006,0.49053,-0.766934,-0.008921,6617.0,258.1212121212121,-323.72727272727275,-380.2121212121212,0.03495566666666672
0 days 00:01:12.220867,-4.269417242424242,0.5196170303030303,-0.02695227272727274,0.6592166060606061,0.2229727272727273,0.1921852727272727,-0.38697875757575756,-0.5640872727272727,0.024233636363636367,-0.023269181818181817,-0.033430969696969695,-0.026158848484848483,2.871904787878788,3.515151515151515,13.030303030303031,0.1199040909090909,0.1513800303030303,0.120724,-20.59823496969697,0.06844878787878787,668.1212121212121,7677.878787878788,7372.060606060606,7946.69696969697,7747.606060606061,7670.969696969697,7363.30303030303,7998.363636363636,7719.090909090909,-0.2694172424242424,0.5196170303030303,-0.7269522727272727,0.6592166060606061,0.2229727272727273,0.1921852727272727,-0.023269181818181817,-0.033430969696969695,-0.026158848484848483,0.14740851515151515,0.10625954545454545,0.1793078787878788,0.03313460606060606,-0.01903242424242424,0.019097636363636365,-0.18667133333333333,-0.16506869696969698,-9.621804,0.2474697878787879,-0.01802939393939394,0.0401279696969697,-0.2895578484848485,0.5085250606060605,-0.7571032424242424,-0.004304272727272727,6619.424242424242,14.303030303030303,-340.969696969697,-414.24242424242425,0.02695227272727274
