time,pos_x,pos_y,pos_z,vel_x,vel_y,vel_z,acc_x,acc_y,acc_z,att_phi,att_theta,att_psi,distance_est,centroid_x,centroid_y,divergence,true_divergence,divergence_sp,dt,raw_divergence,color_count,mu_x,p_output,i_output,mu_y, mu_z,rpm_obs_1,rpm_obs_2,rpm_obs_3,rpm_obs_4,rpm_ref_1,rpm_ref_2,rpm_ref_3,rpm_ref_4,ekf_X1,ekf_X2,ekf_X3,ekf_X4,ekf_X5,ekf_X6,ekf_X7,ekf_X8,ekf_X9,ekf_X10,ekf_X11,ekf_X12,ekf_X13,ekf_X14,ekf_X15,ekf_U1,ekf_U2,ekf_U3,ekf_U4,ekf_U5,ekf_U6,ekf_Z1,ekf_Z2,ekf_Z3,ekf_Z4,cmd_thrust,cmd_roll,cmd_pitch,cmd_yaw
0 days 00:00:27.436950,-5.555168484848485,2.1146326666666666,-0.3010937575757575,-0.04336781818181818,-0.028048090909090908,0.04202506060606061,0.44557690909090913,-0.24514187878787877,-0.35591130303030305,-0.008582969696969697,-0.054449454545454544,-0.14672760606060606,10.0,3.3333333333333335,49.333333333333336,0.0,0.0,0.0,0.065,0.0,441.0,0.0,0.0,0.0,0.0,0.0,7673.363636363636,7733.666666666667,7411.636363636364,7488.333333333333,7677.818181818182,7719.333333333333,7407.212121212121,7487.0,-1.6551684848484847,1.6146326666666666,-1.0010937575757575,-0.04336781818181818,-0.028048090909090908,0.04202506060606061,-0.008582969696969697,-0.054449454545454544,-0.14672760606060606,-0.12177684848484849,0.11231736363636363,0.15991642424242422,-0.0025334848484848483,-0.01974887878787879,0.0031717272727272727,-0.3177083333333333,0.0644827272727273,-10.01592096969697,-0.012140363636363637,-0.04911663636363636,0.012392030303030302,-1.6408639393939395,1.608349484848485,-1.0104753939393938,0.02489830303030303,6456.969696969697,19.03030303030303,251.12121212121212,85.63636363636364
0 days 00:00:27.501950,-5.55376896969697,2.110412909090909,-0.30046921212121225,-0.021982515151515152,-0.04283069696969697,0.02527421212121212,0.2379421515151515,-0.16108030303030302,0.011372878787878762,-0.009135484848484848,-0.05670445454545455,-0.14632254545454546,10.0,3.4545454545454546,49.0,0.0,0.0,0.0,0.065,0.0,448.8181818181818,0.0,0.0,0.0,0.0,0.0,7708.0,7704.757575757576,7394.757575757576,7463.818181818182,7708.030303030303,7710.515151515152,7394.181818181818,7451.727272727273,-1.6537689696969697,1.610412909090909,-1.0004692121212122,-0.021982515151515152,-0.04283069696969697,0.02527421212121212,-0.009135484848484848,-0.05670445454545455,-0.14632254545454546,-0.12187300000000001,0.11263,0.160012,-0.002526,-0.019727,0.00317,-0.5317531515151516,0.11834160606060606,-9.635061575757577,0.018184818181818184,-0.0366729393939394,0.00101360606060606,-1.638345,1.605207,-1.011278,0.02577,6447.454545454545,27.484848484848484,285.90909090909093,42.333333333333336
0 days 00:00:27.566950,-5.549008382352941,2.1048645294117647,-0.30170085294117643,-6.523529411764705e-05,-0.05572232352941177,0.018382911764705884,0.2716280588235294,-0.22636085294117644,-0.11282282352941178,-0.0069605000000000005,-0.056779647058823525,-0.14658582352941177,10.0,4.0,49.0,0.0,0.0,0.0,0.065,0.0,457.0,0.0,0.0,0.0,0.0,0.0,7689.64705882353,7718.617647058823,7385.14705882353,7454.294117647059,7689.911764705882,7732.294117647059,7374.0,7452.5,-1.6490083823529411,1.6048645294117647,-1.0017008529411764,-6.523529411764705e-05,-0.05572232352941177,0.018382911764705884,-0.0069605000000000005,-0.056779647058823525,-0.14658582352941177,-0.12178241176470586,0.1129610588235294,0.16017341176470587,-0.002516941176470588,-0.019692411764705885,0.0031749411764705883,-0.4852940294117647,0.03277226470588236,-9.763327176470588,0.04606367647058823,0.007834058823529411,0.0032671470588235304,-1.6336138235294118,1.599981705882353,-1.0133195294117647,0.027881529411764708,6441.941176470588,18.029411764705884,297.4117647058824,85.32352941176471
0 days 00:00:27.631950,-5.545531,2.099742,-0.3021684242424243,0.012338787878787878,-0.06538842424242423,0.01655030303030303,0.18945636363636364,-0.08708084848484848,0.06807178787878787,-0.003489242424242424,-0.0526,-0.14631654545454545,10.0,4.96969696969697,49.0,0.0,0.0,0.0,0.065,0.0,461.8484848484849,0.0,0.0,0.0,0.0,0.0,7672.727272727273,7717.515151515152,7403.060606060606,7457.121212121212,7660.848484848485,7697.272727272727,7418.909090909091,7459.757575757576,-1.645531,1.599742,-1.0021684242424242,0.012338787878787878,-0.06538842424242423,0.01655030303030303,-0.003489242424242424,-0.0526,-0.14631654545454545,-0.12162063636363635,0.11301563636363636,0.16026636363636362,-0.002513090909090909,-0.01967327272727273,0.003179,-0.5353633030303031,0.1273378181818182,-9.576586181818183,0.05560481818181818,0.09140481818181818,0.010586848484848485,-1.6304604545454544,1.5968577272727273,-1.014726818181818,0.027446,6437.727272727273,2.272727272727273,239.36363636363637,54.54545454545455
0 days 00:00:27.696950,-5.5393079393939395,2.0935925454545457,-0.3037783030303032,0.023837181818181816,-0.07075224242424241,0.01651509090909091,0.10317190909090909,-0.09684818181818182,0.0499042424242424,-0.000430969696969697,-0.04708972727272727,-0.1463418787878788,10.0,5.0,49.0,0.0,0.0,0.0,0.065,0.0,449.8787878787879,0.0,0.0,0.0,0.0,0.0,7660.212121212121,7680.939393939394,7442.151515151515,7448.151515151515,7661.363636363636,7675.151515151515,7444.424242424242,7445.272727272727,-1.6393079393939394,1.5935925454545454,-1.0037783030303031,0.023837181818181816,-0.07075224242424241,0.01651509090909091,-0.000430969696969697,-0.04708972727272727,-0.1463418787878788,-0.121241,0.112972,0.160422,-0.002508,-0.019642,0.003187,-0.5630917878787879,0.0793679696969697,-9.59046515151515,0.037028030303030306,0.05738790909090909,-0.003780545454545455,-1.624755,1.591513,-1.017313,0.025078,6433.939393939394,-6.393939393939394,223.0,10.272727272727273
0 days 00:00:27.761950,-5.532514529411765,2.0873875588235293,-0.3060012647058823,0.037270382352941174,-0.07723929411764706,0.007755941176470588,0.17957538235294115,-0.15448220588235295,-0.08117547058823534,0.0009726470588235295,-0.04457914705882353,-0.1472424117647059,10.0,3.323529411764706,49.0,0.0,0.0,0.0,0.065,0.0,453.2647058823529,0.0,0.0,0.0,0.0,0.0,7656.85294117647,7679.558823529412,7428.205882352941,7436.588235294118,7655.970588235294,7696.5,7409.529411764706,7443.617647058823,-1.6325145294117647,1.5873875588235293,-1.0060012647058822,0.037270382352941174,-0.07723929411764706,0.007755941176470588,0.0009726470588235295,-0.04457914705882353,-0.1472424117647059,-0.1206035,0.11256758823529411,0.1605911176470588,-0.0025043235294117646,-0.019612588235294118,0.0031972941176470586,-0.4485867941176471,0.017836617647058826,-9.726820852941175,0.009801558823529413,0.005823441176470588,-0.011481882352941177,-1.6186035294117647,1.585660794117647,-1.0202291764705882,0.01998755882352941,6426.64705882353,-3.235294117647059,249.1764705882353,52.61764705882353
0 days 00:00:27.826950,-5.526735575757575,2.0813719393939394,-0.3075650000000001,0.05486,-0.0844029696969697,-0.001371818181818182,0.3083904242424243,-0.17309469696969698,-0.20338651515151507,0.0005892424242424243,-0.04247212121212121,-0.14760454545454543,10.0,1.878787878787879,49.06060606060606,0.0,0.0,0.0,0.065,0.0,457.969696969697,0.0,0.0,0.0,0.0,0.0,7627.727272727273,7689.181818181818,7388.242424242424,7481.515151515152,7639.363636363636,7683.030303030303,7377.181818181818,7482.333333333333,-1.6267355757575757,1.5813719393939394,-1.007565,0.05486,-0.0844029696969697,-0.001371818181818182,0.0005892424242424243,-0.04247212121212121,-0.14760454545454543,-0.12017345454545454,0.11229854545454544,0.16069254545454545,-0.002502636363636364,-0.01959527272727273,0.0032048181818181815,-0.2867839090909091,0.03048060606060606,-9.857214727272728,-0.023134181818181818,0.024014454545454547,0.009055515151515151,-1.6146997272727273,1.5820858181818183,-1.0219786363636365,0.017733727272727273,6418.30303030303,30.575757575757574,231.1818181818182,105.12121212121212
0 days 00:00:27.891950,-5.517793606060605,2.074616,-0.3114278181818184,0.07377606060606061,-0.09188757575757577,-0.016693545454545454,0.15403812121212118,-0.06961948484848483,-0.0816614848484849,0.000596939393939394,-0.04014499999999999,-0.14778575757575757,10.0,0.0,50.0,0.0,0.0,0.0,0.065,0.0,442.0,0.0,0.0,0.0,0.0,0.0,7642.121212121212,7672.181818181818,7369.272727272727,7474.515151515152,7616.787878787879,7667.878787878788,7374.212121212121,7484.151515151515,-1.617793606060606,1.574616,-1.0114278181818184,0.07377606060606061,-0.09188757575757577,-0.016693545454545454,0.000596939393939394,-0.04014499999999999,-0.14778575757575757,-0.119271,0.111743,0.160875,-0.002501,-0.019565,0.003222,-0.4076704848484849,0.1088719090909091,-9.728752393939395,0.030302909090909092,0.051188060606060605,0.000932242424242424,-1.607098,1.575479,-1.025127,0.015838,6404.575757575758,29.424242424242426,212.87878787878788,113.51515151515152
0 days 00:00:27.956950,-5.5095200303030305,2.068473,-0.3152541515151517,0.0900840303030303,-0.09153978787878787,-0.025949424242424243,0.16016381818181818,-0.0698241515151515,-0.07922709090909096,0.0031632121212121214,-0.03686187878787879,-0.14782436363636364,10.0,0.0,48.303030303030305,0.0,0.0,0.0,0.065,0.0,470.8484848484849,0.0,0.0,0.0,0.0,0.0,7613.787878787879,7669.484848484848,7358.424242424242,7468.545454545455,7626.121212121212,7682.606060606061,7355.030303030303,7452.121212121212,-1.6095200303030304,1.568473,-1.0152541515151516,0.0900840303030303,-0.09153978787878787,-0.025949424242424243,0.0031632121212121214,-0.03686187878787879,-0.14782436363636364,-0.11853472727272728,0.111232,0.1609990909090909,-0.002502909090909091,-0.019547818181818184,0.0032379090909090908,-0.3694365454545454,0.0885712121212121,-9.727154424242425,0.042990909090909094,0.015425242424242426,0.003528939393939394,-1.6012975454545455,1.5708042727272729,-1.027711909090909,0.013741818181818181,6395.030303030303,20.393939393939394,250.3939393939394,108.33333333333333
0 days 00:00:28.021950,-5.501389382352941,2.0624038235294115,-0.3188498823529411,0.08798438235294118,-0.08919867647058823,-0.023730970588235294,-0.43979458823529416,0.10308750000000003,0.49152332352941175,0.006661764705882353,-0.03377047058823529,-0.14820720588235292,10.0,-1.2941176470588236,46.705882352941174,0.0,0.0,0.0,0.065,0.0,464.3529411764706,0.0,0.0,0.0,0.0,0.0,7597.970588235294,7682.911764705882,7360.941176470588,7450.470588235294,7586.558823529412,7695.294117647059,7372.117647058823,7457.617647058823,-1.6013893823529413,1.5624038235294118,-1.018849882352941,0.08798438235294118,-0.08919867647058823,-0.023730970588235294,0.006661764705882353,-0.03377047058823529,-0.14820720588235292,-0.11800870588235295,0.11082282352941177,0.16108999999999998,-0.002504470588235294,-0.019535882352941177,0.003248882352941176,-0.9281939411764706,0.14289408823529412,-9.134334764705883,0.05578614705882353,0.03582414705882353,0.0012423235294117642,-1.5969585294117645,1.5672745294117647,-1.0296605294117647,0.012115647058823528,6393.588235294118,-11.676470588235293,225.76470588235293,137.1764705882353
0 days 00:00:28.086950,-5.493683121212121,2.05719696969697,-0.32236330303030303,0.06807421212121212,-0.07788984848484848,-0.004075666666666667,-0.08342706060606063,0.05661969696969697,-0.031032545454545445,0.007552818181818181,-0.03126672727272728,-0.14810627272727273,10.0,-1.878787878787879,43.39393939393939,0.0,0.0007745454545454545,0.0,0.07958481818181819,0.0,430.3333333333333,0.0,0.0,0.0,0.0018181818181818182,0.6006060606060606,7563.69696969697,7682.939393939394,7378.575757575758,7484.393939393939,7333.848484848485,7427.181818181818,7118.909090909091,7226.212121212121,-1.5936831212121212,1.5571969696969699,-1.022363303030303,0.06807421212121212,-0.07788984848484848,-0.004075666666666667,0.007552818181818181,-0.03126672727272728,-0.14810627272727273,-0.117219,0.109944,0.16124,-0.002508,-0.01952,0.003263,-0.5652520303030304,0.1263908787878788,-9.671105545454544,-0.043664212121212125,0.0020936969696969676,0.012177454545454545,-1.589275,1.560836,-1.033197,0.008903,6015.69696969697,6.96969696969697,207.75757575757575,149.6969696969697
0 days 00:00:28.151950,-5.487882636363636,2.052490181818182,-0.3223950303030303,0.07253057575757575,-0.07436557575757576,0.12639336363636364,0.2335458787878788,0.062928,5.582257636363637,0.00552330303030303,-0.032995363636363635,-0.1479532424242424,,-1.696969696969697,40.72727272727273,0.0,0.01278,,0.0,0.0,389.45454545454544,,,,-0.5590909090909091,9.893636363636364,5724.818181818182,5522.151515151515,5188.363636363636,5288.090909090909,3613.3030303030305,3592.878787878788,3016.0,3036.4242424242425,-1.5878826363636362,1.552490181818182,-1.0223950303030302,0.07253057575757575,-0.07436557575757576,0.12639336363636364,0.00552330303030303,-0.032995363636363635,-0.1479532424242424,-0.11670178787878788,0.10934384848484849,0.16132860606060606,-0.002510060606060606,-0.01951227272727273,0.003270727272727273,-0.05226093939393941,0.1973839696969697,-4.072384060606061,-0.05354066666666667,-0.05859366666666667,0.02937821212121212,-1.5848467575757574,1.5569800909090907,-1.034753787878788,0.006476636363636363,0.0,20.363636363636363,577.0,124.12121212121212
0 days 00:00:28.216950,-5.481595176470588,2.0477778235294117,-0.3011155000000001,0.07998805882352941,-0.07634352941176471,0.572818794117647,-0.0076912941176470444,-0.3239214705882353,4.919741294117648,-0.016974470588235292,-0.027997558823529414,-0.14236079411764704,10.0,-2.9411764705882355,48.0,0.031610882352941176,0.013131029411764706,0.0,0.0029948235294117646,0.17057385294117647,475.94117647058823,-1.5,0.003355193548387097,0.0,-7.137107382352942,9.74656755882353,7483.117647058823,6047.205882352941,5734.705882352941,6332.441176470588,8184.794117647059,7682.5,8608.14705882353,8134.35294117647,-1.5815951764705882,1.5477778235294117,-1.0011155,0.07998805882352941,-0.07634352941176471,0.572818794117647,-0.016974470588235292,-0.027997558823529414,-0.14236079411764704,-0.116215,0.108779,0.161412,-0.002512,-0.019505,0.003278,-0.23431752941176473,-0.05376838235294119,-4.739458852941176,-1.0704273235294117,0.1658504705882353,0.2134220588235294,-1.580679,1.553351,-1.036219,0.004193,7209.705882352941,14.235294117647058,-436.8235294117647,-697.0882352941177
0 days 00:00:28.281950,-5.475479090909091,2.041906484848485,-0.2643355757575757,0.07011166666666667,-0.14528645454545455,0.6074544848484849,0.0502876060606061,-2.1415332727272727,-1.9066576363636365,-0.17434293939393938,-0.06024921212121212,-0.12732481818181818,10.0,-3.757575757575758,48.0,0.005635818181818182,0.013199181818181818,0.0,0.002571212121212121,-0.1154259090909091,463.3636363636364,-1.5,0.0,0.0,-2.6184602727272726,9.789694272727273,8402.848484848484,6955.242424242424,8175.606060606061,8126.848484848485,9726.181818181818,6139.818181818182,7368.272727272727,7835.757575757576,-1.575479090909091,1.541906484848485,-0.9643355757575757,0.07011166666666667,-0.14528645454545455,0.6074544848484849,-0.17434293939393938,-0.06024921212121212,-0.12732481818181818,-0.11303681818181818,0.10869172727272727,0.1615729090909091,-0.0025174545454545454,-0.019497727272727274,0.0032907272727272724,-0.5573212727272727,0.08528651515151517,-11.756451212121213,-2.4506392424242422,-1.2957652727272726,-0.20185248484848486,-1.5748108181818183,1.547074636363636,-1.0004553636363636,-0.03499972727272727,6944.090909090909,2023.4848484848485,330.3030303030303,-2626.212121212121
0 days 00:00:28.346950,-5.469999515151515,2.028426909090909,-0.22929333333333335,0.08898545454545453,-0.2818257272727273,0.5540297575757576,0.2736308181818182,-1.606571,0.3296413636363636,-0.1720768181818182,-0.13593660606060606,-0.1451169696969697,10.0,-3.757575757575758,48.484848484848484,-0.013462575757575757,0.013833303030303029,0.0,0.002057030303030303,-0.2507070606060606,454.1515151515151,-1.5,0.0,0.0,-0.7901091212121211,9.841317303030303,8694.90909090909,7018.090909090909,7001.060606060606,7529.666666666667,8038.636363636364,7670.393939393939,7082.757575757576,7648.272727272727,-1.5699995151515151,1.528426909090909,-0.9292933333333333,0.08898545454545453,-0.2818257272727273,0.5540297575757576,-0.1720768181818182,-0.13593660606060606,-0.1451169696969697,-0.1112829393939394,0.11035027272727273,0.1615979090909091,-0.0025205454545454546,-0.019494454545454547,0.003300909090909091,-0.943832787878788,0.2290778484848485,-9.427911878787878,1.990471121212121,-0.6937514545454545,-0.4813047878787879,-1.571037090909091,1.5389298484848484,-0.9717557878787878,-0.01970887878787879,6509.454545454545,466.1515151515151,488.1818181818182,139.27272727272728
0 days 00:00:28.411950,-5.462703181818181,2.008364666666667,-0.19508218181818182,0.13017548484848485,-0.3412209090909091,0.5528917575757576,1.3357935757575756,-0.39260124242424244,-0.6307132121212121,-0.023158151515151514,-0.15917599999999998,-0.15269793939393939,10.0,-2.090909090909091,49.84848484848485,-0.043959,0.016141,0.0,0.0,-0.331831,440.2121212121212,-1.5,0.0,0.0,-1.161943,9.953657,7010.575757575758,8632.818181818182,7199.818181818182,7578.484848484848,7055.030303030303,8668.151515151516,7404.454545454545,7580.393939393939,-1.5627031818181818,1.5083646666666668,-0.8950821818181818,0.13017548484848485,-0.3412209090909091,0.5528917575757576,-0.023158151515151514,-0.15917599999999998,-0.15269793939393939,-0.109334,0.112613,0.16161,-0.002524,-0.019491,0.003313,-0.42764560606060603,0.13296042424242424,-10.369998757575758,1.6986565151515152,-0.055190666666666666,0.09747127272727273,-1.566712,1.528728,-0.93766,0.006362,6604.0,-717.5757575757576,368.54545454545456,1262.909090909091
0 days 00:00:28.476950,-5.450739117647059,1.9871996470588236,-0.16367876470588238,0.21682408823529412,-0.34734723529411765,0.467916,1.2202254705882352,0.008383882352941156,-2.1102713529411767,0.007487882352941176,-0.1481745,-0.14224832352941177,10.0,27.0,45.14705882352941,0.042016,0.030086000000000005,0.0,-0.023921382352941178,0.419011,473.11764705882354,-1.5,0.0,0.0,0.08982929411764705,11.653188,7860.85294117647,8675.764705882353,7991.794117647059,8165.676470588235,8385.14705882353,8642.79411764706,8244.558823529413,8419.058823529413,-1.5507391176470589,1.4871996470588236,-0.8636787647058823,0.21682408823529412,-0.34734723529411765,0.467916,0.007487882352941176,-0.1481745,-0.14224832352941177,-0.11056479411764705,0.1129755,0.1617891176470588,-0.002534235294117647,-0.01948929411764706,0.0033164117647058824,-0.6776769411764706,0.2055950882352941,-11.807358705882352,-0.31342632352941174,0.2768268823529412,0.13149841176470586,-1.555338882352941,1.503515911764706,-0.8936209411764706,0.10299000000000001,7657.0,-41.5,182.0,305.05882352941177
0 days 00:00:28.541950,-5.433770696969697,1.9650696666666667,-0.1399738484848485,0.2941491212121212,-0.35768096969696966,0.2911439393939394,1.069504303030303,-0.3943048484848485,-2.6917068484848485,-0.020387242424242426,-0.1310180303030303,-0.13825854545454547,10.0,27.0,46.0,0.042016,0.030086,0.0,0.0,0.419011,439.0,-1.5,0.0,0.0,0.076594,11.653188,8552.636363636364,8370.060606060606,8312.727272727272,8439.636363636364,8631.424242424242,8323.363636363636,8316.181818181818,8420.575757575758,-1.533770696969697,1.4650696666666667,-0.8399738484848485,0.2941491212121212,-0.35768096969696966,0.2911439393939394,-0.020387242424242426,-0.1310180303030303,-0.13825854545454547,-0.110757,0.11331133333333333,0.16187266666666666,-0.00254,-0.019489,0.0033176666666666667,-0.6408321515151515,0.1351799393939394,-12.381362424242425,-0.32387848484848486,0.15010960606060608,0.006266212121212121,-1.545266,1.4879776666666666,-0.8736720000000001,0.10568766666666667,7657.0,205.78787878787878,109.0,-143.8181818181818
0 days 00:00:28.606950,-5.412418939393939,1.9423307575757576,-0.12880451515151525,0.3579137575757576,-0.38287693939393935,0.12575739393939395,0.8807199696969698,-0.3757096666666666,-1.904823303030303,-0.02068348484848485,-0.12634060606060607,-0.14033866666666667,10.0,25.09090909090909,47.27272727272727,0.074456,0.04966115151515152,0.0,0.002057,0.4553358484848485,458.09090909090907,-1.5,0.0,0.0,-0.7897811515151515,10.608240727272726,8354.848484848484,8209.454545454546,8162.69696969697,8162.181818181818,7898.515151515152,8103.69696969697,8058.060606060606,7821.363636363636,-1.5124189393939393,1.4423307575757576,-0.8288045151515152,0.3579137575757576,-0.38287693939393935,0.12575739393939395,-0.02068348484848485,-0.12634060606060607,-0.14033866666666667,-0.110717,0.113858,0.161978,-0.002548,-0.019489,0.003319,-0.655865303030303,0.14423527272727277,-11.57987103030303,0.221539,-0.017770484848484848,-0.032781454545454544,-1.529042,1.465595,-0.84896,0.077763,7018.212121212121,-220.54545454545453,61.303030303030305,-22.393939393939394
0 days 00:00:28.671950,-5.387306529411765,1.917823588235294,-0.12472923529411761,0.41466670588235294,-0.40272302941176474,0.0743504705882353,0.9446004117647059,-0.48483149999999997,-0.28157017647058824,-0.027485029411764703,-0.13301261764705882,-0.1397843823529412,10.0,23.11764705882353,47.55882352941177,0.07644929411764706,0.06678388235294118,0.0,0.002994764705882353,0.21547070588235295,462.38235294117646,-1.3773935882352941,0.0,0.0,-1.013119882352941,9.97134,7457.911764705882,7856.14705882353,7813.882352941177,7399.14705882353,7743.882352941177,7789.85294117647,7720.970588235294,7442.35294117647,-1.4873065294117647,1.417823588235294,-0.8247292352941176,0.41466670588235294,-0.40272302941176474,0.0743504705882353,-0.027485029411764703,-0.13301261764705882,-0.1397843823529412,-0.11087582352941176,0.11469549999999999,0.16207432352941176,-0.0025560882352941177,-0.019491205882352942,0.0033138529411764705,-0.4345990294117646,0.07795264705882353,-9.980669823529412,-0.6429585882352942,-0.21089441176470586,0.03961544117647059,-1.503094205882353,1.4377075000000001,-0.8388511764705883,0.07943138235294118,6600.117647058823,-162.05882352941177,184.85294117647058,-164.2058823529412
0 days 00:00:28.736950,-5.358623818181818,1.8911932424242424,-0.1213634848484848,0.4689097272727273,-0.44165442424242424,0.06249878787878788,0.6684155151515151,-0.8586211212121212,-0.012382606060606085,-0.07714378787878788,-0.13786684848484848,-0.13925239393939393,10.0,22.0,47.0,0.05972045454545454,0.0757161212121212,0.0,0.002057,-0.031524969696969704,461.030303030303,-0.8699739393939394,0.0,0.0,-0.5589328484848486,10.052622424242426,8008.121212121212,7636.121212121212,7400.757575757576,7437.454545454545,8029.30303030303,7657.484848484848,7438.575757575758,7531.484848484848,-1.458623818181818,1.3911932424242424,-0.8213634848484848,0.4689097272727273,-0.44165442424242424,0.06249878787878788,-0.07714378787878788,-0.13786684848484848,-0.13925239393939393,-0.11065554545454546,0.115565,0.16211518181818182,-0.002561181818181818,-0.019493454545454543,0.0033116363636363634,-0.6666961818181819,0.1504498787878788,-9.705137242424241,-0.5303326666666667,0.14100230303030303,-0.018096,-1.4861124545454545,1.420373090909091,-0.8341009090909091,0.07504636363636365,6585.909090909091,232.0,357.8484848484849,-196.75757575757575
0 days 00:00:28.801950,-5.3278681818181814,1.862682,-0.11949636363636362,0.5151263636363637,-0.49618639393939395,0.044378,0.6550495151515151,-0.9541443939393939,-0.49585324242424245,-0.08564287878787878,-0.1144580606060606,-0.14210354545454545,10.0,22.0,47.0,0.098893,0.085552,0.0,0.0,0.4491,483.0,-0.8156679696969696,0.0,0.0,-0.675,10.13,7812.333333333333,7678.121212121212,7499.090909090909,7666.090909090909,7806.212121212121,7720.30303030303,7564.909090909091,7711.818181818182,-1.4278681818181818,1.362682,-0.8194963636363636,0.5151263636363637,-0.49618639393939395,0.044378,-0.08564287878787878,-0.1144580606060606,-0.14210354545454545,-0.109407,0.118121,0.162143,-0.002571,-0.0195,0.00331,-0.4917732727272728,0.18752969696969699,-10.202237242424243,0.14732775757575758,0.428977303030303,0.007590515151515152,-1.45173,1.387546,-0.829101,0.052611,6637.636363636364,116.12121212121212,124.75757575757575,43.03030303030303
0 days 00:00:28.866950,-5.294798424242424,1.8304374848484848,-0.11903996969696973,0.5418824848484848,-0.5462427272727273,0.01136830303030303,0.202329,-0.7058678787878788,-0.5687537272727272,-0.06493684848484849,-0.08847730303030303,-0.14307478787878788,10.0,26.363636363636363,45.54545454545455,0.09471675757575757,0.09481054545454545,0.0,0.0025712424242424242,0.1782791818181818,486.6363636363636,-0.7647560909090909,0.0,0.0,-0.40766960606060604,10.418239484848486,7718.090909090909,7799.30303030303,7687.636363636364,7783.212121212121,7818.393939393939,7863.757575757576,7773.757575757576,7847.515151515152,-1.3947984242424243,1.3304374848484848,-0.8190399696969697,0.5418824848484848,-0.5462427272727273,0.01136830303030303,-0.06493684848484849,-0.08847730303030303,-0.14307478787878788,-0.10857590909090908,0.11937145454545454,0.16217036363636364,-0.0025792727272727274,-0.01950890909090909,0.0033061818181818184,-0.6996626666666667,0.16048184848484848,-10.226443999999999,0.394390696969697,0.3042361515151515,0.026441242424242426,-1.4213900909090909,1.3576025454545453,-0.8275317272727273,0.033142090909090906,6814.090909090909,14.212121212121213,30.393939393939394,84.12121212121212
0 days 00:00:28.931950,-5.260195147058823,1.7949421764705882,-0.12009467647058825,0.5435675294117647,-0.5695105588235294,-0.016794058823529412,-0.04480973529411765,-0.17254920588235292,-0.1954812058823529,-0.03589338235294118,-0.07375885294117647,-0.14227564705882353,10.0,24.823529411764707,43.94117647058823,0.078129,0.0987865,0.0,0.0024956176470588235,-0.018637,483.7647058823529,-0.7163148823529412,0.0,0.0,-0.276439,10.16,7743.941176470588,7860.705882352941,7824.911764705882,7777.735294117647,7658.441176470588,7764.588235294118,7751.705882352941,7635.676470588235,-1.3601951470588234,1.2949421764705882,-0.8200946764705882,0.5435675294117647,-0.5695105588235294,-0.016794058823529412,-0.03589338235294118,-0.07375885294117647,-0.14227564705882353,-0.10811379411764706,0.12018985294117647,0.16219323529411764,-0.002585411764705882,-0.019515588235294118,0.003302764705882353,-0.8325482058823529,0.3478285,-9.815659529411764,0.42382817647058824,0.10351558823529412,0.032499529411764705,-1.3995358823529411,1.3358347647058824,-0.8268144705882353,0.022356,6640.14705882353,-110.82352941176471,17.794117647058822,-6.911764705882353
0 days 00:00:28.996950,-5.2268724242424245,1.7602188484848484,-0.12343809090909097,0.5475344545454545,-0.5721424545454545,-0.024208666666666667,0.057398999999999985,-0.16500836363636362,0.24674921212121204,-0.016024545454545455,-0.07098615151515152,-0.140857696969697,10.0,19.666666666666668,43.0,0.06778487878787878,0.09921851515151515,0.0,0.0025712424242424242,-0.020766212121212123,484.3333333333333,-0.6709478181818181,0.0,0.0,-0.3685786969696969,9.737370212121212,7457.969696969697,7576.727272727273,7606.424242424242,7351.484848484848,7499.121212121212,7595.545454545455,7616.606060606061,7322.909090909091,-1.3268724242424241,1.2602188484848484,-0.8234380909090909,0.5475344545454545,-0.5721424545454545,-0.024208666666666667,-0.016024545454545455,-0.07098615151515152,-0.140857696969697,-0.108246,0.12126300000000001,0.162268,-0.0026,-0.019532,0.00329,-0.6778527575757576,0.1635298787878788,-9.385357515151515,0.17535951515151513,-0.03770121212121212,0.005319363636363637,-1.352859,1.28771,-0.828669,0.025859,6366.181818181818,-194.84848484848484,77.54545454545455,-139.24242424242425
0 days 00:00:29.061950,-5.192609454545455,1.724453878787879,-0.12552136363636368,0.5617550606060606,-0.5799714545454545,-0.010464454545454546,0.40699393939393946,-0.26791360606060605,0.11663951515151515,-0.019243303030303027,-0.0707190606060606,-0.14016233333333333,10.0,15.0,43.0,0.077969,0.100326,0.0,0.0,0.156423,493.0,-0.6290465454545454,0.0,0.0,-0.615,9.647512,7416.151515151515,7522.575757575758,7600.818181818182,7253.787878787879,7495.606060606061,7499.181818181818,7596.727272727273,7292.939393939394,-1.2926094545454545,1.224453878787879,-0.8255213636363636,0.5617550606060606,-0.5799714545454545,-0.010464454545454546,-0.019243303030303027,-0.0707190606060606,-0.14016233333333333,-0.10865127272727272,0.12190554545454546,0.16232145454545455,-0.002607090909090909,-0.01954181818181818,0.003284,-0.3203125151515152,0.15630927272727274,-9.541844151515152,-0.28469757575757576,0.005851909090909088,0.020263636363636362,-1.3242466363636363,1.2574394545454544,-0.8308175454545454,0.02718663636363636,6313.333333333333,-153.45454545454547,52.57575757575758,-212.0
0 days 00:00:29.126950,-5.1572562121212115,1.6879303636363636,-0.1264311818181818,0.5670137272727273,-0.5905473939393939,0.011756303030303032,-0.11281133333333333,-0.28219460606060603,0.3963509393939394,-0.042296424242424246,-0.0675819393939394,-0.14026051515151516,10.0,12.545454545454545,43.0,0.10799978787878788,0.10321672727272728,0.0,0.002057,0.3276440303030303,514.2727272727273,-0.5897947575757576,0.0,0.0,-0.615,9.774764666666666,7547.333333333333,7445.909090909091,7602.121212121212,7349.333333333333,7598.0,7484.090909090909,7611.636363636364,7420.181818181818,-1.257256212121212,1.1879303636363636,-0.8264311818181818,0.5670137272727273,-0.5905473939393939,0.011756303030303032,-0.042296424242424246,-0.0675819393939394,-0.14026051515151516,-0.108989,0.12244100000000001,0.162366,-0.002613,-0.01955,0.003279,-0.7939750303030303,0.2896839696969697,-9.230528,-0.3659002424242424,0.04231769696969697,-0.012650999999999999,-1.300403,1.232214,-0.832608,0.028293,6394.242424242424,-38.78787878787879,25.181818181818183,-215.4848484848485
0 days 00:00:29.191950,-5.122806382352941,1.6507491470588234,-0.12715088235294125,0.5658851764705882,-0.6105303235294117,0.014560205882352942,0.11495767647058826,-0.5312379705882353,-0.14476108823529413,-0.058497,-0.06377038235294118,-0.14159132352941176,10.0,12.0,42.088235294117645,0.1153120588235294,0.10455794117647059,0.0,0.0029947941176470586,0.1424446470588235,529.9411764705883,-0.5524569705882353,0.0,0.0,-0.4717808823529412,10.00400294117647,7668.323529411765,7549.323529411765,7602.823529411765,7554.117647058823,7701.970588235294,7608.382352941177,7607.0,7600.35294117647,-1.2228063823529411,1.1507491470588234,-0.8271508823529412,0.5658851764705882,-0.6105303235294117,0.014560205882352942,-0.058497,-0.06377038235294118,-0.14159132352941176,-0.10892973529411766,0.12395270588235295,0.16242800000000002,-0.002623029411764706,-0.01956641176470588,0.0032753529411764706,-0.5453240588235294,0.26984723529411764,-9.797707941176471,-0.10214414705882352,0.031788470588235286,-0.017068235294117648,-1.2492338529411766,1.1769446470588236,-0.8338087941176471,0.010259205882352943,6536.823529411765,43.44117647058823,51.411764705882355,-70.82352941176471
0 days 00:00:29.256950,-5.087059060606061,1.6106097272727273,-0.12723093939393948,0.5653931212121212,-0.6393891818181818,0.0015553030303030306,0.269312303030303,-0.44494233333333333,-0.4277052424242424,-0.05186784848484848,-0.05997051515151516,-0.1427239090909091,10.0,12.0,41.27272727272727,0.12583151515151517,0.10442460606060606,0.0,0.002056969696969697,0.19433530303030305,543.3636363636364,-0.517451696969697,0.0,0.0,-0.39088957575757577,10.03,7631.606060606061,7686.060606060606,7606.848484848485,7615.30303030303,7597.515151515152,7709.060606060606,7631.757575757576,7616.727272727273,-1.1870590606060607,1.1106097272727273,-0.8272309393939394,0.5653931212121212,-0.6393891818181818,0.0015553030303030306,-0.05186784848484848,-0.05997051515151516,-0.1427239090909091,-0.10887581818181818,0.1244280909090909,0.16245793939393938,-0.0026270303030303034,-0.019573757575757578,0.0032753030303030303,-0.3840849393939394,0.322798303030303,-10.083984393939394,0.264374696969697,0.0726650303030303,-0.001953151515151515,-1.227162606060606,1.1520711515151516,-0.8342528787878788,0.006718848484848485,6550.090909090909,-63.121212121212125,29.03030303030303,68.33333333333333
0 days 00:00:29.321950,-5.051685393939394,1.570221696969697,-0.13003648484848485,0.5944755151515151,-0.6540871515151515,-0.04405987878787879,0.15336039393939394,-0.31459166666666666,-0.466414,-0.03279772727272727,-0.05452539393939394,-0.1423220909090909,10.0,12.212121212121213,40.57575757575758,0.1266670909090909,0.10607163636363635,0.0,0.002057030303030303,0.18353027272727274,547.5757575757576,-0.4851575454545455,0.0,0.0,-0.318392,10.045210363636363,7532.090909090909,7740.090909090909,7668.515151515152,7586.212121212121,7590.757575757576,7743.121212121212,7666.939393939394,7576.0,-1.1516853939393938,1.070221696969697,-0.8300364848484848,0.5944755151515151,-0.6540871515151515,-0.04405987878787879,-0.03279772727272727,-0.05452539393939394,-0.1423220909090909,-0.108765,0.125185,0.162513,-0.002634,-0.019587,0.003276,-0.45871806060606063,0.25600724242424244,-10.113014939393938,0.2268880303030303,0.019353727272727272,0.023955333333333332,-1.187788,1.107164,-0.835007,0.00259,6557.69696969697,-121.48484848484848,45.39393939393939,43.42424242424242
0 days 00:00:29.386950,-5.0157258235294115,1.5280108823529412,-0.13475244117647056,0.590446205882353,-0.6689804117647059,-0.07023314705882353,-0.05090041176470589,-0.3173619117647059,-0.32910079411764703,-0.02052929411764706,-0.0505054705882353,-0.1417330294117647,10.0,12.941176470588236,38.970588235294116,0.109644,0.113891,0.0,0.0,-0.026956,546.8823529411765,-0.4544329411764706,0.0,0.0,-0.113057,10.113657,7640.323529411765,7728.5,7701.85294117647,7610.558823529412,7639.058823529412,7729.058823529412,7715.85294117647,7607.029411764706,-1.1157258235294116,1.0280108823529412,-0.8347524411764705,0.590446205882353,-0.6689804117647059,-0.07023314705882353,-0.02052929411764706,-0.0505054705882353,-0.1417330294117647,-0.10952282352941177,0.12552529411764704,0.16257417647058822,-0.002637058823529412,-0.019603823529411767,0.003277529411764706,-0.6141428823529411,0.10262526470588237,-9.967888235294119,0.1961310588235294,0.03862444117647059,0.005816382352941177,-1.147167588235294,1.0575399411764705,-0.8373622941176472,0.006806588235294117,6598.029411764706,-99.29411764705883,22.41176470588235,-13.294117647058824
0 days 00:00:29.451950,-4.979262,1.4844942121212121,-0.14027051515151512,0.5787549696969697,-0.6721533030303031,-0.07913109090909091,-0.29876,0.021042999999999982,0.10076660606060607,-0.010305818181818182,-0.04766490909090909,-0.14121654545454546,10.0,10.757575757575758,37.75757575757576,0.140096,0.112994,0.0,-0.02516048484848485,0.25918,575.5151515151515,-0.4256507272727273,0.0,0.0,-0.38995572727272726,9.919969909090907,7546.515151515152,7702.333333333333,7694.515151515152,7491.151515151515,7539.727272727273,7683.363636363636,7678.636363636364,7442.727272727273,-1.079262,0.9844942121212121,-0.8402705151515151,0.5787549696969697,-0.6721533030303031,-0.07913109090909091,-0.010305818181818182,-0.04766490909090909,-0.14121654545454546,-0.11023478787878789,0.12572018181818181,0.162609,-0.0026387272727272726,-0.01961481818181818,0.0032784848484848487,-0.8565045151515152,0.3101918181818182,-9.521721151515152,0.0586159696969697,-0.0008803939393939418,0.015654575757575756,-1.1218626969696968,1.026151,-0.8394106363636364,0.00984509090909091,6475.727272727273,-189.3939393939394,50.93939393939394,-65.18181818181819
0 days 00:00:29.516950,-4.945727787878788,1.4422797272727275,-0.14586696969696977,0.565367303030303,-0.6652901818181818,-0.08386209090909091,-0.017838333333333314,-0.12880327272727274,-0.18984521212121222,-0.014459242424242425,-0.04477978787878788,-0.14093751515151515,10.0,9.0,36.0,0.140096,0.112994,0.0,0.0,0.25918,572.0,-0.3990754545454545,0.0,0.0,-0.362683,9.901789,7553.272727272727,7626.212121212121,7668.454545454545,7448.575757575758,7572.727272727273,7625.545454545455,7653.333333333333,7455.272727272727,-1.0457277878787878,0.9422797272727274,-0.8458669696969697,0.565367303030303,-0.6652901818181818,-0.08386209090909091,-0.014459242424242425,-0.04477978787878788,-0.14093751515151515,-0.111731,0.126002,0.162659,-0.002641,-0.019633,0.00328,-0.5540660000000001,0.2351740303030303,-9.828302606060605,-0.14230448484848485,0.013723636363636363,-3.6969696969697354e-05,-1.081843,0.9757760000000001,-0.843547,0.015285999999999998,6462.484848484848,-125.12121212121212,44.90909090909091,-102.54545454545455
0 days 00:00:29.581950,-4.912771848484848,1.4002271212121211,-0.15125254545454547,0.5564483333333333,-0.6691293636363635,-0.08814066666666666,0.033529181818181784,-0.2367997272727273,-0.2158532424242425,-0.022554181818181817,-0.04253833333333333,-0.14158527272727273,10.0,8.696969696969697,35.696969696969695,0.14662318181818182,0.1116969090909091,0.0,0.0025712424242424242,0.2643885454545455,580.4848484848485,-0.3741721515151515,0.0,0.0,-0.254131,9.877633545454545,7566.242424242424,7622.090909090909,7621.515151515152,7470.090909090909,7563.151515151515,7604.151515151515,7589.393939393939,7501.030303030303,-1.0127718484848485,0.9002271212121211,-0.8512525454545454,0.5564483333333333,-0.6691293636363635,-0.08814066666666666,-0.022554181818181817,-0.04253833333333333,-0.14158527272727273,-0.11314627272727272,0.12662563636363638,0.16267745454545457,-0.002643545454545455,-0.019650818181818186,0.0032806363636363636,-0.45706081818181815,0.22842684848484848,-9.86076590909091,-0.11019630303030303,0.02668530303030303,-0.004586878787878787,-1.0489067272727273,0.9333451818181818,-0.8475268181818182,0.011807636363636364,6445.090909090909,-64.45454545454545,38.42424242424242,-33.36363636363637
0 days 00:00:29.646950,-4.879177264705882,1.3567295294117647,-0.15698611764705883,0.5471983235294118,-0.6766591764705883,-0.0899049705882353,-0.26767638235294117,-0.15331564705882353,0.19277676470588231,-0.02150458823529412,-0.03868561764705883,-0.1420344705882353,10.0,7.588235294117647,34.1764705882353,0.1608245,0.10880005882352942,0.0,0.0024955882352941175,0.21627488235294118,604.9411764705883,-0.3504726764705883,0.0,0.0,-0.020779235294117654,9.854457294117648,7534.5,7545.794117647059,7528.205882352941,7536.264705882353,7520.176470588235,7578.14705882353,7567.235294117647,7538.911764705882,-0.9791772647058823,0.8567295294117647,-0.8569861176470588,0.5471983235294118,-0.6766591764705883,-0.0899049705882353,-0.02150458823529412,-0.03868561764705883,-0.1420344705882353,-0.11425076470588236,0.12705417647058825,0.16268888235294118,-0.002644470588235294,-0.019664882352941178,0.0032799411764705883,-0.7093291764705882,0.2502585294117647,-9.441320176470589,0.17339011764705883,0.04071397058823529,-0.003274352941176471,-1.0211022352941177,0.8972096470588236,-0.8509808823529412,0.008483588235294118,6426.323529411765,-43.11764705882353,-3.911764705882353,20.823529411764707
0 days 00:00:29.711950,-4.847236454545454,1.312480212121212,-0.16225336363636367,0.5307205454545455,-0.6754391818181819,-0.08807345454545454,-0.22287890909090913,-0.0075014242424242365,-0.04399093939393935,-0.004628484848484848,-0.03565090909090909,-0.14224548484848484,10.0,7.0,32.78787878787879,0.14948690909090911,0.10925636363636364,0.0,0.0025712424242424242,0.0879669090909091,611.1515151515151,-0.3282768787878788,0.0,0.0,-0.14085045454545453,9.931787,7473.454545454545,7666.0,7626.848484848485,7532.0,7484.757575757576,7697.0,7646.212121212121,7519.787878787879,-0.9472364545454546,0.8124802121212121,-0.8622533636363636,0.5307205454545455,-0.6754391818181819,-0.08807345454545454,-0.004628484848484848,-0.03565090909090909,-0.14224548484848484,-0.115631,0.127391,0.162693,-0.002642,-0.019683,0.003275,-0.6666962424242424,0.24597530303030302,-9.678326272727274,0.24982242424242423,-0.01032048484848485,0.004401909090909091,-0.979178,0.841726,-0.856487,0.002247,6476.818181818182,-169.1818181818182,7.909090909090909,60.54545454545455
0 days 00:00:29.776950,-4.8155486666666665,1.2700746363636364,-0.16769896969696974,0.521054303030303,-0.6627052424242424,-0.09578148484848484,-0.07811378787878788,0.02893981818181818,-0.1858495454545455,0.005650969696969697,-0.03470672727272727,-0.14201633333333333,10.0,7.0,32.0,0.121762,0.107224,0.0,0.0,-0.038704,608.0,-0.3077852121212121,0.0,0.0,-0.27322,9.98,7463.212121212121,7761.666666666667,7692.363636363636,7496.0,7476.636363636364,7762.454545454545,7698.787878787879,7501.878787878788,-0.9155486666666667,0.7700746363636364,-0.8676989696969697,0.521054303030303,-0.6627052424242424,-0.09578148484848484,0.005650969696969697,-0.03470672727272727,-0.14201633333333333,-0.11699915151515151,0.12779754545454544,0.16269260606060607,-0.002644363636363636,-0.019695999999999998,0.0032694848484848484,-0.5299479090909092,0.195638,-9.824988181818181,0.020419,-0.00493460606060606,0.011067757575757576,-0.9589685151515152,0.8136333939393939,-0.8589802424242424,0.006316,6509.30303030303,-241.15151515151516,19.363636363636363,62.72727272727273
0 days 00:00:29.841950,-4.785807764705882,1.2283815882352942,-0.17309923529411764,0.5015784411764707,-0.6499882941176471,-0.09700717647058824,-0.2957865,0.11108991176470591,0.049115176470588225,-0.0033661176470588233,-0.03258273529411765,-0.14108329411764706,10.0,5.588235294117647,30.58823529411765,0.11027282352941177,0.10354264705882353,0.0,0.0019965588235294116,-0.012521882352941176,608.0,-0.28829649999999996,0.0,0.0,-0.0735549705882353,9.866818352941175,7524.058823529412,7652.323529411765,7629.029411764706,7516.617647058823,7543.617647058823,7587.882352941177,7578.735294117647,7515.617647058823,-0.8858077647058823,0.7283815882352942,-0.8730992352941176,0.5015784411764707,-0.6499882941176471,-0.09700717647058824,-0.0033661176470588233,-0.03258273529411765,-0.14108329411764706,-0.11910399999999999,0.128423,0.162692,-0.002648,-0.019716,0.003261,-0.736787705882353,0.3477711176470588,-9.58137055882353,-0.22455188235294116,0.002470176470588234,0.012415235294117647,-0.927877,0.770414,-0.862816,0.012576,6433.764705882353,-53.6764705882353,18.705882352941178,-13.382352941176471
0 days 00:00:29.906950,-4.757047333333333,1.185715696969697,-0.17829630303030308,0.4946235151515152,-0.6484283939393939,-0.10608748484848485,-0.008849727272727252,-0.13120375757575753,-0.08595757575757575,-0.010069939393939393,-0.031218909090909092,-0.14122184848484848,7.796046393939393,4.484848484848484,28.454545454545453,0.14163860606060608,0.10076284848484848,0.07620218181818182,0.0030854848484848482,0.2188829090909091,638.9090909090909,-0.21985918181818181,0.28143854545454544,-0.41762909090909084,0.04376245454545455,9.855454545454544,7548.69696969697,7551.757575757576,7515.818181818182,7524.30303030303,7579.878787878788,7620.363636363636,7497.515151515152,7505.272727272727,-0.8570473333333333,0.6857156969696969,-0.878296303030303,0.4946235151515152,-0.6484283939393939,-0.10608748484848485,-0.010069939393939393,-0.031218909090909092,-0.14122184848484848,-0.12101624242424243,0.1292608181818182,0.1626551515151515,-0.0026441212121212122,-0.019736363636363635,0.0032416060606060607,-0.42690578787878797,0.21161809090909092,-9.729048363636364,0.060177,-0.039010757575757574,-0.012473363636363635,-0.8820946969696969,0.7062384848484848,-0.8696096969696969,0.003717818181818182,6425.787878787879,-16.242424242424242,98.54545454545455,34.06060606060606
0 days 00:00:29.971950,-4.727478303030303,1.1439135454545455,-0.18393584848484845,0.47005366666666665,-0.6396971818181818,-0.09248866666666666,-0.6281476363636365,0.14498454545454548,0.34024915151515156,0.0016658787878787878,-0.026640939393939394,-0.14131757575757575,6.79874296969697,4.0,27.0,0.1828803333333333,0.1002718787878788,0.104778,0.002057030303030303,0.3096328787878788,679.5151515151515,-0.0018424242424242418,0.5963291212121212,-0.5981719696969696,-0.18750521212121213,9.92916715151515,7574.454545454545,7753.484848484848,7510.242424242424,7465.454545454545,7523.181818181818,7773.545454545455,7579.848484848485,7461.272727272727,-0.827478303030303,0.6439135454545455,-0.8839358484848484,0.47005366666666665,-0.6396971818181818,-0.09248866666666666,0.0016658787878787878,-0.026640939393939394,-0.14131757575757575,-0.12199660606060607,0.12970827272727273,0.16262769696969698,-0.0026418787878787877,-0.019746333333333334,0.0032265757575757575,-1.0303030606060606,0.28453469696969697,-9.287079848484849,0.22469081818181819,0.1572709393939394,0.013531333333333333,-0.8616341818181819,0.6765494848484848,-0.8725320606060606,0.005015363636363637,6473.30303030303,-184.1818181818182,127.54545454545455,92.93939393939394
0 days 00:00:30.036950,-4.700989484848485,1.103096212121212,-0.18802909090909103,0.430128303030303,-0.6193532424242424,-0.08094842424242425,-0.17429775757575752,0.18540351515151515,-0.29172084848484847,0.0061836060606060604,-0.010213545454545454,-0.13926672727272726,6.752975272727273,4.0,26.727272727272727,0.18176942424242423,0.09983545454545455,0.104778,0.002571212121212121,0.18956663636363635,686.4545454545455,-0.009784545454545455,0.5878476666666668,-0.5976322121212121,-0.34013042424242423,9.95,7476.363636363636,7746.30303030303,7704.818181818182,7447.30303030303,7494.484848484848,7666.060606060606,7731.939393939394,7489.757575757576,-0.8009894848484849,0.6030962121212121,-0.888029090909091,0.430128303030303,-0.6193532424242424,-0.08094842424242425,0.0061836060606060604,-0.010213545454545454,-0.13926672727272726,-0.123246,0.13028,0.162592,-0.002639,-0.019759,0.003207,-0.4373520909090909,0.32611266666666666,-9.935783515151515,-0.1412538787878788,0.2633168484848485,0.03654712121212122,-0.835808,0.638979,-0.87621,0.007152,6489.0,-206.57575757575756,-30.454545454545453,-49.81818181818182
0 days 00:00:30.101950,-4.676319852941177,1.0622270294117646,-0.1921921176470589,0.40289117647058825,-0.6074042941176471,-0.09161882352941177,-0.5846927647058823,0.07576826470588235,0.08188185294117648,-0.008924617647058824,2.370588235294116e-05,-0.13744958823529413,6.706843264705882,4.0,24.0,0.140825,0.086311,0.104778,0.0,-0.051805,681.0,-0.321901,0.275223,-0.597124,0.200348,9.95,7597.411764705882,7440.205882352941,7720.764705882353,7628.676470588235,7613.176470588235,7416.558823529412,7703.85294117647,7648.558823529412,-0.7763198529411764,0.5622270294117646,-0.8921921176470589,0.40289117647058825,-0.6074042941176471,-0.09161882352941177,-0.008924617647058824,2.370588235294116e-05,-0.13744958823529413,-0.12435511764705884,0.1306779411764706,0.1625364117647059,-0.0026328235294117647,-0.019773117647058826,0.003171705882352941,-0.7400045588235296,0.3217198529411765,-9.562385058823528,-0.1418169411764706,-0.032513794117647064,-0.004401705882352941,-0.7986388823529412,0.5826354705882354,-0.8826564705882353,-0.014601529411764706,6489.0,70.58823529411765,-161.11764705882354,-177.6764705882353
0 days 00:00:30.166950,-4.652196818181818,1.0220725151515153,-0.1970125151515152,0.3738674848484848,-0.5978739393939394,-0.08214848484848485,-0.21585399999999988,0.05291242424242423,0.24379900000000002,-0.0016656363636363637,-0.013516757575757574,-0.13843975757575758,6.661028484848485,-1.4545454545454546,23.09090909090909,0.12214372727272728,0.07964627272727273,0.104778,0.002571272727272727,0.01645748484848485,683.7272727272727,-0.4643419696969697,0.13258781818181817,-0.5969297878787878,-0.09718321212121214,9.586572,7449.909090909091,7469.606060606061,7572.878787878788,7440.272727272727,7378.787878787879,7494.515151515152,7504.606060606061,7341.848484848485,-0.7521968181818182,0.5220725151515152,-0.8970125151515151,0.3738674848484848,-0.5978739393939394,-0.08214848484848485,-0.0016656363636363637,-0.013516757575757574,-0.13843975757575758,-0.12498084848484847,0.13101857575757575,0.1625037878787879,-0.0026284545454545454,-0.019779333333333333,0.0031504545454545457,-0.5153290303030303,0.27213533333333334,-9.396721181818181,0.24264633333333335,-0.3750517878787879,-0.012044272727272728,-0.7785364242424242,0.5505746666666668,-0.8862873636363636,-0.012783000000000001,6255.242424242424,-138.96969696969697,13.212121212121213,-33.303030303030305
0 days 00:00:30.231950,-4.629997909090909,0.982855909090909,-0.20035112121212129,0.3515471212121212,-0.5863036666666667,-0.04776609090909091,-0.3065912727272727,0.1277997878787879,0.5911700909090908,0.008699848484848484,-0.03619627272727273,-0.13812581818181818,6.616166,-2.696969696969697,21.606060606060606,0.123491,0.07713766666666666,0.104778,0.002056969696969697,0.11457433333333333,694.4545454545455,-0.4538203333333334,0.142876,-0.5966956666666667,0.058564000000000005,9.716374666666667,7462.393939393939,7577.606060606061,7449.393939393939,7298.909090909091,7534.909090909091,7614.212121212121,7469.272727272727,7340.939393939394,-0.7299979090909091,0.4828559090909091,-0.9003511212121212,0.3515471212121212,-0.5863036666666667,-0.04776609090909091,0.008699848484848484,-0.03619627272727273,-0.13812581818181818,-0.125716,0.131461,0.162465,-0.002623,-0.019786,0.003125,-0.825964696969697,0.23449339393939395,-9.03423890909091,0.08311139393939393,-0.31230769696969696,0.008330333333333334,-0.755234,0.512808,-0.890551,-0.005523,6339.666666666667,-103.63636363636364,169.21212121212122,-34.57575757575758
0 days 00:00:30.296950,-4.608674735294118,0.9437567647058824,-0.20145758823529414,0.3416427647058824,-0.5732647352941177,-0.029449235294117648,0.23450585294117648,0.10922229411764706,-0.14725661764705886,0.01495170588235294,-0.044476617647058826,-0.137478,6.570989823529412,-2.3823529411764706,20.58823529411765,0.12076082352941177,0.07529864705882353,0.104778,0.0019965,0.12153123529411766,697.9705882352941,-0.4745773529411764,0.12203117647058823,-0.596607705882353,0.1622498823529412,9.863628529411766,7564.029411764706,7624.882352941177,7534.14705882353,7402.235294117647,7557.64705882353,7630.176470588235,7593.14705882353,7452.764705882353,-0.7086747352941176,0.4437567647058824,-0.9014575882352941,0.3416427647058824,-0.5732647352941177,-0.029449235294117648,0.01495170588235294,-0.044476617647058826,-0.137478,-0.1269035,0.1325499705882353,0.1624260294117647,-0.0026163823529411763,-0.019792617647058825,0.00309264705882353,-0.40268835294117655,0.225787,-9.794577176470588,0.11723779411764707,-0.019567147058823526,0.004250911764705882,-0.727650911764706,0.46532417647058827,-0.8938649705882353,0.020268176470588234,6436.64705882353,-106.23529411764706,70.88235294117646,-47.911764705882355
0 days 00:00:30.361950,-4.587043696969697,0.905920303030303,-0.20272760606060614,0.3344723333333333,-0.5532712121212121,-0.03346972727272727,-0.2954500303030304,0.3194579090909091,-0.06134530303030306,0.022609969696969698,-0.043864545454545455,-0.13702639393939395,6.526066,1.5151515151515151,18.393939393939394,0.11422863636363637,0.07127781818181819,0.104778,0.0030855151515151516,0.05477854545454545,709.4545454545455,-0.5243185454545455,0.07215627272727272,-0.5964748181818182,0.15495418181818182,10.151307090909091,7628.484848484848,7715.212121212121,7751.878787878788,7612.666666666667,7675.121212121212,7770.787878787879,7743.090909090909,7582.787878787879,-0.687043696969697,0.405920303030303,-0.9027276060606061,0.3344723333333333,-0.5532712121212121,-0.03346972727272727,0.022609969696969698,-0.043864545454545455,-0.13702639393939395,-0.12765512121212122,0.1331790909090909,0.1624078787878788,-0.0026115757575757574,-0.01979548484848485,0.003072030303030303,-0.9435665151515151,0.29604645454545453,-9.684481575757577,0.09139739393939394,-0.05471712121212121,0.007938272727272728,-0.7091505757575758,0.43416430303030307,-0.8961721818181818,0.030566575757575758,6626.545454545455,-127.72727272727273,59.84848484848485,-45.484848484848484
0 days 00:00:30.426950,-4.566188939393939,0.8694454848484848,-0.204566303030303,0.3307744848484849,-0.5314507272727272,-0.05197545454545455,0.04991175757575763,0.2193232121212121,-0.4749258484848485,0.02666587878787879,-0.04327954545454546,-0.13655760606060607,6.482170303030303,4.909090909090909,16.90909090909091,0.15556742424242426,0.0735219393939394,0.104778,0.002057,0.33313,746.8181818181819,-0.20808672727272728,0.38778693939393943,-0.5958736666666667,0.0660770303030303,10.185575454545456,7751.333333333333,7886.030303030303,7724.484848484848,7527.515151515152,7714.030303030303,7836.424242424242,7716.424242424242,7540.151515151515,-0.6661889393939394,0.36944548484848483,-0.9045663030303029,0.3307744848484849,-0.5314507272727272,-0.05197545454545455,0.02666587878787879,-0.04327954545454546,-0.13655760606060607,-0.128668,0.13392,0.162395,-0.002604,-0.019797,0.003044,-0.5857599090909091,0.19975145454545454,-10.116033393939393,-0.024687909090909087,0.10840587878787879,0.008160151515151514,-0.682368,0.390209,-0.899654,0.033734,6638.969696969697,-149.15151515151516,146.6969696969697,-38.09090909090909
0 days 00:00:30.491950,-4.544387121212122,0.8346279090909091,-0.20896772727272728,0.33792839393939395,-0.5109104242424242,-0.07956718181818181,0.10788903030303032,0.22815948484848486,-0.2917575151515151,0.019744939393939395,-0.02844090909090909,-0.13532378787878788,6.438539272727273,4.0,16.0,0.161247,0.073056,0.104778,0.0,0.193847,765.0,-0.163923,0.431155,-0.595078,0.010975,9.876342,7596.393939393939,7637.333333333333,7656.212121212121,7489.636363636364,7560.727272727273,7580.606060606061,7628.727272727273,7464.636363636364,-0.6443871212121213,0.3346279090909091,-0.9089677272727272,0.33792839393939395,-0.5109104242424242,-0.07956718181818181,0.019744939393939395,-0.02844090909090909,-0.13532378787878788,-0.129034,0.13402866666666668,0.16240366666666667,-0.002598,-0.019795666666666666,0.003026,-0.3645241212121212,0.29693430303030305,-9.940814303030303,-0.12817384848484847,0.2230779090909091,0.0026633939393939394,-0.6588733333333333,0.3533496666666667,-0.905292,0.02438,6437.0,-91.81818181818181,23.90909090909091,-101.87878787878788
0 days 00:00:30.556950,-4.522423235294117,0.8010571470588235,-0.2144008529411765,0.3284993823529412,-0.492454294117647,-0.08108017647058824,-0.22231423529411765,0.14441520588235293,0.12622799999999998,0.01203379411764706,-0.014952000000000002,-0.13529241176470588,6.394556735294118,4.0,14.823529411764707,0.161247,0.073056,0.104778,-0.02691605882352941,0.193847,748.5294117647059,-0.163923,0.431155,-0.595078,0.02773970588235294,9.876342,7533.441176470588,7525.088235294118,7628.676470588235,7517.794117647059,7521.323529411765,7537.323529411765,7635.323529411765,7540.970588235294,-0.6224232352941176,0.3010571470588235,-0.9144008529411765,0.3284993823529412,-0.492454294117647,-0.08108017647058824,0.01203379411764706,-0.014952000000000002,-0.13529241176470588,-0.12919467647058824,0.13402811764705883,0.16241020588235294,-0.002594382352941177,-0.019795,0.003014529411764706,-0.5333466764705883,0.2591624117647059,-9.516027029411765,-0.06540814705882353,0.14328182352941177,-0.008745970588235294,-0.6441790294117646,0.33028755882352945,-0.9090607647058824,0.017522529411764704,6437.0,-55.205882352941174,-58.76470588235294,-55.26470588235294
0 days 00:00:30.621950,-4.501736060606061,0.7678953333333334,-0.21998866666666672,0.3092919393939394,-0.47785357575757575,-0.07676269696969697,-0.3259946060606061,0.15623760606060605,0.09025936363636364,0.012041484848484848,-0.011410363636363635,-0.13563933333333333,6.350869303030303,2.0303030303030303,13.212121212121213,0.16580154545454545,0.07058036363636364,0.104778,0.002571212121212121,0.2052648181818182,748.4242424242424,-0.12877354545454547,0.46592809090909093,-0.5947016363636363,0.22866772727272727,9.777803818181816,7503.69696969697,7573.666666666667,7564.181818181818,7528.151515151515,7510.242424242424,7559.727272727273,7488.848484848485,7503.909090909091,-0.6017360606060606,0.2678953333333333,-0.9199886666666667,0.3092919393939394,-0.47785357575757575,-0.07676269696969697,0.012041484848484848,-0.011410363636363635,-0.13563933333333333,-0.128964,0.133461,0.162433,-0.002588,-0.019795,0.002989,-0.6058239393939394,0.2574869393939394,-9.551728242424243,0.05736563636363636,-0.03966178787878787,-0.006436363636363637,-0.613727,0.282419,-0.918875,-0.005009,6376.272727272727,-17.151515151515152,38.484848484848484,45.54545454545455
0 days 00:00:30.686950,-4.482180151515151,0.7365151212121213,-0.22520351515151515,0.297124696969697,-0.4583436666666667,-0.07020045454545455,-0.15688557575757575,0.24399545454545454,0.19017990909090912,0.023747151515151516,-0.012081272727272727,-0.13592809090909092,6.308103393939394,-1.9696969696969697,11.030303030303031,0.1688179090909091,0.06588027272727273,0.104778,0.002057,0.1704296363636364,771.3333333333334,-0.10469154545454545,0.48895509090909095,-0.5936466363636363,0.45023,9.66323518181818,7459.090909090909,7507.909090909091,7365.030303030303,7470.30303030303,7433.0,7554.69696969697,7413.30303030303,7459.878787878788,-0.5821801515151516,0.2365151212121212,-0.9252035151515151,0.297124696969697,-0.4583436666666667,-0.07020045454545455,0.023747151515151516,-0.012081272727272727,-0.13592809090909092,-0.12884078787878786,0.13298196969696968,0.16245660606060608,-0.0025822424242424244,-0.019794424242424242,0.0029717272727272726,-0.45205963636363644,0.24535384848484848,-9.455847363636364,0.3361151212121212,-0.01208860606060606,-0.008959121212121212,-0.5960333939393939,0.25383436363636364,-0.9240349393939393,-0.001962090909090909,6305.0,-37.515151515151516,57.21212121212121,118.81818181818181
0 days 00:00:30.751950,-4.463292757575758,0.706875,-0.22996051515151528,0.2876456363636363,-0.42947284848484846,-0.06919660606060607,-0.12371521212121211,0.4463314242424242,-0.07269184848484851,0.04709566666666667,-0.011573454545454545,-0.13574278787878788,6.265654181818182,-3.0,10.0,0.162873,0.065439,0.104778,0.0,0.10465,777.0,-0.149607,0.443564,-0.593171,0.32195,9.732683,7358.606060606061,7650.515151515152,7486.939393939394,7442.787878787879,7371.636363636364,7665.363636363636,7512.0,7430.969696969697,-0.5632927575757575,0.206875,-0.9299605151515152,0.2876456363636363,-0.42947284848484846,-0.06919660606060607,0.04709566666666667,-0.011573454545454545,-0.13574278787878788,-0.12875,0.132629,0.162474,-0.002578,-0.019794,0.002959,-0.4424124545454545,0.20676487878787878,-9.725970696969698,0.2973928787878788,-0.02277166666666667,0.014966575757575757,-0.582996,0.232772,-0.927837,0.000283,6347.0,-187.06060606060606,46.90909090909091,150.15151515151516
0 days 00:00:30.816950,-4.445133382352941,0.6776173529411764,-0.23503655882352947,0.2724025294117647,-0.39300985294117646,-0.0630750294117647,-0.14521261764705887,0.5607607647058823,-0.07074305882352944,0.055330794117647054,-0.01333664705882353,-0.13426764705882355,6.222861970588235,-3.0,9.029411764705882,0.1345228823529412,0.061460647058823537,0.104778,0.0019965588235294116,-0.02068741176470588,774.0882352941177,-0.3656672352941176,0.22710847058823527,-0.5927766470588235,0.12808458823529412,9.871334294117649,7359.323529411765,7688.176470588235,7641.941176470588,7468.617647058823,7395.411764705882,7686.176470588235,7667.941176470588,7489.029411764706,-0.5451333823529412,0.17761735294117648,-0.9350365588235294,0.2724025294117647,-0.39300985294117646,-0.0630750294117647,0.055330794117647054,-0.01333664705882353,-0.13426764705882355,-0.12937117647058824,0.13142158823529412,0.16253902941176468,-0.0025663529411764706,-0.019794,0.0029221176470588233,-0.4992819705882353,0.2329963529411765,-9.729061441176471,-0.07083667647058822,-0.09864720588235296,0.019595823529411766,-0.5545606764705883,0.18585085294117648,-0.9354551470588236,0.01614823529411765,6438.294117647059,-234.52941176470588,-37.61764705882353,79.02941176470588
0 days 00:00:30.881950,-4.427771696969697,0.652106,-0.239536090909091,0.2706289393939394,-0.35703727272727276,-0.0721910606060606,0.0040239696969696735,0.35634951515151514,4.681818181818574e-05,0.04004163636363636,-0.02421869696969697,-0.1336899090909091,6.180323121212121,-4.575757575757576,6.636363636363637,0.1466570606060606,0.059368060606060605,0.104778,0.0030853939393939394,0.1513130909090909,800.7878787878788,-0.2724679696969697,0.3197572727272727,-0.5922254848484849,0.3174808787878788,9.79044393939394,7534.0,7653.30303030303,7520.484848484848,7441.757575757576,7583.909090909091,7623.878787878788,7449.848484848485,7433.818181818182,-0.527771696969697,0.152106,-0.939536090909091,0.2706289393939394,-0.35703727272727276,-0.0721910606060606,0.04004163636363636,-0.02421869696969697,-0.1336899090909091,-0.12963581818181819,0.13129918181818181,0.1625540909090909,-0.002561272727272727,-0.019794727272727273,0.0029049999999999996,-0.43661224242424246,0.19741363636363635,-9.649739606060605,-0.3135209393939394,-0.2129572424242424,0.007501787878787878,-0.5439910000000001,0.16869045454545456,-0.9378067272727273,0.01781809090909091,6386.424242424242,-28.0,161.84848484848484,16.727272727272727
