time,pos_x,pos_y,pos_z,vel_x,vel_y,vel_z,acc_x,acc_y,acc_z,att_phi,att_theta,att_psi,distance_est,centroid_x,centroid_y,divergence,true_divergence,divergence_sp,pitch_sum,raw_divergence,color_count,rpm_obs_1,rpm_obs_2,rpm_obs_3,rpm_obs_4,rpm_ref_1,rpm_ref_2,rpm_ref_3,rpm_ref_4,ekf_X1,ekf_X2,ekf_X3,ekf_X4,ekf_X5,ekf_X6,ekf_X7,ekf_X8,ekf_X9,ekf_X10,ekf_X11,ekf_X12,ekf_X13,ekf_X14,ekf_X15,ekf_U1,ekf_U2,ekf_U3,ekf_U4,ekf_U5,ekf_U6,ekf_Z1,ekf_Z2,ekf_Z3,ekf_Z4,cmd_thrust,cmd_roll,cmd_pitch,cmd_yaw,pos_z_inverted
0 days 00:02:19.884583,-3.145175212121212,-0.5082785454545455,-0.8266869696969699,-0.02530948484848485,0.016166636363636366,-0.0635199696969697,0.4015051818181818,-0.13040651515151516,-0.12306651515151522,0.002969848484848485,-0.016689939393939396,0.022572666666666664,0.321285,-40.696969696969695,-18.0,0.279376,0.125432,0.305106,-25.463972,0.279342,1317.090909090909,7895.818181818182,7590.757575757576,7665.818181818182,7216.727272727273,7874.848484848485,7600.515151515152,7692.666666666667,7215.969696969697,0.8548247878787879,0.4917214545454545,-1.5266869696969698,-0.02530948484848485,0.016166636363636366,-0.0635199696969697,0.002969848484848485,-0.016689939393939396,0.022572666666666664,0.042539393939393946,-0.020130181818181818,0.3595955151515151,0.03692530303030303,-0.015805,0.011285303030303031,0.29702290909090906,-0.10194724242424244,-9.578065818181818,0.09945393939393939,0.013020727272727274,0.006266242424242425,0.8573536666666666,0.48575096969696974,-1.5033526666666666,0.006761636363636364,6489.666666666667,-101.06060606060606,282.8787878787879,-530.2121212121212,0.8266869696969699
0 days 00:02:19.949583,-3.146401,-0.5088642727272727,-0.8260390303030303,-0.004926393939393939,0.015067,-0.06815133333333334,0.05434163636363634,0.020436545454545457,0.02326993939393937,0.004118060606060606,-0.014890212121212122,0.02254121212121212,0.321285,-41.0,-17.818181818181817,0.279376,0.125432,0.305106,-25.463972,0.279342,1318.3636363636363,7909.515151515152,7560.727272727273,7672.0,7232.030303030303,7919.0,7548.454545454545,7690.666666666667,7217.969696969697,0.853599,0.49113572727272725,-1.5260390303030302,-0.004926393939393939,0.015067,-0.06815133333333334,0.004118060606060606,-0.014890212121212122,0.02254121212121212,0.042956,-0.020148,0.359548,0.036927,-0.015805,0.011287,-0.014737212121212123,0.04530654545454547,-9.426461878787878,0.05637427272727273,0.02277160606060606,0.009758181818181817,0.853023,0.48640599999999995,-1.504482,0.004402,6486.878787878788,-51.15151515151515,279.0,-595.2727272727273,0.8260390303030303
0 days 00:02:20.014583,-3.147211787878788,-0.5087170909090909,-0.827086909090909,-0.0003164242424242424,0.022006545454545452,-0.07030309090909091,0.08268366666666666,0.03274984848484851,-0.1724084848484849,0.004882272727272727,-0.012574696969696968,0.021949606060606062,0.321285,-41.0,-17.0,0.279376,0.125432,0.305106,-25.463972,0.279342,1320.0,7884.272727272727,7556.151515151515,7699.575757575758,7219.151515151515,7885.151515151515,7584.0,7678.909090909091,7218.575757575758,0.8527882121212121,0.4912829090909091,-1.527086909090909,-0.0003164242424242424,0.022006545454545452,-0.07030309090909091,0.004882272727272727,-0.012574696969696968,0.021949606060606062,0.04322872727272727,-0.02015890909090909,0.3595134545454545,0.03692821212121212,-0.015805606060606058,0.01128760606060606,0.02124751515151518,0.026485545454545456,-9.623283666666666,0.048939090909090904,-0.004002393939393941,0.0001923939393939393,0.8510217878787878,0.48646903030303024,-1.5047662424242425,0.0066377575757575755,6483.515151515152,-79.45454545454545,285.3636363636364,-537.3939393939394,0.827086909090909
0 days 00:02:20.079583,-3.1473231470588234,-0.5081296176470588,-0.8293860882352941,0.012303588235294118,0.02247414705882353,-0.08124764705882354,0.12754949999999998,0.00352997058823531,0.11710347058823525,0.003693058823529412,-0.011930764705882353,0.022022676470588233,0.321285,-41.088235294117645,-17.08823529411765,0.279376,0.125432,0.305106,-25.463972,0.279342,1321.3235294117646,7877.882352941177,7585.911764705882,7630.470588235294,7249.029411764706,7892.470588235294,7586.35294117647,7622.294117647059,7239.411764705882,0.8526768529411765,0.4918703823529412,-1.529386088235294,0.012303588235294118,0.02247414705882353,-0.08124764705882354,0.003693058823529412,-0.011930764705882353,0.022022676470588233,0.04344305882352941,-0.020169794117647057,0.35948561764705883,0.036929088235294116,-0.015806176470588237,0.011288088235294117,0.08995873529411764,0.015337794117647038,-9.334558794117648,0.01105085294117647,-0.01612764705882353,0.024141176470588235,0.8495491176470589,0.4865415,-1.5049754411764706,0.0077521764705882346,6474.294117647059,-38.3235294117647,308.05882352941177,-486.29411764705884,0.8293860882352941
0 days 00:02:20.144583,-3.1474668484848483,-0.5081245757575759,-0.8290083636363637,0.03048645454545455,0.025698272727272726,-0.07747296969696969,0.39883912121212123,-0.0760831515151515,-0.20282769696969705,0.0030156363636363636,-0.010832939393939395,0.022518575757575758,0.321285,-42.0,-18.0,0.279376,0.125432,0.305106,-25.463972,0.279342,1305.0,7887.818181818182,7599.181818181818,7653.909090909091,7237.666666666667,7850.242424242424,7572.666666666667,7665.090909090909,7262.454545454545,0.8525331515151515,0.4918754242424242,-1.5290083636363636,0.03048645454545455,0.025698272727272726,-0.07747296969696969,0.0030156363636363636,-0.010832939393939395,0.022518575757575758,0.043826,-0.020209,0.35943,0.03693,-0.015808,0.011289,0.38340427272727273,-0.05776518181818182,-9.656664333333334,0.028298,0.04202927272727272,0.01998251515151515,0.847773,0.48686699999999994,-1.505228,0.004251,6477.787878787879,-62.36363636363637,247.3030303030303,-480.09090909090907,0.8290083636363637
0 days 00:02:20.209583,-3.1467585151515154,-0.5073643939393939,-0.830618484848485,0.015649272727272727,0.02599909090909091,-0.05983109090909091,-0.3627185454545454,0.017867818181818183,0.13366145454545456,0.00225,-0.008454272727272727,0.02313866666666667,0.321285,-42.0,-17.424242424242426,0.279376,0.125432,0.305106,-25.463972,0.279342,1302.121212121212,7889.606060606061,7559.636363636364,7685.939393939394,7246.393939393939,7912.515151515152,7554.939393939394,7677.757575757576,7231.636363636364,0.8532414848484848,0.4926356060606061,-1.530618484848485,0.015649272727272727,0.02599909090909091,-0.05983109090909091,0.00225,-0.008454272727272727,0.02313866666666667,0.044027363636363635,-0.020229909090909094,0.3594,0.03693090909090909,-0.015808909090909092,0.011289454545454545,-0.39488642424242426,0.05486496969696969,-9.315873575757577,0.014811212121212123,-0.022542242424242423,0.012177515151515151,0.8471652727272727,0.48696381818181816,-1.5050975454545454,0.004437818181818182,6487.151515151515,-44.09090909090909,278.4848484848485,-567.3636363636364,0.830618484848485
0 days 00:02:20.274583,-3.147222636363636,-0.506695,-0.8309204242424242,0.021766242424242424,0.02970087878787879,-0.06982463636363635,0.2324439696969697,0.02303257575757576,0.02785163636363634,0.002320151515151515,-0.007740818181818181,0.02284348484848485,0.321285,-42.666666666666664,-17.0,0.279376,0.125432,0.305106,-25.463972,0.279342,1284.0,7879.969696969697,7566.121212121212,7687.545454545455,7270.545454545455,7836.090909090909,7593.878787878788,7684.969696969697,7245.757575757576,0.8527773636363637,0.493305,-1.5309204242424241,0.021766242424242424,0.02970087878787879,-0.06982463636363635,0.002320151515151515,-0.007740818181818181,0.02284348484848485,0.044269,-0.020255,0.359364,0.036932,-0.01581,0.01129,0.19554921212121215,0.05439151515151516,-9.424567939393938,0.06706466666666666,-0.009758272727272721,0.015477060606060605,0.846436,0.48708,-1.504941,0.004662,6481.363636363636,-98.33333333333333,249.1818181818182,-481.0,0.8309204242424242
0 days 00:02:20.339583,-3.147164,-0.5064232352941176,-0.8291979999999999,0.03391729411764706,0.037418,-0.05875926470588236,0.057392382352941154,0.06658026470588235,0.015980235294117674,0.0024921764705882355,-0.007409205882352941,0.02292244117647059,0.321285,-42.529411764705884,-17.0,0.279376,0.125432,0.305106,-25.463972,0.279342,1279.2941176470588,7899.35294117647,7586.705882352941,7687.823529411765,7215.882352941177,7827.911764705882,7559.5,7738.794117647059,7256.911764705882,0.852836,0.49357676470588235,-1.5291979999999998,0.03391729411764706,0.037418,-0.05875926470588236,0.0024921764705882355,-0.007409205882352941,0.02292244117647059,0.044623676470588236,-0.020311529411764707,0.35930291176470586,0.03693382352941177,-0.015811823529411767,0.011290911764705883,0.029354352941176477,0.09239988235294117,-9.435029852941177,0.04281079411764706,0.04458435294117647,0.003511235294117647,0.8467551176470589,0.48747935294117645,-1.5042325588235295,0.0013805588235294118,6489.35294117647,-106.67647058823529,195.61764705882354,-529.6176470588235,0.8291979999999999
0 days 00:02:20.404583,-3.1459338484848485,-0.5051289393939393,-0.8294729999999999,0.03177187878787879,0.03756512121212121,-0.04230836363636364,0.04118690909090909,-0.11487066666666665,0.15190251515151518,-0.0002722121212121212,-0.007133272727272727,0.023262818181818183,0.321285,-42.0,-17.0,0.279376,0.125432,0.305106,-25.463972,0.279342,1287.909090909091,7941.575757575758,7593.454545454545,7625.757575757576,7260.181818181818,7954.121212121212,7615.575757575758,7623.969696969697,7218.545454545455,0.8540661515151515,0.4948710606060606,-1.5294729999999999,0.03177187878787879,0.03756512121212121,-0.04230836363636364,-0.0002722121212121212,-0.007133272727272727,0.023262818181818183,0.04480848484848485,-0.020321727272727273,0.359270606060606,0.03693518181818182,-0.015812787878787878,0.011291,0.004853272727272715,-0.05687733333333332,-9.299390393939394,0.015070181818181821,-0.0605320303030303,0.021462242424242425,0.8474036969696971,0.4875211515151516,-1.5035116363636365,0.001404151515151515,6499.606060606061,-33.303030303030305,363.030303030303,-525.1818181818181,0.8294729999999999
0 days 00:02:20.469583,-3.144931727272727,-0.5045016363636363,-0.8282728787878788,0.03928857575757576,0.032919333333333335,-0.052725969696969695,0.2648788484848485,-0.07521372727272728,-0.5919110303030303,-2.2151515151515133e-05,-0.005052151515151516,0.023292757575757578,0.321285,-42.0,-17.0,0.279376,0.125432,0.305106,-25.463972,0.279342,1300.6363636363637,7859.151515151515,7548.727272727273,7754.545454545455,7256.0,7926.060606060606,7496.575757575758,7706.606060606061,7268.636363636364,0.8550682727272727,0.4954983636363636,-1.5282728787878788,0.03928857575757576,0.032919333333333335,-0.052725969696969695,-2.2151515151515133e-05,-0.005052151515151516,0.023292757575757578,0.04504,-0.020329,0.35923,0.036937,-0.015814,0.011291,0.2524562424242424,-0.025952848484848485,-10.044211696969697,-0.034926787878787884,-0.00522309090909091,0.016653363636363636,0.848354,0.48752599999999996,-1.502508,0.0019289999999999997,6494.575757575758,-4.121212121212121,223.57575757575756,-612.3333333333334,0.8282728787878788
0 days 00:02:20.534583,-3.1433499411764707,-0.5046379705882353,-0.8278404411764708,0.05703879411764706,0.024953117647058824,-0.08824485294117647,0.25906150000000006,-0.17651323529411767,-0.2103412352941176,-0.0005718235294117647,-0.005166470588235294,0.021877794117647058,0.321285,-42.1764705882353,-17.0,0.279376,0.125432,0.305106,-25.463972,0.279342,1297.2941176470588,7927.970588235294,7526.117647058823,7735.529411764706,7149.35294117647,7881.5,7561.382352941177,7725.029411764706,7163.941176470588,0.8566500588235294,0.4953620294117647,-1.5278404411764708,0.05703879411764706,0.024953117647058824,-0.08824485294117647,-0.0005718235294117647,-0.005166470588235294,0.021877794117647058,0.04528632352941176,-0.02032826470588235,0.35917852941176465,0.036938470588235295,-0.015815470588235295,0.011291,0.24663950000000004,-0.13338685294117644,-9.662827382352942,0.08625338235294118,0.0015724411764705844,-0.02817670588235294,0.849831205882353,0.48767820588235294,-1.5012094705882353,0.0030010588235294114,6471.176470588235,-120.23529411764706,276.5,-622.0,0.8278404411764708
0 days 00:02:20.599583,-3.1404312424242424,-0.5045976666666667,-0.8299245151515153,0.060969909090909095,0.018066636363636365,-0.07636951515151515,-0.35671830303030305,-0.11289751515151515,0.48326636363636366,0.00021387878787878787,-0.003304909090909091,0.021582242424242424,0.321285,-43.0,-17.0,0.279376,0.125432,0.305106,-25.463972,0.279342,1308.0,7841.393939393939,7583.212121212121,7630.090909090909,7282.757575757576,7819.030303030303,7587.242424242424,7660.484848484848,7280.666666666667,0.8595687575757576,0.49540233333333333,-1.5299245151515153,0.060969909090909095,0.018066636363636365,-0.07636951515151515,0.00021387878787878787,-0.003304909090909091,0.021582242424242424,0.045458151515151514,-0.02032821212121212,0.35914387878787873,0.03693963636363637,-0.015816424242424243,0.011291,-0.34144160606060603,-0.06906966666666668,-8.967240636363638,0.07195487878787879,0.021247666666666668,0.03534857575757576,0.8508843939393939,0.4876048787878788,-1.500437393939394,0.0043290303030303024,6476.727272727273,-73.96969696969697,232.1818181818182,-431.72727272727275,0.8299245151515153
0 days 00:02:20.664583,-3.1393249393939393,-0.5058711818181818,-0.8279802727272729,0.03423333333333333,0.013343,-0.0479,-0.3087204242424243,-0.0115680606060606,0.360419696969697,0.001062,-0.0020586363636363636,0.022862848484848486,0.321285,-42.333333333333336,-17.0,0.279376,0.125432,0.305106,-25.463972,0.279342,1289.3333333333333,7869.272727272727,7557.393939393939,7700.939393939394,7284.636363636364,7919.363636363636,7549.333333333333,7672.090909090909,7263.212121212121,0.8606750606060606,0.4941288181818182,-1.5279802727272729,0.03423333333333333,0.013343,-0.0479,0.001062,-0.0020586363636363636,0.022862848484848486,0.045767,-0.020329,0.359084,0.036942,-0.015818,0.011291,-0.30820900000000007,0.01287284848484849,-9.089163090909091,0.024894848484848485,-0.054214030303030306,0.023489272727272727,0.852821,0.48712900000000003,-1.499306,0.007828,6496.69696969697,-19.454545454545453,266.1818181818182,-549.8787878787879,0.8279802727272729
0 days 00:02:20.729583,-3.1384698484848483,-0.5064466060606061,-0.8258221212121213,0.023409636363636365,0.012706878787878788,-0.018007272727272726,0.08500727272727275,-0.01736739393939394,0.19724672727272724,0.003922878787878788,-0.0034393636363636362,0.02307160606060606,0.321285,-42.75757575757576,-17.757575757575758,0.279376,0.125432,0.305106,-25.463972,0.279342,1286.060606060606,7854.969696969697,7620.333333333333,7741.090909090909,7257.030303030303,7807.666666666667,7589.636363636364,7755.090909090909,7311.909090909091,0.8615301515151516,0.4935533939393939,-1.5258221212121212,0.023409636363636365,0.012706878787878788,-0.018007272727272726,0.003922878787878788,-0.0034393636363636362,0.02307160606060606,0.04593627272727273,-0.020351454545454548,0.35904139393939394,0.036943727272727274,-0.015819151515151515,0.011291,0.05891930303030307,-0.008522696969696965,-9.256214606060606,0.0655851212121212,-0.0011985454545454589,0.02546469696969697,0.8552397575757577,0.48697642424242427,-1.4981423939393939,0.005473151515151515,6517.939393939394,-112.42424242424242,164.96969696969697,-466.6363636363636,0.8258221212121213
0 days 00:02:20.794583,-3.137820823529412,-0.5065624411764706,-0.8232619411764706,0.016922470588235292,0.01631,-0.003473323529411765,0.04928535294117642,0.011487411764705876,-0.13934123529411763,0.003112676470588235,-0.006402088235294118,0.023894235294117647,0.321285,-42.44117647058823,-17.441176470588236,0.279376,0.125432,0.305106,-25.463972,0.279342,1293.0294117647059,7987.911764705882,7602.088235294118,7696.382352941177,7244.058823529412,7911.823529411765,7613.823529411765,7746.85294117647,7222.441176470588,0.8621791764705882,0.49343755882352935,-1.5232619411764705,0.016922470588235292,0.01631,-0.003473323529411765,0.003112676470588235,-0.006402088235294118,0.023894235294117647,0.046061,-0.020368,0.35901,0.036945,-0.01582,0.011291,-0.012781441176470575,0.02211620588235294,-9.590102294117646,0.08930526470588236,-0.04623588235294118,0.0009191176470588237,0.857022,0.486864,-1.497285,0.0037380000000000004,6528.823529411765,-112.97058823529412,277.61764705882354,-580.5882352941177,0.8232619411764706
0 days 00:02:20.859583,-3.1371849393939395,-0.5077511515151515,-0.817878878787879,0.009071151515151515,0.013408848484848485,-0.00804342424242424,-0.00674745454545454,-0.004582030303030301,-0.12849712121212115,0.0027457575757575754,-0.006723303030303031,0.023556878787878786,0.321285,-42.0,-17.0,0.279376,0.125432,0.305106,-25.463972,0.279342,1295.909090909091,7903.484848484848,7542.848484848485,7761.424242424242,7321.0,7952.0,7558.727272727273,7709.393939393939,7273.393939393939,0.8628150606060606,0.4922488484848485,-1.517878878787879,0.009071151515151515,0.013408848484848485,-0.00804342424242424,0.0027457575757575754,-0.006723303030303031,0.023556878787878786,0.046204242424242425,-0.020353939393939393,0.35895375757575754,0.03694675757575758,-0.01582,0.011291,-0.07945672727272728,0.0039949696969696965,-9.578273,0.010793969696969694,-0.0794419696969697,0.008382121212121212,0.8613895757575758,0.4863657272727273,-1.4951442727272728,0.008755,6528.272727272727,-21.272727272727273,263.42424242424244,-585.4242424242424,0.817878878787879
0 days 00:02:20.924583,-3.1360346363636364,-0.507948393939394,-0.8151698484848486,0.01169730303030303,0.01660806060606061,-0.003907575757575758,-0.052932848484848485,0.04888809090909091,0.19614681818181814,0.004078757575757576,-0.008711727272727272,0.022901939393939395,0.321285,-41.84848484848485,-17.151515151515152,0.279376,0.125432,0.305106,-25.463972,0.279342,1299.3030303030303,7862.333333333333,7629.636363636364,7755.242424242424,7280.606060606061,7843.969696969697,7575.030303030303,7726.484848484848,7357.939393939394,0.8639653636363637,0.49205160606060605,-1.5151698484848486,0.01169730303030303,0.01660806060606061,-0.003907575757575758,0.004078757575757576,-0.008711727272727272,0.022901939393939395,0.046263878787878784,-0.020334606060606056,0.3589239393939394,0.036947848484848486,-0.015819575757575758,0.011291,-0.1449160606060606,0.051491484848484856,-9.252337787878789,-0.005075151515151517,0.005792757575757575,0.021395636363636363,0.8643537575757576,0.4862291212121212,-1.4942448787878788,0.010000212121212122,6531.787878787879,-49.72727272727273,167.0,-449.969696969697,0.8151698484848486
0 days 00:02:20.989583,-3.1344219411764707,-0.5078650294117647,-0.8120697941176471,0.01422714705882353,0.025348205882352943,0.004423029411764706,0.11655508823529415,0.07842267647058826,0.01262264705882357,0.0034573529411764704,-0.008885323529411765,0.02387864705882353,0.321285,-41.0,-18.0,0.279376,0.125432,0.305106,-25.463972,0.279342,1329.0,7869.058823529412,7600.382352941177,7753.294117647059,7300.205882352941,7888.235294117647,7625.323529411765,7763.85294117647,7260.64705882353,0.8655780588235293,0.4921349705882353,-1.512069794117647,0.01422714705882353,0.025348205882352943,0.004423029411764706,0.0034573529411764704,-0.008885323529411765,0.02387864705882353,0.046318,-0.020311,0.358894,0.036949,-0.015819,0.011291,0.02406938235294112,0.0831515,-9.438964823529412,0.05577182352941176,-0.05404135294117647,0.015251617647058823,0.867559,0.486137,-1.493425,0.010751,6543.970588235294,-120.0,244.08823529411765,-540.6176470588235,0.8120697941176471
0 days 00:02:21.054583,-3.1308696969696967,-0.507711696969697,-0.8080848181818181,0.031208030303030303,0.026532545454545454,0.006171909090909091,0.1990978181818182,0.009501696969696967,0.09668809090909089,0.0006161515151515152,-0.01161309090909091,0.02341242424242424,0.321285,-41.0,-18.0,0.279376,0.125432,0.305106,-25.463972,0.279342,1307.6666666666667,7996.30303030303,7579.090909090909,7709.909090909091,7254.333333333333,7972.939393939394,7599.454545454545,7742.090909090909,7248.272727272727,0.869130303030303,0.492288303030303,-1.508084818181818,0.031208030303030303,0.026532545454545454,0.006171909090909091,0.0006161515151515152,-0.01161309090909091,0.02341242424242424,0.04631145454545454,-0.02023081818181818,0.35885881818181814,0.036950636363636366,-0.015816545454545455,0.011291,0.11017403030303033,0.030776454545454537,-9.356741212121213,0.034386787878787885,-0.03187887878787878,-0.01431548484848485,0.8735431818181818,0.48684063636363634,-1.4924276363636364,0.012694181818181818,6552.757575757576,-60.0,290.57575757575756,-612.2121212121212,0.8080848181818181
0 days 00:02:21.119583,-3.1277695454545453,-0.5066372121212122,-0.8057098787878789,0.02959460606060606,0.029103363636363636,0.022211818181818183,-0.07722890909090911,0.03523784848484847,0.08742378787878786,-9.21818181818182e-05,-0.01069230303030303,0.02279090909090909,0.321285,-41.0,-18.0,0.279376,0.125432,0.305106,-25.463972,0.279342,1313.060606060606,7887.212121212121,7603.484848484848,7743.333333333333,7345.363636363636,7915.818181818182,7589.787878787879,7727.666666666667,7364.606060606061,0.8722304545454546,0.49336278787878785,-1.5057098787878789,0.02959460606060606,0.029103363636363636,0.022211818181818183,-9.21818181818182e-05,-0.01069230303030303,0.02279090909090909,0.04629618181818182,-0.020193545454545454,0.3588455454545454,0.036951363636363636,-0.015815454545454546,0.011290818181818181,-0.1235203939393939,0.059481606060606054,-9.362985303030303,-0.01043148484848485,0.007338939393939397,0.022682848484848486,0.8765431818181818,0.48709718181818185,-1.4921387272727273,0.01206109090909091,6565.090909090909,-18.424242424242426,206.27272727272728,-486.42424242424244,0.8057098787878789
0 days 00:02:21.184583,-3.1223769393939396,-0.5066634242424242,-0.8021043636363636,0.045092909090909086,0.023683181818181815,0.003728090909090909,0.16966948484848487,-0.13996078787878788,-0.4850948181818182,-0.0007460303030303031,-0.011699727272727273,0.022885151515151518,0.321285,-41.0,-18.0,0.279376,0.125432,0.305106,-25.463972,0.279342,1325.1818181818182,7886.454545454545,7628.181818181818,7762.606060606061,7318.393939393939,7871.757575757576,7613.151515151515,7744.151515151515,7343.333333333333,0.8776230606060605,0.4933365757575758,-1.5021043636363636,0.045092909090909086,0.023683181818181815,0.003728090909090909,-0.0007460303030303031,-0.011699727272727273,0.022885151515151518,0.046234,-0.020106,0.358821,0.036953,-0.015813,0.01129,0.13808003030303032,-0.12822557575757576,-9.940015333333333,0.01894681818181818,-0.007405545454545457,0.014574424242424241,0.884059,0.487548,-1.491836,0.007269,6556.090909090909,-70.96969696969697,198.45454545454547,-465.45454545454544,0.8021043636363636
0 days 00:02:21.249583,-3.1165424705882354,-0.5065177941176471,-0.8007370882352942,0.06137355882352941,0.01702279411764706,-0.006148205882352941,0.45275502941176476,-0.03345394117647058,-0.21039970588235293,-0.0017463529411764706,-0.012430852941176471,0.023310147058823533,0.321285,-41.64705882352941,-18.0,0.279376,0.125432,0.305106,-25.463972,0.279342,1337.3529411764705,7904.35294117647,7601.676470588235,7713.205882352941,7324.823529411765,7865.0,7660.735294117647,7738.794117647059,7282.294117647059,0.8834575294117647,0.4934822058823529,-1.5007370882352942,0.06137355882352941,0.01702279411764706,-0.006148205882352941,-0.0017463529411764706,-0.012430852941176471,0.023310147058823533,0.046162176470588234,-0.020043235294117646,0.35880676470588235,0.03695429411764706,-0.015810411764705882,0.01129,0.44272755882352943,-0.01631441176470588,-9.664464558823529,0.10809688235294118,-0.024363794117647063,0.008580764705882354,0.8899407647058823,0.4881607647058824,-1.491911705882353,0.005405470588235295,6547.14705882353,-126.0,251.85294117647058,-466.5,0.8007370882352942
0 days 00:02:21.314583,-3.1098325454545455,-0.506112606060606,-0.8010377272727274,0.09393103030303031,0.017709454545454546,-0.033102878787878785,0.14641669696969697,-0.11703369696969698,-0.39529833333333336,-0.0016942727272727274,-0.010299878787878787,0.024177181818181816,0.321285,-42.0,-17.545454545454547,0.279376,0.125432,0.305106,-25.463972,0.279342,1334.8181818181818,7885.212121212121,7594.424242424242,7708.30303030303,7332.181818181818,7953.121212121212,7514.30303030303,7691.515151515152,7330.060606060606,0.8901674545454545,0.4938873939393939,-1.5010377272727273,0.09393103030303031,0.017709454545454546,-0.033102878787878785,-0.0016942727272727274,-0.010299878787878787,0.024177181818181816,0.04612039393939394,-0.02000821212121212,0.35879839393939394,0.0369550303030303,-0.015808909090909092,0.01129,0.1663411515151515,-0.09463778787878789,-9.849372636363636,-0.03727948484848485,0.034838121212121216,0.02536839393939394,0.8934709999999999,0.48852678787878784,-1.491980575757576,0.004065212121212121,6526.727272727273,38.60606060606061,222.57575757575756,-564.8484848484849,0.8010377272727274
0 days 00:02:21.379583,-3.100318727272727,-0.5064196060606061,-0.8011313636363637,0.09987912121212121,0.02028854545454545,-0.027728424242424242,-0.23056836363636363,0.17229242424242425,0.11181136363636361,-0.0011056363636363635,-0.007359151515151516,0.023245181818181818,0.321285,-42.24242424242424,-17.0,0.279376,0.125432,0.305106,-25.463972,0.279342,1325.969696969697,7897.69696969697,7572.787878787879,7762.121212121212,7260.969696969697,7831.666666666667,7582.121212121212,7775.060606060606,7309.212121212121,0.8996812727272728,0.49358039393939396,-1.5011313636363637,0.09987912121212121,0.02028854545454545,-0.027728424242424242,-0.0011056363636363635,-0.007359151515151516,0.023245181818181818,0.046037,-0.019983,0.358779,0.036956,-0.015806,0.01129,-0.1480232424242424,0.17977633333333332,-9.33792009090909,0.07887957575757576,0.07380445454545455,-0.007620151515151515,0.903775,0.4895439999999999,-1.492863,-0.006296,6529.848484848485,-108.0,164.5151515151515,-505.0,0.8011313636363637
0 days 00:02:21.444583,-3.092850029411765,-0.5055845588235295,-0.8016221470588234,0.09428932352941176,0.021170882352941175,-0.009592029411764706,-0.4072178235294117,0.06308791176470588,0.7074819411764706,-0.0018155882352941177,-0.004335823529411764,0.02370858823529412,2.3139616176470588,-36.6764705882353,-14.5,0.2218574117647059,0.1051340588235294,0.24229005882352941,-20.219283823529413,0.22183041176470586,1137.8823529411766,7857.14705882353,7584.14705882353,7706.176470588235,7357.029411764706,7891.35294117647,7590.264705882353,7692.0,7328.85294117647,0.9071499705882352,0.49441544117647057,-1.5016221470588234,0.09428932352941176,0.021170882352941175,-0.009592029411764706,-0.0018155882352941177,-0.004335823529411764,0.02370858823529412,0.04600035294117647,-0.01997435294117647,0.3587703529411765,0.036956823529411764,-0.01580476470588235,0.011290411764705882,-0.3114085588235294,0.06890505882352942,-8.746696882352941,0.025627558823529413,-0.02947638235294117,0.02634561764705882,0.9085407647058823,0.4899858235294117,-1.4928914117647059,-0.0060435882352941174,6531.5,-30.941176470588236,229.94117647058823,-468.9117647058824,0.8016221470588234
0 days 00:02:21.509583,-3.0854168181818182,-0.5049781212121212,-0.799503484848485,0.08577718181818182,0.02241887878787879,0.03555521212121212,-0.11166430303030299,-0.04113418181818182,0.5923871212121212,0.0018015151515151516,-0.011088787878787879,0.024292878787878787,10.0,-43.0,-17.0,0.0,0.026842,0.0,0.0011932121212121206,0.0,1350.0,7677.727272727273,7306.666666666667,7628.727272727273,7375.363636363636,7618.757575757576,7254.515151515152,7584.272727272727,7306.848484848485,0.9145831818181819,0.4950218787878788,-1.499503484848485,0.08577718181818182,0.02241887878787879,0.03555521212121212,0.0018015151515151516,-0.011088787878787879,0.024292878787878787,0.045948,-0.019962,0.358758,0.036958,-0.015803,0.011291,-0.09073154545454543,-0.06927678787878788,-8.85922703030303,0.2025849090909091,-0.29110433333333335,0.02323775757575758,0.915349,0.49061699999999997,-1.492932,-0.005683,6271.0,43.36363636363637,-8.878787878787879,-452.90909090909093,0.799503484848485
0 days 00:02:21.574583,-3.0776405454545452,-0.5046867575757575,-0.7948782727272727,0.10252730303030304,0.023171151515151516,0.08276051515151515,0.35233566666666666,0.15247293939393938,1.2615365757575758,0.01944118181818182,-0.0379029696969697,0.025193848484848486,10.0,-44.696969696969695,-17.848484848484848,-0.004454181818181818,0.030352,0.0,-0.5034130606060606,-0.026848636363636363,1344.909090909091,7409.363636363636,7024.030303030303,7044.090909090909,6965.848484848485,7263.575757575758,6182.393939393939,6375.545454545455,6887.606060606061,0.9223594545454545,0.49531324242424246,-1.4948782727272727,0.10252730303030304,0.023171151515151516,0.08276051515151515,0.01944118181818182,-0.0379029696969697,0.025193848484848486,0.04578254545454546,-0.019889030303030304,0.35874866666666666,0.03695884848484848,-0.01580130303030303,0.011291,0.1559540909090909,-0.01905784848484849,-8.197857515151515,0.4188565454545454,-0.4472509090909091,0.05401421212121212,0.9239356666666667,0.49147481818181826,-1.4922557575757576,0.016638939393939397,5192.636363636364,795.3333333333334,91.33333333333333,-401.72727272727275,0.7948782727272727
0 days 00:02:21.639583,-3.0694405151515154,-0.5030215757575758,-0.7858215757575757,0.13357654545454545,0.04854724242424242,0.19499851515151514,0.3593280909090909,0.6944066363636363,1.4015629090909092,0.07503021212121212,-0.0631150606060606,0.025210000000000003,10.0,-43.121212121212125,-17.060606060606062,0.009583272727272728,0.03652836363636364,0.0,-1.9272276363636363,0.06407681818181818,1359.969696969697,7163.545454545455,7320.060606060606,7281.515151515152,6560.212121212121,7271.515151515152,7966.727272727273,7768.363636363636,6616.848484848485,0.9305594848484848,0.4969784242424242,-1.4858215757575757,0.13357654545454545,0.04854724242424242,0.19499851515151514,0.07503021212121212,-0.0631150606060606,0.025210000000000003,0.045631878787878784,-0.019857545454545458,0.358747,0.03695921212121212,-0.015800787878787876,0.01129121212121212,-0.06167145454545454,0.04142990909090909,-8.085582424242423,0.9432557878787879,-0.35153290909090906,0.005748454545454545,0.9282299696969697,0.49235260606060605,-1.489830090909091,0.037760363636363634,6221.181818181818,-921.8181818181819,425.72727272727275,-322.1515151515151,0.7858215757575757
0 days 00:02:21.704583,-3.0581849705882354,-0.49894111764705884,-0.7713490294117646,0.1659136176470588,0.09952620588235295,0.24223717647058826,0.40104732352941175,0.6983832352941176,0.7105670882352941,0.06855770588235294,-0.0707985,0.028111,10.0,-38.588235294117645,-17.735294117647058,0.011086,0.037068,0.0,-3.9793047058823525,0.073766,1355.8529411764705,7967.35294117647,7458.85294117647,7646.735294117647,7121.794117647059,7910.705882352941,7268.911764705882,7820.882352941177,7062.205882352941,0.9418150294117648,0.5010588823529412,-1.4713490294117646,0.1659136176470588,0.09952620588235295,0.24223717647058826,0.06855770588235294,-0.0707985,0.028111,0.045182,-0.019789,0.358747,0.03696,-0.0158,0.011292,-0.11408558823529408,0.06563073529411764,-8.775074676470588,-0.3373951470588235,0.0711670294117647,-0.005579235294117649,0.938485,0.49504399999999993,-1.481269,0.101406,6376.235294117647,-58.38235294117647,148.02941176470588,-988.6176470588235,0.7713490294117646
0 days 00:02:21.769583,-3.0460162424242423,-0.49196084848484856,-0.7544946666666668,0.18528248484848484,0.13652275757575758,0.2890500909090909,0.31491724242424246,0.45204636363636364,0.034929999999999996,0.041589515151515155,-0.06610184848484849,0.025426151515151516,10.0,-33.18181818181818,-18.545454545454547,0.016176727272727273,0.04853578787878787,0.0,-5.929220363636364,0.07190218181818181,1361.090909090909,7999.424242424242,7461.606060606061,7670.878787878788,7377.727272727273,8235.60606060606,7537.181818181818,7631.151515151515,7598.030303030303,0.9539837575757576,0.5080391515151514,-1.4544946666666667,0.18528248484848484,0.13652275757575758,0.2890500909090909,0.041589515151515155,-0.06610184848484849,0.025426151515151516,0.04486278787878788,-0.019630090909090906,0.3587553636363636,0.03696069696969697,-0.015799303030303028,0.011292696969696968,-0.1781191212121212,0.0387370606060606,-9.428592606060606,-0.4601383636363636,0.036576727272727275,0.02499848484848485,0.9498679090909091,0.5008630000000001,-1.467878121212121,0.08244284848484848,6707.757575757576,332.1818181818182,271.3333333333333,-516.3636363636364,0.7544946666666668
0 days 00:02:21.834583,-3.0323394545454545,-0.48266784848484845,-0.7379951212121214,0.2255110606060606,0.17032421212121213,0.2386048181818182,0.4232195151515152,0.5339041212121213,-0.5630240909090908,0.044732878787878794,-0.05756418181818182,0.024109121212121214,10.0,-30.0,-19.0,0.03402981818181818,0.0658241515151515,0.0,-7.633370575757576,0.10214012121212122,1385.4545454545455,7934.0,7898.636363636364,7944.575757575758,7491.818181818182,7729.666666666667,7773.454545454545,7803.515151515152,7421.181818181818,0.9676605454545454,0.5173321515151516,-1.4379951212121214,0.2255110606060606,0.17032421212121213,0.2386048181818182,0.044732878787878794,-0.05756418181818182,0.024109121212121214,0.04466869696969697,-0.01953009090909091,0.35876324242424246,0.036961151515151516,-0.015798848484848485,0.011293151515151515,-0.02394060606060607,0.07410033333333334,-10.035984878787879,0.12265475757575756,0.16702915151515152,0.027136636363636363,0.9579745757575758,0.5055295151515151,-1.4593502424242424,0.0726360303030303,6611.060606060606,-212.6969696969697,138.87878787878788,-238.9090909090909,0.7379951212121214
0 days 00:02:21.899583,-3.0161990000000003,-0.47186309090909084,-0.7249212424242426,0.25224951515151517,0.19653181818181817,0.2471060303030303,0.1595352424242424,0.22735181818181818,0.36273996969696964,0.041663030303030306,-0.04796790909090909,0.02559790909090909,10.0,-30.424242424242426,-18.151515151515152,0.03863693939393939,0.07426627272727272,0.0,-9.015905666666667,0.06826645454545455,1394.7272727272727,7689.454545454545,7384.636363636364,7635.575757575758,7208.666666666667,7589.151515151515,7537.575757575758,7732.30303030303,7072.969696969697,0.9838009999999999,0.5281369090909092,-1.4249212424242426,0.25224951515151517,0.19653181818181817,0.2471060303030303,0.041663030303030306,-0.04796790909090909,0.02559790909090909,0.044359,-0.019357,0.358787,0.036962,-0.015798,0.011294,-0.16009718181818178,-0.16622287878787878,-9.089222393939394,0.05353345454545455,0.08846024242424243,-0.021625000000000002,0.975657,0.517494,-1.444198,0.063889,6330.121212121212,-303.45454545454544,160.54545454545453,-501.8484848484849,0.7249212424242426
0 days 00:02:21.964583,-2.998995911764706,-0.4592107352941176,-0.709985088235294,0.26914402941176474,0.2119015294117647,0.27745050000000004,0.3912374117647059,0.18127647058823526,0.42098073529411767,0.022962470588235293,-0.04297420588235294,0.025617617647058822,10.0,-31.0,-17.0,0.032663,0.080759,0.0,-10.266984735294116,-0.015839,1393.0,7655.705882352941,7406.558823529412,7513.235294117647,7180.911764705882,7734.35294117647,7344.941176470588,7523.882352941177,7226.5,1.0010040882352942,0.5407892647058824,-1.409985088235294,0.26914402941176474,0.2119015294117647,0.27745050000000004,0.022962470588235293,-0.04297420588235294,0.025617617647058822,0.044252058823529415,-0.019250588235294117,0.3588087058823529,0.03696252941176471,-0.015798,0.011294529411764705,0.10242411764705886,-0.02613738235294119,-9.040872029411766,-0.44361070588235296,0.0641659705882353,0.01815973529411765,0.9895879411764705,0.5276655882352942,-1.4349560588235295,0.05343735294117647,6294.0,45.94117647058823,164.14705882352942,-484.8235294117647,0.709985088235294
0 days 00:02:22.029583,-2.980126666666667,-0.4458854848484848,-0.6931507878787879,0.3015650606060606,0.2121051818181818,0.3020113636363636,0.315830696969697,-0.15239172727272726,0.5240930606060606,0.0014266969696969697,-0.03747227272727273,0.02438290909090909,10.0,-32.90909090909091,-16.03030303030303,0.03169118181818182,0.09039536363636363,0.0,-11.35560518181818,0.022508272727272724,1398.2121212121212,7612.69696969697,7301.181818181818,7422.424242424242,7257.151515151515,7607.787878787879,7363.606060606061,7394.121212121212,7301.424242424242,1.0198733333333332,0.5541145151515152,-1.3931507878787879,0.3015650606060606,0.2121051818181818,0.3020113636363636,0.0014266969696969697,-0.03747227272727273,0.02438290909090909,0.044157,-0.019156,0.358828,0.036963,-0.015798,0.011295,0.07910160606060608,-0.16240533333333332,-8.933445818181818,-0.1685532121212121,0.03977275757575758,0.006554818181818182,1.001971,0.536707,-1.426741,0.044147,6236.484848484848,75.6969696969697,137.8181818181818,-237.78787878787878,0.6931507878787879
0 days 00:02:22.094583,-2.9600676666666668,-0.4336868787878788,-0.6780334545454547,0.32198072727272725,0.2050572121212121,0.3299153939393939,-0.030392727272727283,-0.06812824242424242,0.5193512121212122,-0.0009696363636363636,-0.03478169696969697,0.024487575757575757,10.0,-34.121212121212125,-14.878787878787879,0.04166227272727273,0.10031327272727272,0.0,-12.301031484848485,0.07799218181818182,1418.5151515151515,7556.666666666667,7393.181818181818,7427.272727272727,7286.575757575758,7578.090909090909,7461.909090909091,7453.878787878788,7300.212121212121,1.0399323333333332,0.5663131212121212,-1.3780334545454547,0.32198072727272725,0.2050572121212121,0.3299153939393939,-0.0009696363636363636,-0.03478169696969697,0.024487575757575757,0.044139,-0.018979,0.358878,0.036965,-0.015798,0.011296,-0.23541069696969694,-0.06386130303030302,-8.929657878787879,0.07702999999999999,0.010838393939393936,0.021624969696969698,1.029888,0.557111,-1.406036,0.01818,6281.454545454545,-18.818181818181817,142.84848484848484,-190.42424242424244,0.6780334545454547
0 days 00:02:22.159583,-2.939532941176471,-0.42083935294117647,-0.6578748823529412,0.3167912352941176,0.19834576470588236,0.3641724705882353,-0.03896829411764708,0.014328970588235287,0.6379005882352942,0.0026935588235294117,-0.033388852941176474,0.025033235294117648,10.0,-35.0,-14.0,0.058635,0.103416,0.0,-13.127502323529413,0.148534,1444.0,7564.470588235294,7411.029411764706,7472.882352941177,7252.85294117647,7502.823529411765,7463.058823529412,7538.558823529412,7245.823529411765,1.0604670588235294,0.5791606470588235,-1.3578748823529412,0.3167912352941176,0.19834576470588236,0.3641724705882353,0.0026935588235294117,-0.033388852941176474,0.025033235294117648,0.04417194117647059,-0.018941529411764704,0.3589027058823529,0.036965,-0.015798823529411764,0.011296411764705883,-0.20226323529411758,-0.03211176470588234,-8.810948970588235,0.13119691176470588,0.023825264705882348,0.009780058823529413,1.0420074705882352,0.5659013529411764,-1.395644294117647,0.018486764705882355,6266.0,-126.26470588235294,90.55882352941177,-234.64705882352942,0.6578748823529412
0 days 00:02:22.224583,-2.9195508484848487,-0.4083363939393939,-0.6365075454545455,0.32234481818181815,0.19567654545454546,0.4027056363636364,0.09474393939393937,-0.08379127272727271,0.4540562727272727,0.0025167878787878788,-0.030999636363636365,0.02555221212121212,10.0,-35.0,-14.0,0.0656919696969697,0.10587175757575756,0.0,-13.831181575757576,0.134734,1459.909090909091,7603.69696969697,7313.0,7489.878787878788,7348.69696969697,7636.030303030303,7360.484848484848,7507.484848484848,7333.424242424242,1.0804491515151515,0.5916636060606061,-1.3365075454545454,0.32234481818181815,0.19567654545454546,0.4027056363636364,0.0025167878787878788,-0.030999636363636365,0.02555221212121212,0.044219,-0.018888,0.358938,0.036965,-0.0158,0.011297,-0.045750515151515125,-0.1370442727272727,-8.995975333333334,0.06367630303030303,-0.012517757575757573,0.004364969696969696,1.059321,0.578459,-1.380799,0.018925,6296.727272727273,50.60606060606061,77.6969696969697,-317.3333333333333,0.6365075454545455
0 days 00:02:22.289583,-2.8990208181818184,-0.3961115454545455,-0.6160364242424243,0.33928836363636367,0.1898490606060606,0.409986696969697,0.2552796363636363,-0.07599721212121213,0.2329297878787879,0.008494363636363637,-0.03312651515151515,0.02509912121212121,10.0,-35.0,-13.272727272727273,0.06506845454545454,0.11052142424242424,0.0,-14.53214990909091,0.06313290909090909,1475.5454545454545,7625.636363636364,7487.212121212121,7459.878787878788,7280.575757575758,7616.30303030303,7511.666666666667,7484.272727272727,7275.969696969697,1.1009791818181818,0.6038884545454545,-1.3160364242424243,0.33928836363636367,0.1898490606060606,0.409986696969697,0.008494363636363637,-0.03312651515151515,0.02509912121212121,0.04430654545454545,-0.018828272727272725,0.3589928181818182,0.03696581818181818,-0.01580081818181818,0.011297818181818181,0.0784801515151515,-0.1843038484848485,-9.221176606060606,0.1164550606060606,-0.02885290909090909,0.02089251515151515,1.086285,0.5958535454545455,-1.3551915454545456,0.021637272727272727,6314.606060606061,-51.81818181818182,183.63636363636363,-220.78787878787878,0.6160364242424243
0 days 00:02:22.354583,-2.8770975151515152,-0.38380763636363635,-0.5927432424242425,0.3580844545454545,0.18826860606060605,0.4141689393939394,0.0903898484848485,-0.04862336363636365,0.27749999999999997,0.00847060606060606,-0.03061675757575758,0.02548430303030303,10.0,-34.484848484848484,-12.484848484848484,0.06500906060606061,0.1158199090909091,0.0,-15.249263333333333,0.06154903030303031,1487.2727272727273,7592.484848484848,7415.606060606061,7530.545454545455,7337.272727272727,7655.727272727273,7432.363636363636,7526.30303030303,7349.121212121212,1.1229024848484848,0.6161923636363636,-1.2927432424242424,0.3580844545454545,0.18826860606060605,0.4141689393939394,0.00847060606060606,-0.03061675757575758,0.02548430303030303,0.04436963636363636,-0.018816636363636362,0.3590240909090909,0.03696572727272727,-0.015801545454545454,0.011298,-0.06318060606060606,-0.15364584848484847,-9.173117909090909,-0.03337336363636364,0.014973939393939395,0.01330930303030303,1.100998818181818,0.6055829090909091,-1.340645,0.02096990909090909,6341.151515151515,22.939393939393938,106.15151515151516,-282.75757575757575,0.5927432424242425
0 days 00:02:22.419583,-2.8541155588235294,-0.37122817647058826,-0.5713485588235294,0.37821288235294115,0.18100064705882354,0.40091647058823526,0.060093499999999994,-0.1781480588235294,-0.10712120588235292,0.004895794117647059,-0.029374970588235294,0.02515685294117647,10.0,-33.6764705882353,-11.676470588235293,0.07240741176470589,0.12323252941176473,0.0,-15.89274938235294,0.11104605882352941,1507.0,7626.176470588235,7476.35294117647,7536.970588235294,7363.205882352941,7661.029411764706,7492.558823529412,7527.176470588235,7369.85294117647,1.1458844411764706,0.6287718235294117,-1.2713485588235294,0.37821288235294115,0.18100064705882354,0.40091647058823526,0.004895794117647059,-0.029374970588235294,0.02515685294117647,0.044486,-0.018821,0.359075,0.036965,-0.015803,0.011298,-0.07660261764705886,-0.24126841176470587,-9.557645882352942,-0.03174541176470588,-0.00910502941176471,0.014016529411764705,1.124257,0.62122,-1.317029,0.017583,6371.941176470588,5.5588235294117645,128.02941176470588,-229.91176470588235,0.5713485588235294
0 days 00:02:22.484583,-2.831443757575758,-0.3586292121212121,-0.548860696969697,0.3615622727272727,0.18195036363636363,0.4390724848484849,-0.15169857575757575,0.019626454545454537,0.43431160606060615,0.0012457272727272727,-0.027011,0.025249151515151516,10.0,-32.878787878787875,-10.878787878787879,0.08421636363636363,0.13023300000000002,0.0,-16.409281363636364,0.15573036363636364,1532.1818181818182,7624.151515151515,7418.212121212121,7586.30303030303,7421.939393939394,7621.818181818182,7433.151515151515,7593.454545454545,7412.787878787879,1.1685562424242424,0.6413707878787879,-1.248860696969697,0.3615622727272727,0.18195036363636363,0.4390724848484849,0.0012457272727272727,-0.027011,0.025249151515151516,0.0447120606060606,-0.018855545454545455,0.35911863636363633,0.036964393939393936,-0.01580481818181818,0.011298606060606061,-0.2317412121212121,0.007516575757575755,-9.012695303030304,0.004498060606060604,0.017829606060606063,0.010032030303030303,1.1454115454545455,0.6350351515151516,-1.2950744545454544,0.01179209090909091,6375.727272727273,3.9393939393939394,24.424242424242426,-260.8181818181818,0.548860696969697
0 days 00:02:22.549583,-2.8091974545454548,-0.34626415151515155,-0.5234955151515153,0.3727683939393939,0.18112087878787878,0.44841757575757574,0.26429339393939394,-0.08316190909090908,0.199870393939394,-0.00046796969696969695,-0.026500484848484846,0.02519163636363636,10.0,-32.0,-9.787878787878787,0.08142854545454546,0.12459754545454545,0.0,-16.870517515151516,0.073282,1552.2424242424242,7659.787878787879,7425.272727272727,7550.424242424242,7396.575757575758,7654.575757575758,7449.969696969697,7545.969696969697,7383.030303030303,1.1908025454545454,0.6537358484848484,-1.2234955151515152,0.3727683939393939,0.18112087878787878,0.44841757575757574,-0.00046796969696969695,-0.026500484848484846,0.02519163636363636,0.04486951515151516,-0.018879848484848485,0.35914915151515153,0.03696393939393939,-0.015806060606060608,0.011299,0.17057290909090905,-0.08428027272727272,-9.254202242424242,0.02742512121212121,-0.023348727272727278,0.0050900909090909096,1.160240787878788,0.6447150909090908,-1.2796424242424242,0.008162575757575757,6365.909090909091,20.87878787878788,87.66666666666667,-259.3333333333333,0.5234955151515153
0 days 00:02:22.614583,-2.787032676470588,-0.3321787352941177,-0.5009193235294118,0.37407079411764704,0.1776980588235294,0.4673887352941176,-0.20974952941176467,-0.1852394705882353,0.33709844117647053,-0.0005649117647058824,-0.027197882352941176,0.02492691176470588,10.0,-31.941176470588236,-8.941176470588236,0.083357,0.129118,0.0,-17.361387529411765,0.094153,1568.8529411764705,7612.382352941177,7480.294117647059,7495.176470588235,7367.470588235294,7590.529411764706,7450.911764705882,7507.617647058823,7393.941176470588,1.2129673235294118,0.6678212647058823,-1.2009193235294118,0.37407079411764704,0.1776980588235294,0.4673887352941176,-0.0005649117647058824,-0.027197882352941176,0.02492691176470588,0.045206,-0.018939,0.359218,0.036962,-0.015808,0.011299,-0.2992877058823529,-0.18204267647058825,-9.108628294117647,0.0022189117647058824,0.01396626470588235,0.018454205882352942,1.194762,0.667118,-1.242472,0.012469,6334.0,12.911764705882353,69.79411764705883,-178.76470588235293,0.5009193235294118
0 days 00:02:22.679583,-2.7637255454545455,-0.3194751212121212,-0.4740561818181819,0.3737860303030303,0.17055966666666666,0.47680418181818185,-0.06808469696969696,-0.0803699393939394,0.27813333333333334,-0.00467,-0.02539348484848485,0.025220575757575758,10.0,-30.0,-7.0,0.092556,0.130816,0.0,-17.801507151515153,0.134223,1597.0,7588.666666666667,7532.424242424242,7638.666666666667,7404.333333333333,7635.666666666667,7558.515151515152,7648.060606060606,7426.636363636364,1.2362744545454547,0.6805248787878788,-1.1740561818181818,0.3737860303030303,0.17055966666666666,0.47680418181818185,-0.00467,-0.02539348484848485,0.025220575757575758,0.0454089696969697,-0.01896372727272727,0.3592561212121212,0.036960454545454546,-0.01580954545454545,0.01129951515151515,-0.14180860606060608,-0.040926848484848496,-9.171312696969697,-0.12321690909090909,-0.0008803939393939434,0.02032287878787879,1.2129643636363636,0.6779207272727272,-1.2232527272727272,0.008313272727272726,6449.0,-72.03030303030303,59.63636363636363,-210.8181818181818,0.4740561818181819
0 days 00:02:22.744583,-2.7406250303030304,-0.3074901818181818,-0.447169575757576,0.3833851818181818,0.15817466666666666,0.4741721515151515,0.18707718181818178,-0.3007964848484848,-0.11060966666666666,-0.018572060606060606,-0.024987939393939396,0.025316636363636364,10.0,-28.363636363636363,-6.181818181818182,0.092556,0.130816,0.0,-18.178348363636363,0.134223,1614.1818181818182,7737.0,7468.060606060606,7628.272727272727,7478.939393939394,7694.69696969697,7504.787878787879,7643.757575757576,7453.818181818182,1.2593749696969696,0.6925098181818182,-1.147169575757576,0.3833851818181818,0.15817466666666666,0.4741721515151515,-0.018572060606060606,-0.024987939393939396,0.025316636363636364,0.0456,-0.018987,0.359292,0.036959,-0.015811,0.0113,0.12662757575757572,-0.12461530303030303,-9.568004272727274,-0.11429481818181819,-0.00936609090909091,-0.004890393939393939,1.230096,0.688088,-1.205164,0.004402,6459.030303030303,0.06060606060606061,50.81818181818182,-268.09090909090907,0.447169575757576
0 days 00:02:22.809583,-2.717656212121212,-0.2949437272727272,-0.4243250606060607,0.40204236363636364,0.1470940909090909,0.46072745454545455,0.17169639393939393,-0.3102538181818182,-0.05956245454545452,-0.027601939393939394,-0.02443542424242424,0.025152242424242424,10.0,-27.09090909090909,-5.090909090909091,0.11219251515151515,0.1387628787878788,0.0,-18.51027109090909,0.20391615151515152,1661.6363636363637,7721.484848484848,7511.363636363636,7634.787878787879,7536.878787878788,7764.30303030303,7526.272727272727,7626.30303030303,7528.242424242424,1.282343787878788,0.7050562727272728,-1.1243250606060606,0.40204236363636364,0.1470940909090909,0.46072745454545455,-0.027601939393939394,-0.02443542424242424,0.025152242424242424,0.046063121212121215,-0.018936030303030305,0.35936054545454543,0.036956363636363634,-0.015812757575757574,0.011300878787878789,0.11632930303030302,-0.042258545454545444,-9.51698606060606,-0.09392024242424243,-0.029008363636363638,0.019198333333333335,1.262273696969697,0.7065126666666667,-1.169514212121212,-0.006066121212121212,6511.212121212121,69.75757575757575,67.93939393939394,-237.36363636363637,0.4243250606060607
0 days 00:02:22.874583,-2.6922037352941173,-0.2846262352941177,-0.3981055882352942,0.41239200000000004,0.12868408823529412,0.4348966470588235,-0.12672082352941177,-0.36743232352941174,-0.4655143529411765,-0.03109685294117647,-0.02444629411764706,0.025219117647058826,10.0,-26.58823529411765,-4.588235294117647,0.11664185294117647,0.1427274117647059,0.0,-18.872605823529412,0.18515382352941176,1679.1764705882354,7745.0,7537.941176470588,7643.970588235294,7504.470588235294,7750.882352941177,7494.794117647059,7603.411764705882,7512.235294117647,1.3077962647058825,0.7153737647058823,-1.0981055882352941,0.41239200000000004,0.12868408823529412,0.4348966470588235,-0.03109685294117647,-0.02444629411764706,0.025219117647058826,0.046275235294117645,-0.018895382352941175,0.35939011764705886,0.036955205882352946,-0.01581405882352941,0.011301264705882353,-0.1907743235294118,-0.0440315294117647,-9.919835617647058,-0.001170411764705879,-0.009169617647058823,0.019043029411764705,1.2766559411764706,0.7139682647058824,-1.1540082352941177,-0.00927320588235294,6481.676470588235,82.29411764705883,64.88235294117646,-245.11764705882354,0.3981055882352942
0 days 00:02:22.939583,-2.6679071515151516,-0.27424803030303024,-0.3764138181818182,0.4129781515151515,0.1112079090909091,0.42136454545454544,0.005667757575757575,-0.3400687575757576,0.31342293939393934,-0.025667030303030303,-0.022104727272727272,0.02504109090909091,10.0,-24.96969696969697,-3.484848484848485,0.11791993939393941,0.14806257575757575,0.0,-19.196184666666667,0.12316524242424243,1713.969696969697,7655.909090909091,7443.818181818182,7652.909090909091,7478.333333333333,7626.030303030303,7485.909090909091,7671.121212121212,7471.242424242424,1.3320928484848484,0.7257519696969698,-1.0764138181818181,0.4129781515151515,0.1112079090909091,0.42136454545454544,-0.025667030303030303,-0.022104727272727272,0.02504109090909091,0.046687,-0.018802,0.359446,0.036953,-0.015817,0.011302,-0.021543636363636365,-0.10478812121212121,-9.142666878787878,0.20499675757575758,0.013228,0.008078848484848486,1.304278,0.727619,-1.124595,-0.014171,6443.848484848485,-29.757575757575758,-15.212121212121213,-239.93939393939394,0.3764138181818182
0 days 00:02:23.004583,-2.643731909090909,-0.2651836060606061,-0.35443533333333344,0.42024730303030305,0.09774312121212121,0.419886,0.025337060606060616,-0.21944293939393938,-0.1686380606060606,-0.017240363636363637,-0.02228442424242424,0.025443939393939394,10.0,-23.393939393939394,-2.696969696969697,0.11936636363636365,0.1493902727272727,0.0,-19.45167687878788,0.1249629090909091,1741.7272727272727,7714.969696969697,7491.393939393939,7651.545454545455,7455.787878787879,7711.727272727273,7496.969696969697,7696.787878787879,7436.939393939394,1.356268090909091,0.7348163939393939,-1.0544353333333334,0.42024730303030305,0.09774312121212121,0.419886,-0.017240363636363637,-0.02228442424242424,0.025443939393939394,0.04700045454545455,-0.01868272727272727,0.35949545454545456,0.03695081818181818,-0.01581918181818182,0.011303454545454545,-0.0059185757575757735,-0.05838657575757577,-9.621685606060606,0.166711,-0.01819954545454545,0.011408,1.3311303636363636,0.7379709999999999,-1.097440090909091,-0.009940454545454546,6475.0,-22.575757575757574,37.333333333333336,-335.06060606060606,0.35443533333333344
0 days 00:02:23.069583,-2.617621909090909,-0.25802457575757576,-0.3305012424242424,0.43677363636363636,0.0861200303030303,0.40742260606060604,0.06276851515151517,-0.23903078787878787,0.13209630303030298,-0.012896606060606062,-0.022123969696969698,0.025399363636363637,10.0,-21.818181818181817,-2.0,0.12785012121212122,0.15139839393939392,0.0,-19.71422096969697,0.173776,1775.090909090909,7735.212121212121,7509.69696969697,7697.121212121212,7453.242424242424,7777.939393939394,7487.818181818182,7672.848484848485,7470.787878787879,1.3823780909090908,0.7419754242424242,-1.0305012424242423,0.43677363636363636,0.0861200303030303,0.40742260606060604,-0.012896606060606062,-0.022123969696969698,0.025399363636363637,0.047146545454545455,-0.01861954545454545,0.35951945454545453,0.03694963636363636,-0.015820454545454547,0.011304181818181817,0.03965430303030303,-0.1319838787878788,-9.322887121212121,0.013923303030303032,-0.038211666666666665,0.01868781818181818,1.3446916363636363,0.7430073636363637,-1.083639818181818,-0.008006181818181819,6498.575757575758,43.96969696969697,61.03030303030303,-347.45454545454544,0.3305012424242424
0 days 00:02:23.134583,-2.5930754117647057,-0.2497843823529412,-0.30995008823529435,0.4485678529411765,0.07552164705882353,0.397963294117647,0.2943692647058823,-0.18901076470588235,-0.29854726470588233,-0.009228882352941177,-0.019654029411764706,0.02490914705882353,10.0,-20.0,-2.0,0.132192,0.158457,0.0,-19.88773273529412,0.146744,1816.0,7736.117647058823,7421.764705882353,7734.029411764706,7523.0,7668.735294117647,7451.058823529412,7754.794117647059,7516.058823529412,1.406924588235294,0.7502156176470588,-1.0099500882352943,0.4485678529411765,0.07552164705882353,0.397963294117647,-0.009228882352941177,-0.019654029411764706,0.02490914705882353,0.047432,-0.018435,0.359574,0.036946,-0.015825,0.011306,0.3027056764705882,-0.10584220588235294,-9.75264244117647,0.18434770588235294,0.020256588235294117,0.003812882352941176,1.379608,0.754551,-1.047468,-0.004528,6492.0,-10.529411764705882,-75.5,-322.1764705882353,0.30995008823529435
0 days 00:02:23.199583,-2.5661443030303026,-0.2435821212121212,-0.28678084848484864,0.45836154545454544,0.07515436363636364,0.394510696969697,0.021113969696969714,0.028221030303030303,-0.0317491818181818,-0.002501121212121212,-0.0221329696969697,0.025320151515151514,10.0,-19.09090909090909,-1.0909090909090908,0.14458730303030304,0.16850418181818183,0.0,-20.04217809090909,0.18454769696969694,1870.5454545454545,7727.878787878788,7524.181818181818,7704.454545454545,7396.060606060606,7713.272727272727,7480.333333333333,7728.878787878788,7388.484848484848,1.4338556969696972,0.7564178787878788,-0.9867808484848486,0.45836154545454544,0.07515436363636364,0.394510696969697,-0.002501121212121212,-0.0221329696969697,0.025320151515151514,0.047497000000000004,-0.01832,0.35959854545454545,0.03694463636363636,-0.01582772727272727,0.011307363636363636,0.009321757575757568,0.03574815151515154,-9.482688212121213,0.054635636363636365,-0.040630848484848485,0.024613757575757577,1.3971393636363636,0.759271,-1.0296675454545456,-0.00013072727272727248,6463.878787878788,-53.60606060606061,38.0,-404.6969696969697,0.28678084848484864
0 days 00:02:23.264583,-2.540128393939394,-0.23709581818181824,-0.2646364242424243,0.4590033333333333,0.07183463636363636,0.3960658787878788,-0.040269212121212115,-0.2150499090909091,0.13599690909090908,-0.00675769696969697,-0.02093269696969697,0.025340969696969695,10.0,-18.0,0.0,0.12470184848484847,0.17082187878787877,0.0,-20.230330757575757,0.0006769090909090909,1875.0,7705.878787878788,7424.30303030303,7807.727272727273,7416.454545454545,7753.424242424242,7436.666666666667,7788.181818181818,7417.818181818182,1.459871606060606,0.7629041818181818,-0.9646364242424242,0.4590033333333333,0.07183463636363636,0.3960658787878788,-0.00675769696969697,-0.02093269696969697,0.025340969696969695,0.047575,-0.018182,0.359628,0.036943,-0.015831,0.011309,-0.04255448484848484,-0.17018809090909093,-9.313890818181818,-0.12025036363636364,-0.0185769696969697,0.008197181818181819,1.418177,0.764935,-1.008307,0.005146,6493.939393939394,-26.848484848484848,-7.9393939393939394,-485.030303030303,0.2646364242424243
0 days 00:02:23.329583,-2.5169210294117645,-0.23040664705882352,-0.2432583529411766,0.44699367647058824,0.05820205882352941,0.4023136176470588,-0.3764499117647059,-0.3093364117647059,0.19032291176470587,-0.01850364705882353,-0.0202795,0.02451035294117647,10.0,-16.5,0.0,0.1265084117647059,0.168723,0.0,-20.391055264705884,0.06812894117647059,1894.5,7819.058823529412,7389.411764705882,7738.176470588235,7524.205882352941,7836.029411764706,7373.882352941177,7726.794117647059,7594.382352941177,1.4830789705882352,0.7695933529411765,-0.9432583529411765,0.44699367647058824,0.05820205882352941,0.4023136176470588,-0.01850364705882353,-0.0202795,0.02451035294117647,0.04760417647058823,-0.01796408823529412,0.35967176470588236,0.03694026470588235,-0.015837382352941177,0.01131264705882353,-0.3758329705882352,-0.14944276470588236,-9.261575147058823,-0.12125173529411765,0.004258058823529413,0.0075180294117647055,1.4515457647058823,0.7732594117647059,-0.9751415588235295,-0.0109895,6541.588235294118,164.6764705882353,-55.5,-419.6764705882353,0.2432583529411766
0 days 00:02:23.394583,-2.4906621818181818,-0.22610521212121215,-0.21888993939393953,0.4474922424242424,0.0413170303030303,0.3958393333333333,0.37587584848484845,-0.2543294545454546,-0.5589807575757576,-0.015310545454545455,-0.020024454545454547,0.02414187878787879,10.0,-13.787878787878787,0.6060606060606061,0.13037436363636365,0.16920893939393938,0.0,-20.589061787878787,0.14192921212121212,1946.7272727272727,7813.515151515152,7510.212121212121,7774.363636363636,7537.363636363636,7732.545454545455,7595.969696969697,7795.69696969697,7444.424242424242,1.5093378181818182,0.7738947878787878,-0.9188899393939395,0.4474922424242424,0.0413170303030303,0.3958393333333333,-0.015310545454545455,-0.020024454545454547,0.02414187878787879,0.04759154545454545,-0.017856030303030304,0.3596893333333333,0.03693909090909091,-0.015840121212121215,0.01131421212121212,0.3443122727272727,-0.11635884848484848,-10.015654575757575,0.243423,-0.03515624242424242,0.012192242424242425,1.4664240909090909,0.7766334848484848,-0.9599998787878788,-0.010250090909090908,6554.848484848485,-107.0909090909091,44.121212121212125,-344.42424242424244,0.21888993939393953
0 days 00:02:23.459583,-2.466879454545454,-0.22187203030303038,-0.1977960606060606,0.46109745454545453,0.028847333333333332,0.3617087272727273,0.23307584848484847,-0.21539096969696966,-0.31652290909090913,-0.011558909090909092,-0.018729393939393938,0.024759606060606062,10.0,-12.303030303030303,1.0,0.1451406666666667,0.17503100000000002,0.0,-20.8076813030303,0.224152,2006.3333333333333,7819.393939393939,7420.69696969697,7745.393939393939,7532.484848484848,7859.30303030303,7362.393939393939,7753.151515151515,7523.333333333333,1.5331205454545456,0.7781279696969696,-0.8977960606060605,0.46109745454545453,0.028847333333333332,0.3617087272727273,-0.011558909090909092,-0.018729393939393938,0.024759606060606062,0.047556,-0.017656,0.35972,0.036937,-0.015845,0.011317,0.2279534242424242,-0.11514563636363637,-9.770862909090908,0.05124736363636363,0.0034475454545454557,0.006673121212121212,1.493217,0.782541,-0.932556,-0.004958,6530.0,133.42424242424244,-27.363636363636363,-513.0909090909091,0.1977960606060606
