time,pos_x,pos_y,pos_z,vel_x,vel_y,vel_z,acc_x,acc_y,acc_z,att_phi,att_theta,att_psi,distance_est,centroid_x,centroid_y,divergence,true_divergence,divergence_sp,pitch_sum,raw_divergence,color_count,rpm_obs_1,rpm_obs_2,rpm_obs_3,rpm_obs_4,rpm_ref_1,rpm_ref_2,rpm_ref_3,rpm_ref_4,ekf_X1,ekf_X2,ekf_X3,ekf_X4,ekf_X5,ekf_X6,ekf_X7,ekf_X8,ekf_X9,ekf_X10,ekf_X11,ekf_X12,ekf_X13,ekf_X14,ekf_X15,ekf_U1,ekf_U2,ekf_U3,ekf_U4,ekf_U5,ekf_U6,ekf_Z1,ekf_Z2,ekf_Z3,ekf_Z4,cmd_thrust,cmd_roll,cmd_pitch,cmd_yaw,pos_z_inverted
0 days 00:00:55.384583,-7.087079090909091,0.9926943030303028,-1.2658639393939393,-0.49588636363636357,0.3247580909090909,-0.013709454545454546,0.3441486969696969,-0.6728992424242424,0.4651868181818181,-0.04041787878787879,-0.04583748484848485,0.1442038484848485,10.0,-25.0,67.0,0.0,0.0,0.0,0.0,0.0,281.8787878787879,7981.0,7738.606060606061,7493.909090909091,7344.272727272727,7992.969696969697,7763.969696969697,7505.272727272727,7316.393939393939,-3.087079090909091,1.9926943030303028,-1.9658639393939392,-0.49588636363636357,0.3247580909090909,-0.013709454545454546,-0.04041787878787879,-0.04583748484848485,0.1442038484848485,0.06955269696969697,0.08126633333333333,0.3761650606060606,0.03661375757575758,-0.01621612121212121,0.010986636363636363,-0.11632927272727277,-0.12408263636363635,-8.995916242424242,0.06796730303030303,-0.023622393939393936,0.009358575757575758,-3.0649021515151516,1.979339303030303,-1.963666,0.013240454545454547,6558.30303030303,20.0,466.8787878787879,-294.969696969697,1.2658639393939393
0 days 00:00:55.449583,-7.119761454545454,1.0143640303030304,-1.2655908787878787,-0.47291163636363637,0.2935777272727273,0.009453909090909091,0.6263284242424242,-0.6568159090909091,-0.02670733333333334,-0.03907678787878788,-0.045037606060606056,0.14473718181818182,10.0,-25.060606060606062,67.12121212121212,0.0,0.0,0.0,0.0,0.0,281.6969696969697,7953.848484848485,7700.181818181818,7573.121212121212,7387.272727272727,7980.393939393939,7700.424242424242,7587.333333333333,7365.0,-3.1197614545454546,2.0143640303030304,-1.9655908787878786,-0.47291163636363637,0.2935777272727273,0.009453909090909091,-0.03907678787878788,-0.045037606060606056,0.14473718181818182,0.07003,0.081412,0.376157,0.036608,-0.016219,0.010978,0.15497751515151514,-0.12147848484848484,-9.501065424242425,0.05429542424242424,-0.03493436363636363,0.01851027272727273,-3.096555,2.002555,-1.964445,0.009209,6577.545454545455,28.818181818181817,363.72727272727275,-354.54545454545456,1.2655908787878787
0 days 00:00:55.514583,-7.149555272727273,1.035134363636364,-1.26520596969697,-0.43381484848484847,0.2599425454545454,0.0011441515151515151,0.5713745757575758,-0.717077,-0.007552484848484839,-0.03842506060606061,-0.04756963636363636,0.14530921212121212,10.0,-26.0,69.0,0.0,0.0,0.0,0.0,0.0,277.0,8023.181818181818,7679.242424242424,7563.0,7328.545454545455,8016.878787878788,7691.030303030303,7568.69696969697,7339.515151515152,-3.1495552727272726,2.035134363636364,-1.96520596969697,-0.43381484848484847,0.2599425454545454,0.0011441515151515151,-0.03842506060606061,-0.04756963636363636,0.14530921212121212,0.07060648484848485,0.08215018181818183,0.37616051515151516,0.03660009090909091,-0.016219878787878787,0.0109560303030303,0.062944,-0.18927548484848483,-9.481918696969698,0.04381954545454546,-0.037168545454545454,0.0058815151515151515,-3.135778818181818,2.0322114545454544,-1.9647270909090908,0.017104030303030305,6571.515151515152,48.15151515151515,399.3333333333333,-392.0,1.26520596969697
0 days 00:00:55.579583,-7.176474117647059,1.052573382352941,-1.2649511764705883,-0.39892579411764706,0.23399067647058822,0.01016629411764706,0.5849289117647059,-0.5759925294117646,0.08336552941176467,-0.035755999999999996,-0.04904079411764706,0.14564726470588235,10.0,-25.147058823529413,69.0,0.0,0.0,0.0,0.0,0.0,279.55882352941177,7983.5,7712.088235294118,7607.823529411765,7302.558823529412,8031.117647058823,7696.735294117647,7595.764705882353,7310.529411764706,-3.1764741176470586,2.052573382352941,-1.9649511764705883,-0.39892579411764706,0.23399067647058822,0.01016629411764706,-0.035755999999999996,-0.04904079411764706,0.14564726470588235,0.07077838235294118,0.08265647058823529,0.37616867647058827,0.036596882352941174,-0.01621841176470588,0.010943735294117646,0.08915444117647059,-0.08567897058823529,-9.385110264705883,0.036391382352941176,-0.032592764705882356,0.01563214705882353,-3.151007205882353,2.0442148529411766,-1.9650775588235292,0.01855564705882353,6577.970588235294,24.529411764705884,410.2647058823529,-437.47058823529414,1.2649511764705883
0 days 00:00:55.644583,-7.200238696969697,1.069732575757576,-1.2647276363636364,-0.37374839393939396,0.2108540909090909,0.005835818181818182,-0.04224784848484855,-0.5451062121212121,0.28395575757575753,-0.035358909090909094,-0.04871469696969697,0.14612403030303028,10.0,-24.333333333333332,69.66666666666667,0.0,0.0,0.0,0.0,0.0,274.6666666666667,8009.727272727273,7651.484848484848,7643.878787878788,7320.424242424242,7984.0,7683.242424242424,7642.484848484848,7326.30303030303,-3.200238696969697,2.069732575757576,-1.9647276363636363,-0.37374839393939396,0.2108540909090909,0.005835818181818182,-0.035358909090909094,-0.04871469696969697,0.14612403030303028,0.071035,0.08378,0.37619,0.036591,-0.016214,0.010918,-0.5099135151515152,0.013227878787878788,-9.14861503030303,0.05954809090909091,-0.011356303030303038,-0.0005771212121212118,-3.17828,2.066195,-1.965943,0.019563,6578.575757575758,-7.545454545454546,348.6363636363636,-435.4848484848485,1.2647276363636364
0 days 00:00:55.709583,-7.221210515151515,1.085216939393939,-1.264196878787879,-0.3542380303030303,0.19290890909090908,0.028757636363636364,0.6272899393939394,-0.4623562727272727,0.1553009393939394,-0.03338021212121212,-0.05015318181818182,0.14698566666666665,10.0,-24.151515151515152,69.54545454545455,0.0,0.0,0.0,0.0,0.0,273.8181818181818,7948.484848484848,7736.333333333333,7645.575757575758,7328.484848484848,7954.575757575758,7739.515151515152,7644.060606060606,7337.545454545455,-3.2212105151515154,2.085216939393939,-1.964196878787879,-0.3542380303030303,0.19290890909090908,0.028757636363636364,-0.03338021212121212,-0.05015318181818182,0.14698566666666665,0.07108845454545454,0.08534354545454545,0.37623009090909093,0.036585909090909086,-0.01620572727272727,0.01088809090909091,0.14814163636363634,-0.023733363636363625,-9.308771393939395,0.04133372727272727,-0.027454848484848485,0.017334060606060606,-3.1969413636363635,2.0834245454545455,-1.9670769999999997,0.025788545454545456,6592.575757575758,-45.72727272727273,355.6969696969697,-368.2121212121212,1.264196878787879
0 days 00:00:55.774583,-7.240350969696969,1.0986663939393937,-1.2626967272727272,-0.30349133333333334,0.16619133333333336,0.03334806060606061,0.8361245151515152,-0.6427864242424243,0.19250557575757576,-0.03613184848484848,-0.05003578787878788,0.14817069696969698,10.0,-25.0,67.0,0.0,0.0,0.0,0.0,0.0,284.0,7978.636363636364,7649.212121212121,7653.242424242424,7396.393939393939,7998.515151515152,7670.787878787879,7645.787878787879,7371.030303030303,-3.2403509696969697,2.0986663939393937,-1.9626967272727271,-0.30349133333333334,0.16619133333333336,0.03334806060606061,-0.03613184848484848,-0.05003578787878788,0.14817069696969698,0.07106990909090909,0.08656236363636363,0.37626427272727275,0.03658254545454545,-0.016199181818181817,0.010866818181818182,0.3406427575757576,-0.21824693939393938,-9.290897303030302,0.008559757575757575,-0.02027854545454545,0.011556,-3.209354272727273,2.0950321818181816,-1.968064,0.027427545454545454,6596.272727272727,26.484848484848484,325.72727272727275,-425.27272727272725,1.2626967272727272
0 days 00:00:55.839583,-7.2517840882352935,1.1115939411764706,-1.2622648529411766,-0.24173470588235293,0.14056973529411765,0.03863555882352941,0.7062661470588235,-0.4911409411764706,-0.06864405882352939,-0.03415929411764706,-0.04912564705882353,0.14941841176470588,10.0,-25.0,67.94117647058823,0.0,0.0,0.0,0.0,0.0,275.52941176470586,7956.970588235294,7726.676470588235,7648.14705882353,7355.617647058823,7954.411764705882,7715.529411764706,7648.0,7376.382352941177,-3.251784088235294,2.1115939411764706,-1.9622648529411766,-0.24173470588235293,0.14056973529411765,0.03863555882352941,-0.03415929411764706,-0.04912564705882353,0.14941841176470588,0.070579,0.089816,0.376377,0.036578,-0.016181,0.010825,0.22966455882352949,-0.05109717647058822,-9.539493323529413,0.05244720588235294,0.05095358823529411,0.02090270588235294,-3.226847,2.112654,-1.971454,0.008243,6599.117647058823,-16.294117647058822,322.29411764705884,-360.38235294117646,1.2622648529411766
0 days 00:00:55.904583,-7.262977393939394,1.121072696969697,-1.2612025454545455,-0.17999730303030304,0.11689066666666667,0.023886969696969698,1.0230775454545453,-0.5006382727272728,-0.4033674242424243,-0.03263427272727273,-0.04456015151515152,0.15012387878787878,10.0,-25.0,69.51515151515152,0.0,0.0,0.0,0.0,0.0,265.90909090909093,8017.424242424242,7705.424242424242,7607.484848484848,7337.636363636364,7972.636363636364,7721.212121212121,7641.757575757576,7335.060606060606,-3.262977393939394,2.121072696969697,-1.9612025454545454,-0.17999730303030304,0.11689066666666667,0.023886969696969698,-0.03263427272727273,-0.04456015151515152,0.15012387878787878,0.07032433333333334,0.091407,0.37643566666666667,0.036576333333333336,-0.01617266666666667,0.01081,0.5588601212121213,-0.10289427272727272,-9.887813636363635,0.10509148484848485,0.10844284848484848,0.008692818181818182,-3.231418333333333,2.1187373333333337,-1.9724503333333334,0.011955666666666667,6590.787878787879,-27.606060606060606,358.030303030303,-393.8484848484849,1.2612025454545455
0 days 00:00:55.969583,-7.2666070000000005,1.1301921212121213,-1.262911181818182,-0.12308912121212122,0.0966669696969697,-0.0040989090909090906,0.35272809090909096,-0.48829178787878785,-0.07290909090909092,-0.02867512121212121,-0.03339936363636364,0.15119281818181818,10.0,-25.242424242424242,69.75757575757575,0.0,0.0,0.0,0.0,0.0,267.3636363636364,7912.393939393939,7633.151515151515,7684.0,7409.060606060606,7933.727272727273,7600.606060606061,7685.454545454545,7402.939393939394,-3.266607,2.1301921212121213,-1.962911181818182,-0.12308912121212122,0.0966669696969697,-0.0040989090909090906,-0.02867512121212121,-0.03339936363636364,0.15119281818181818,0.069815,0.094589,0.376553,0.036573,-0.016156,0.01078,0.007812515151515168,-0.017430121212121227,-9.527403,0.06841860606060605,0.17846675757575756,0.024310454545454545,-3.240561,2.130904,-1.9744429999999997,0.019381,6573.909090909091,25.272727272727273,222.6060606060606,-434.5151515151515,1.262911181818182
0 days 00:00:56.034583,-7.266812147058824,1.1391886470588237,-1.2667687941176469,-0.09761917647058824,0.08142117647058823,-0.01341520588235294,0.263617794117647,-0.4881518529411765,-0.027736970588235283,-0.023784029411764704,-0.02526564705882353,0.15194211764705884,10.0,-26.176470588235293,68.94117647058823,0.0,0.0,0.0,0.0,0.0,280.5882352941176,7960.529411764706,7657.411764705882,7664.558823529412,7320.294117647059,7980.823529411765,7650.176470588235,7623.0,7343.176470588235,-3.2668121470588236,2.1391886470588237,-1.9667687941176468,-0.09761917647058824,0.08142117647058823,-0.01341520588235294,-0.023784029411764704,-0.02526564705882353,0.15194211764705884,0.06940558823529411,0.09859841176470589,0.37671017647058824,0.03656735294117647,-0.016136235294117646,0.010746117647058824,-0.033317911764705936,-0.006318911764705872,-9.476533764705882,0.06397914705882352,0.09135164705882352,0.014411558823529413,-3.246139352941176,2.1434310588235292,-1.9783291176470588,0.007941,6564.882352941177,25.38235294117647,331.7647058823529,-430.79411764705884,1.2667687941176469
0 days 00:00:56.099583,-7.2691356060606065,1.1452837272727274,-1.269026303030303,-0.07478012121212121,0.06237036363636364,-0.013587848484848484,0.3948167575757575,-0.552454606060606,-0.4511048484848485,-0.019045,-0.01577072727272727,0.1521058787878788,10.0,-29.0,68.0,0.0,0.0,0.0,0.0,0.0,274.0,7851.454545454545,7584.181818181818,7770.787878787879,7390.060606060606,7845.151515151515,7610.939393939394,7748.030303030303,7380.454545454545,-3.269135606060606,2.1452837272727274,-1.969026303030303,-0.07478012121212121,0.06237036363636364,-0.013587848484848484,-0.019045,-0.01577072727272727,0.1521058787878788,0.06936581818181818,0.10033336363636364,0.3767826363636364,0.03656542424242424,-0.016126333333333333,0.010732969696969697,0.19549006060606058,-0.15118969696969697,-9.90385306060606,0.1086350909090909,0.10811733333333333,0.008840909090909092,-3.2468740606060607,2.1481340909090907,-1.9802391515151516,0.0037376666666666665,6560.393939393939,-66.66666666666667,163.63636363636363,-424.8181818181818,1.269026303030303
0 days 00:00:56.164583,-7.268338121212121,1.150545090909091,-1.2729075151515152,-0.048626909090909096,0.04210178787878788,-0.0403809696969697,0.1757403333333333,-0.48355133333333333,0.06830651515151515,-0.017573151515151517,-0.01286960606060606,0.1528652727272727,10.0,-29.848484848484848,70.54545454545455,0.0,0.0,0.0,0.0,0.0,261.27272727272725,7946.242424242424,7573.090909090909,7654.545454545455,7348.424242424242,7900.393939393939,7600.727272727273,7689.090909090909,7333.454545454545,-3.268338121212121,2.150545090909091,-1.9729075151515152,-0.048626909090909096,0.04210178787878788,-0.0403809696969697,-0.017573151515151517,-0.01286960606060606,0.1528652727272727,0.069344,0.102617,0.376879,0.036563,-0.016113,0.010716,0.025005909090909086,-0.06368375757575757,-9.377160303030303,0.11260803030303031,0.03809339393939394,0.00043645454545454554,-3.247468,2.154165,-1.9828039999999998,-0.001629,6538.939393939394,-27.87878787878788,239.03030303030303,-462.6363636363636,1.2729075151515152
0 days 00:00:56.229583,-7.2649515454545455,1.1548223030303033,-1.2778545757575757,-0.030527727272727272,0.031242151515151514,-0.05352330303030303,0.1700021515151515,-0.3386593636363636,-0.22892669696969697,-0.01472990909090909,-0.009632121212121213,0.15365875757575756,10.0,-30.060606060606062,70.96969696969697,0.0,0.0,0.0,0.0,0.0,259.1212121212121,7869.181818181818,7544.575757575758,7687.242424242424,7381.575757575758,7913.666666666667,7536.30303030303,7682.181818181818,7358.484848484848,-3.2649515454545455,2.1548223030303033,-1.9778545757575756,-0.030527727272727272,0.031242151515151514,-0.05352330303030303,-0.01472990909090909,-0.009632121212121213,0.15365875757575756,0.06968727272727272,0.10492754545454545,0.3769786363636364,0.03656009090909091,-0.016095545454545453,0.010699272727272727,0.07590551515151515,0.0499230303030303,-9.671490303030303,0.03565187878787879,0.026500272727272726,0.020426484848484847,-3.244825090909091,2.1590842727272728,-1.986313818181818,-0.003636272727272727,6527.272727272727,26.666666666666668,204.24242424242425,-494.75757575757575,1.2778545757575757
0 days 00:00:56.294583,-7.262340147058824,1.157642705882353,-1.2829714117647062,-0.014780058823529412,0.013985941176470588,-0.06522414705882353,0.16907555882352937,-0.5180368529411765,-0.08579532352941183,-0.012054941176470588,-0.007566382352941177,0.1534665882352941,10.0,-32.294117647058826,69.8529411764706,0.0,0.0,0.0,0.0,0.0,263.5882352941176,7827.64705882353,7576.705882352941,7707.529411764706,7346.882352941177,7838.764705882353,7587.176470588235,7661.0,7370.558823529412,-3.262340147058824,2.157642705882353,-1.9829714117647061,-0.014780058823529412,0.013985941176470588,-0.06522414705882353,-0.012054941176470588,-0.007566382352941177,0.1534665882352941,0.07003176470588236,0.10636717647058823,0.3770409411764706,0.03655829411764706,-0.016083588235294117,0.010689470588235293,0.0639935882352941,-0.17615461764705884,-9.531278676470588,0.031221323529411767,0.01344929411764706,0.014275088235294118,-3.2425250588235293,2.161686411764706,-1.988915411764706,-0.0038838235294117647,6515.558823529412,-19.38235294117647,196.85294117647058,-382.52941176470586,1.2829714117647062
0 days 00:00:56.359583,-7.256123181818182,1.1596502727272728,-1.289495,0.016253545454545455,-0.0008403636363636364,-0.0845939696969697,0.25483757575757576,-0.31194260606060603,-0.14971299999999998,-0.010928,-0.005797454545454546,0.15416912121212123,10.0,-34.0,69.0,0.0,0.0,0.0,0.0,0.0,267.0,7849.090909090909,7580.818181818182,7638.515151515152,7333.060606060606,7818.272727272727,7595.333333333333,7661.69696969697,7335.030303030303,-3.256123181818182,2.159650272727273,-1.989495,0.016253545454545455,-0.0008403636363636364,-0.0845939696969697,-0.010928,-0.005797454545454546,0.15416912121212123,0.070733,0.10823,0.377122,0.036556,-0.016066,0.010678,0.19105109090909086,0.03444599999999999,-9.591678484848485,0.09240354545454545,0.03592566666666667,0.009521575757575756,-3.238271,2.164148,-1.993093,-0.002242,6498.878787878788,-51.81818181818182,208.1818181818182,-388.030303030303,1.289495
0 days 00:00:56.424583,-7.249118575757576,1.1606115454545454,-1.2955407575757576,0.033232787878787876,-0.0077026666666666676,-0.08828118181818183,0.2765741212121212,-0.2834689393939394,0.03240057575757572,-0.009564393939393939,-0.0030121818181818184,0.1549579090909091,10.0,-34.0,69.93939393939394,0.0,0.0,0.0,0.0,0.0,267.93939393939394,7852.606060606061,7538.818181818182,7645.181818181818,7346.424242424242,7868.151515151515,7578.909090909091,7655.848484848485,7288.0,-3.2491185757575756,2.1606115454545454,-1.9955407575757576,0.033232787878787876,-0.0077026666666666676,-0.08828118181818183,-0.009564393939393939,-0.0030121818181818184,0.1549579090909091,0.07167739393939394,0.10921133333333333,0.3771617272727273,0.03655530303030303,-0.016049969696969698,0.010671727272727274,0.25870033333333337,0.025360969696969694,-9.40719693939394,0.07787351515151515,0.01277669696969697,0.008071424242424243,-3.23175503030303,2.1649028181818184,-1.9962572424242426,-0.0017583030303030302,6492.090909090909,-39.24242424242424,251.24242424242425,-463.90909090909093,1.2955407575757576
0 days 00:00:56.489583,-7.243785294117647,1.1603790588235294,-1.3013575294117647,0.04171523529411764,-0.018992235294117647,-0.07377929411764705,-0.1365487058823529,-0.29369232352941177,0.42516082352941176,-0.008930147058823529,-0.0003141176470588235,0.15483170588235295,10.0,-34.44117647058823,69.55882352941177,0.0,0.0,0.0,0.0,0.0,262.2647058823529,7867.235294117647,7549.235294117647,7624.588235294118,7339.529411764706,7802.029411764706,7506.411764705882,7703.323529411765,7395.382352941177,-3.243785294117647,2.1603790588235294,-2.0013575294117647,0.04171523529411764,-0.018992235294117647,-0.07377929411764705,-0.008930147058823529,-0.0003141176470588235,0.15483170588235295,0.0721334705882353,0.10964823529411764,0.37717929411764706,0.036555,-0.016042352941176473,0.010668882352941177,-0.07749311764705882,0.042738970588235295,-9.014418676470587,0.046343647058823524,0.10085161764705881,0.010275411764705882,-3.228599470588235,2.165174264705882,-1.9977715588235294,-0.0017,6497.794117647059,-6.205882352941177,104.73529411764706,-426.0882352941176,1.3013575294117647
0 days 00:00:56.554583,-7.23304696875,1.1599964687500002,-1.3052134375000002,0.0639385,-0.02755828125,-0.065405375,0.22888734375,-0.44484115625,-0.29595462499999997,-0.00711671875,0.00244775,0.1549826875,10.0,-35.4375,68.5625,0.0,0.0,0.0,0.0,0.0,259.15625,7757.75,7539.5,7730.53125,7393.71875,7850.0,7540.03125,7651.3125,7377.28125,-3.23304696875,2.15999646875,-2.0052134375,0.0639385,-0.02755828125,-0.065405375,-0.00711671875,0.00244775,0.1549826875,0.073634,0.109986,0.377189,0.036555,-0.016021,0.010665,0.3214722499999999,-0.15838621875,-9.73675540625,-0.014862062499999999,-0.04663084375000001,0.029800437500000002,-3.217956,2.163302,-2.002344,-0.006716,6501.90625,17.96875,180.4375,-412.3125,1.3052134375000002
0 days 00:00:56.619583,-7.224987558823529,1.157785176470588,-1.3094776176470588,0.07346332352941176,-0.04784823529411765,-0.07709694117647059,-0.1826198823529412,-0.3560766470588236,-0.07805052941176471,-0.0060246470588235295,0.0009632058823529412,0.15495726470588234,10.0,-37.05882352941177,67.02941176470588,0.0,0.0,0.0,0.0,0.0,273.88235294117646,7861.411764705882,7544.676470588235,7675.35294117647,7296.029411764706,7841.970588235294,7560.794117647059,7672.5,7311.911764705882,-3.2249875588235293,2.157785176470588,-2.009477617647059,0.07346332352941176,-0.04784823529411765,-0.07709694117647059,-0.0060246470588235295,0.0009632058823529412,0.15495726470588234,0.07435611764705882,0.10990023529411765,0.37718423529411765,0.03655605882352941,-0.016010411764705884,0.010665,-0.10409008823529411,-0.014476088235294116,-9.517377058823529,0.0697955,-0.016615911764705883,0.0037698823529411767,-3.2118185294117647,2.161031352941176,-2.004729,-0.00880505882352941,6490.705882352941,-39.6764705882353,208.91176470588235,-452.94117647058823,1.3094776176470588
0 days 00:00:56.684583,-7.2169917272727275,1.1544696363636362,-1.3140749696969698,0.06568236363636364,-0.05914581818181818,-0.06586884848484847,-0.385771303030303,-0.28230860606060604,0.8862112424242424,-0.0039023636363636365,0.0015373333333333333,0.15504878787878787,10.0,-39.0,68.0,0.0,0.0,0.0,0.0,0.0,270.0,7839.454545454545,7531.242424242424,7675.424242424242,7310.333333333333,7827.939393939394,7545.939393939394,7720.363636363636,7296.484848484848,-3.216991727272727,2.154469636363636,-2.0140749696969698,0.06568236363636364,-0.05914581818181818,-0.06586884848484847,-0.0039023636363636365,0.0015373333333333333,0.15504878787878787,0.074998,0.109824,0.37718,0.036557,-0.016001,0.010665,-0.29252472727272727,0.04027578787878788,-8.552734212121212,0.11046245454545453,0.007649727272727273,0.005504212121212121,-3.206363,2.159013,-2.006849,-0.010662,6492.0,-70.93939393939394,178.27272727272728,-498.27272727272725,1.3140749696969698
0 days 00:00:56.749583,-7.2065416764705885,1.1503857941176472,-1.3159741176470587,0.06597555882352941,-0.07019173529411764,-0.037036970588235296,0.040610117647058824,-0.2990108823529412,-0.32850223529411765,-0.0022521470588235293,0.0027309411764705883,0.15502855882352942,10.0,-39.0,67.47058823529412,0.0,0.0,0.0,0.0,0.0,268.4117647058824,7838.735294117647,7484.64705882353,7735.205882352941,7373.705882352941,7847.676470588235,7487.764705882353,7755.85294117647,7353.5,-3.2065416764705885,2.150385794117647,-2.0159741176470587,0.06597555882352941,-0.07019173529411764,-0.037036970588235296,-0.0022521470588235293,0.0027309411764705883,0.15502855882352942,0.07599729411764705,0.10930155882352942,0.37715173529411766,0.03655882352941177,-0.015982764705882353,0.010666823529411765,0.1605870294117647,-0.042509147058823527,-9.764562294117647,0.07872820588235294,0.002527529411764707,0.006993941176470589,-3.1935682058823534,2.153194117647059,-2.010395764705882,-0.010143205882352941,6511.088235294118,-21.264705882352942,112.82352941176471,-538.0,1.3159741176470587
0 days 00:00:56.814583,-7.199706484848485,1.1454985454545454,-1.3178244848484846,0.058427575757575755,-0.0807779696969697,-0.030291727272727276,-0.3099286363636364,-0.3061088484848485,0.19005127272727274,4.896969696969697e-05,0.0009394545454545454,0.15482296969696968,10.0,-40.0,64.33333333333333,0.0,0.0,0.0,0.0,0.0,268.0,7859.30303030303,7520.090909090909,7714.363636363636,7336.939393939394,7876.69696969697,7535.424242424242,7706.181818181818,7334.090909090909,-3.199706484848485,2.1454985454545454,-2.0178244848484845,0.058427575757575755,-0.0807779696969697,-0.030291727272727276,4.896969696969697e-05,0.0009394545454545454,0.15482296969696968,0.07634975757575757,0.10912463636363637,0.37714203030303034,0.036559909090909094,-0.015974939393939395,0.010668212121212122,-0.20738636363636365,-0.024532515151515152,-9.246656000000002,0.06636918181818183,-0.061020333333333336,0.013124424242424243,-3.188059090909091,2.1501464545454545,-2.0118220303030303,-0.009135727272727273,6513.787878787879,-15.303030303030303,185.36363636363637,-503.5151515151515,1.3178244848484846
0 days 00:00:56.879583,-7.191017818181818,1.140015787878788,-1.3188432727272728,0.05605354545454545,-0.08907069696969697,-0.026262545454545455,0.18669581818181816,-0.260109,-0.3927660303030303,0.002824151515151515,-0.0006461212121212121,0.15484475757575758,10.0,-41.515151515151516,60.333333333333336,0.0,0.0,0.0,0.0,0.0,268.7878787878788,7850.151515151515,7534.030303030303,7725.393939393939,7343.272727272727,7822.0,7506.848484848485,7755.121212121212,7377.727272727273,-3.1910178181818183,2.140015787878788,-2.0188432727272727,0.05605354545454545,-0.08907069696969697,-0.026262545454545455,0.002824151515151515,-0.0006461212121212121,0.15484475757575758,0.076938,0.108834,0.377126,0.036562,-0.015961,0.010671,0.2669566666666666,-0.07276872727272728,-9.829397484848485,0.07071954545454545,0.02524263636363638,0.01724518181818182,-3.178236,2.144432,-2.014313,-0.006934,6516.969696969697,-31.09090909090909,97.72727272727273,-488.8484848484849,1.3188432727272728
0 days 00:00:56.944583,-7.181347029411764,1.1339989705882352,-1.3205002352941178,0.07546173529411765,-0.0909235,-0.034221764705882354,-0.2441766176470588,-0.13932135294117645,0.1548268235294118,0.005529823529411764,-0.0012351470588235294,0.15488770588235293,10.0,-38.0,70.0,0.0,0.0,0.0,0.0,0.0,260.0,7853.911764705882,7579.294117647059,7714.294117647059,7291.235294117647,7906.088235294118,7576.705882352941,7664.617647058823,7289.441176470588,-3.1813470294117643,2.133998970588235,-2.0205002352941177,0.07546173529411765,-0.0909235,-0.034221764705882354,0.005529823529411764,-0.0012351470588235294,0.15488770588235293,0.07740711764705883,0.1086729705882353,0.3771193823529412,0.03656494117647059,-0.01594555882352941,0.010675411764705883,-0.16785385294117652,0.08114094117647058,-9.280101117647058,0.030237647058823525,-0.0329804705882353,0.021290529411764708,-3.1678859999999998,2.1374922941176466,-2.0172497647058827,-0.0056420882352941175,6508.294117647059,-22.88235294117647,263.97058823529414,-497.2647058823529,1.3205002352941178
0 days 00:00:57.009583,-7.173564303030303,1.1278544545454543,-1.3227117575757574,0.07541751515151515,-0.09494648484848485,-0.043525272727272725,0.06380803030303035,-0.15889184848484847,-0.27872315151515153,0.006637090909090909,0.0016206969696969699,0.15484836363636362,10.0,-38.0,70.33333333333333,0.0,0.0,0.0,0.0,0.0,262.6666666666667,7864.757575757576,7513.636363636364,7747.515151515152,7300.545454545455,7832.606060606061,7518.424242424242,7763.939393939394,7306.0,-3.173564303030303,2.1278544545454543,-2.0227117575757574,0.07541751515151515,-0.09494648484848485,-0.043525272727272725,0.006637090909090909,0.0016206969696969699,0.15484836363636362,0.07763151515151516,0.10859160606060606,0.3771161515151515,0.03656648484848485,-0.015937454545454543,0.010677969696969698,0.15870624242424244,0.020685393939393944,-9.712949787878786,0.0895108484848485,0.06709424242424242,0.0027151212121212117,-3.1621900606060604,2.1337257575757573,-2.018755727272727,-0.004992151515151515,6502.666666666667,-71.75757575757575,140.24242424242425,-544.969696969697,1.3227117575757574
0 days 00:00:57.074583,-7.16148793939394,1.1215078181818185,-1.325677696969697,0.08589796969696971,-0.09415751515151514,-0.056667272727272726,-0.27345778787878783,-0.13605581818181817,0.18062636363636358,0.00863939393939394,0.004422363636363637,0.15463857575757575,10.0,-37.57575757575758,71.0,0.0,0.0,0.0,0.0,0.0,270.969696969697,7861.030303030303,7499.636363636364,7737.606060606061,7285.454545454545,7849.969696969697,7514.393939393939,7748.727272727273,7278.30303030303,-3.1614879393939397,2.1215078181818185,-2.025677696969697,0.08589796969696971,-0.09415751515151514,-0.056667272727272726,0.00863939393939394,0.004422363636363637,0.15463857575757575,0.078034,0.108422,0.37711,0.03657,-0.015919,0.010685,-0.12547339393939394,0.07495860606060606,-9.25674712121212,0.087676,0.029984848484848486,0.002737393939393939,-3.147908,2.124531,-2.022009,-0.003652,6492.212121212121,-67.36363636363636,168.36363636363637,-569.0,1.325677696969697
0 days 00:00:57.139583,-7.152532696969697,1.1151944242424245,-1.328404090909091,0.07760330303030304,-0.09288069696969696,-0.039180606060606055,-0.21854275757575756,-0.1708481212121212,-0.03521196969696971,0.009901818181818182,0.005586393939393939,0.15447336363636363,10.0,-37.42424242424242,70.78787878787878,0.0,0.0,0.0,0.0,0.0,274.7878787878788,7858.515151515152,7515.878787878788,7730.424242424242,7303.878787878788,7886.969696969697,7548.090909090909,7715.69696969697,7268.090909090909,-3.152532696969697,2.1151944242424245,-2.028404090909091,0.07760330303030304,-0.09288069696969696,-0.039180606060606055,0.009901818181818182,0.005586393939393939,0.15447336363636363,0.07819496969696971,0.10820915151515151,0.3771012727272727,0.03657193939393939,-0.01590881818181818,0.010688878787878787,-0.053089424242424244,0.005356303030303026,-9.472567484848486,0.05038924242424242,-0.039188242424242424,0.01355360606060606,-3.1398842424242424,2.1190609393939397,-2.0239362727272727,-0.006099515151515151,6501.909090909091,-54.21212121212121,225.33333333333334,-555.060606060606,1.328404090909091
0 days 00:00:57.204583,-7.143968205882353,1.108550205882353,-1.3305513235294122,0.05670388235294117,-0.09768023529411764,-0.034041588235294115,-0.2828516470588236,-0.06481799999999999,0.08064408823529415,0.009456088235294117,0.005296352941176471,0.15429079411764704,10.0,-39.0,70.0,0.0,0.0,0.0,0.0,0.0,274.0,7857.117647058823,7475.294117647059,7766.5,7324.176470588235,7841.588235294118,7485.85294117647,7773.558823529412,7326.676470588235,-3.143968205882353,2.108550205882353,-2.030551323529412,0.05670388235294117,-0.09768023529411764,-0.034041588235294115,0.009456088235294117,0.005296352941176471,0.15429079411764704,0.078366,0.107983,0.377092,0.036574,-0.015898,0.010693,-0.08458761764705885,0.11425782352941175,-9.35538255882353,0.04502958823529412,-0.0175135,0.007058558823529412,-3.131359,2.113249,-2.025984,-0.0087,6505.029411764706,-45.529411764705884,113.44117647058823,-566.5294117647059,1.3305513235294122
0 days 00:00:57.269583,-7.132057787878788,1.1009987878787877,-1.3326976969696973,0.07332406060606061,-0.10002054545454546,-0.054361424242424246,0.09559045454545458,-0.26141190909090906,-0.510565,0.010370181818181818,0.0026233939393939393,0.15394657575757575,10.0,-39.42424242424242,70.42424242424242,0.0,0.0,0.0,0.0,0.0,275.6969696969697,7833.242424242424,7536.333333333333,7734.787878787879,7290.454545454545,7857.727272727273,7510.090909090909,7713.030303030303,7304.515151515152,-3.1320577878787876,2.1009987878787877,-2.0326976969696973,0.07332406060606061,-0.10002054545454546,-0.054361424242424246,0.010370181818181818,0.0026233939393939393,0.15394657575757575,0.07854248484848485,0.10759221212121212,0.37707842424242427,0.036580787878787886,-0.015876666666666667,0.010701727272727272,0.25254503030303027,-0.14086175757575756,-9.94374396969697,0.017023272727272727,-0.039832,0.020278545454545455,-3.11606396969697,2.1014962727272724,-2.02959903030303,-0.010192363636363637,6490.121212121212,-30.303030303030305,174.84848484848484,-533.7878787878788,1.3326976969696973
0 days 00:00:57.334583,-7.1241892121212125,1.0940294242424242,-1.3362187575757576,0.07441245454545453,-0.10388145454545454,-0.056583,-0.36411187878787876,-0.22671024242424243,0.4155314242424243,0.009942363636363636,0.0018456060606060606,0.15411345454545455,10.0,-40.515151515151516,71.0,0.0,0.0,0.0,0.0,0.0,274.90909090909093,7862.636363636364,7469.242424242424,7752.212121212121,7269.969696969697,7878.606060606061,7471.69696969697,7751.757575757576,7272.060606060606,-3.124189212121212,2.094029424242424,-2.0362187575757575,0.07441245454545453,-0.10388145454545454,-0.056583,0.009942363636363636,0.0018456060606060606,0.15411345454545455,0.078562,0.10739633333333333,0.377068,0.036583333333333336,-0.01586833333333333,0.010705666666666667,-0.2191051212121212,-0.04145966666666668,-9.02121803030303,0.04402675757575757,-0.009632454545454546,0.006317939393939394,-3.1101016666666665,2.0971743333333333,-2.0308466666666667,-0.008388333333333333,6486.151515151515,-36.42424242424242,162.9090909090909,-625.8787878787879,1.3362187575757576
0 days 00:00:57.399583,-7.1140755757575755,1.0861660606060606,-1.3386847272727274,0.05829660606060606,-0.11538981818181818,-0.0431360606060606,-0.5158512727272728,-0.30297721212121215,-0.11424390909090913,0.01181230303030303,0.001508878787878788,0.15343566666666666,10.0,-41.0,71.0,0.0,0.0,0.0,0.0,0.0,272.0,7867.121212121212,7505.818181818182,7731.757575757576,7279.0,7815.151515151515,7503.909090909091,7766.575757575758,7310.060606060606,-3.1140755757575755,2.0861660606060606,-2.0386847272727273,0.05829660606060606,-0.11538981818181818,-0.0431360606060606,0.01181230303030303,0.001508878787878788,0.15343566666666666,0.07859,0.107029,0.377048,0.036588,-0.015853,0.010713,-0.3745561212121212,-0.11091378787878786,-9.552379212121213,0.09539978787878788,0.022860363636363647,0.00940309090909091,-3.099133,2.089265,-2.033116,-0.004687,6493.787878787879,-72.51515151515152,121.0909090909091,-541.939393939394,1.3386847272727274
0 days 00:00:57.464583,-7.104614882352941,1.077577323529412,-1.3408543823529413,0.043172999999999996,-0.11705520588235295,-0.04356576470588235,-0.4707885,0.07400576470588238,0.16109650000000003,0.013966,-0.0008540882352941177,0.15350067647058824,10.0,-40.0,69.0,0.0,0.0,0.0,0.0,0.0,272.0,7874.970588235294,7502.588235294118,7740.441176470588,7273.117647058823,7812.794117647059,7523.64705882353,7783.529411764706,7269.294117647059,-3.104614882352941,2.077577323529412,-2.0408543823529413,0.043172999999999996,-0.11705520588235295,-0.04356576470588235,0.013966,-0.0008540882352941177,0.15350067647058824,0.07842270588235294,0.10662735294117646,0.3770254117647059,0.03659294117647059,-0.01583605882352941,0.010721470588235294,-0.25807091176470587,0.2118279411764706,-9.27648205882353,0.10706276470588236,-0.041037117647058814,0.006627764705882353,-3.087517705882353,2.079796294117647,-2.0357249411764706,-0.0039535882352941185,6491.470588235294,-112.3529411764706,141.52941176470588,-567.0882352941177,1.3408543823529413
0 days 00:00:57.529583,-7.097717212121212,1.0696566969696968,-1.342970090909091,0.03764660606060606,-0.10802296969696969,-0.0347740606060606,0.04973190909090909,-0.01791354545454547,-0.15396251515151516,0.014154606060606062,-0.002952060606060606,0.15374169696969697,10.0,-40.515151515151516,69.51515151515152,0.0,0.0,0.0,0.0,0.0,271.4848484848485,7824.363636363636,7478.272727272727,7757.212121212121,7332.363636363636,7906.212121212121,7511.939393939394,7710.090909090909,7275.424242424242,-3.097717212121212,2.069656696969697,-2.042970090909091,0.03764660606060606,-0.10802296969696969,-0.0347740606060606,0.014154606060606062,-0.002952060606060606,0.15374169696969697,0.07827081818181819,0.106356,0.37701090909090906,0.03659627272727273,-0.01582427272727273,0.010727363636363637,0.2260890606060606,0.025065181818181795,-9.588423242424241,-0.013020878787878791,-0.1177719090909091,0.024081181818181818,-3.079958909090909,2.0735873636363635,-2.0374514545454545,-0.004569818181818182,6496.575757575758,-20.181818181818183,216.06060606060606,-585.1515151515151,1.342970090909091
0 days 00:00:57.594583,-7.08649706060606,1.061795393939394,-1.3446803030303032,0.0641340303030303,-0.10239875757575757,-0.03374593939393939,-0.23470193939393935,0.07787533333333332,0.3649095454545454,0.01317618181818182,-0.007738575757575758,0.15337442424242423,10.0,-41.303030303030305,69.6969696969697,0.0,0.0,0.0,0.0,0.0,272.5151515151515,7858.878787878788,7545.424242424242,7727.69696969697,7254.060606060606,7874.575757575758,7507.787878787879,7724.575757575758,7290.636363636364,-3.0864970606060607,2.061795393939394,-2.044680303030303,0.0641340303030303,-0.10239875757575757,-0.03374593939393939,0.01317618181818182,-0.007738575757575758,0.15337442424242423,0.077901,0.105888,0.376988,0.036602,-0.015803,0.010738,-0.0659919393939394,0.17214136363636365,-9.071496303030303,-0.00973609090909091,-0.0054006969696969685,0.021158848484848485,-3.067723,2.063401,-2.040329,-0.008718,6494.393939393939,-33.57575757575758,183.3030303030303,-565.3030303030303,1.3446803030303032
0 days 00:00:57.659583,-7.0775759411764705,1.054589441176471,-1.3459009705882352,0.05569202941176471,-0.09729391176470589,-0.015085764705882354,-0.2120854411764706,-0.024045911764705878,-0.0014906176470588163,0.012102529411764706,-0.006766705882352941,0.15318464705882354,10.0,-42.0,68.88235294117646,0.0,0.0,0.0,0.0,0.0,276.70588235294116,7857.441176470588,7522.85294117647,7776.117647058823,7276.294117647059,7832.5,7522.411764705882,7799.558823529412,7301.323529411765,-3.0775759411764705,2.054589441176471,-2.045900970588235,0.05569202941176471,-0.09729391176470589,-0.015085764705882354,0.012102529411764706,-0.006766705882352941,0.15318464705882354,0.07758864705882353,0.10565241176470587,0.37697423529411767,0.03660623529411765,-0.015789764705882354,0.010745411764705882,-0.051585500000000006,0.0724954411764706,-9.436494735294119,0.04979026470588235,0.04876344117647059,0.002197205882352942,-3.0595388235294116,2.056783882352941,-2.0419119411764703,-0.0060539999999999995,6514.970588235294,-93.94117647058823,126.76470588235294,-570.5882352941177,1.3459009705882352
0 days 00:00:57.724583,-7.0693791818181815,1.0475835757575758,-1.3465732424242425,0.05299121212121212,-0.09678987878787879,-0.018296545454545454,0.05548772727272734,-0.18723778787878786,-0.21720363636363632,0.010524484848484849,-0.0061568787878787876,0.15295275757575758,10.0,-42.0,68.0,0.0,0.0,0.0,0.0,0.0,282.0,7935.030303030303,7499.969696969697,7715.878787878788,7302.606060606061,7934.787878787879,7570.060606060606,7706.393939393939,7244.515151515152,-3.069379181818182,2.0475835757575758,-2.0465732424242424,0.05299121212121212,-0.09678987878787879,-0.018296545454545454,0.010524484848484849,-0.0061568787878787876,0.15295275757575758,0.07729466666666668,0.10543336363636363,0.37696169696969695,0.03661024242424242,-0.01577727272727273,0.01075239393939394,0.19676263636363636,-0.09120503030303032,-9.653675393939393,0.07932348484848485,-0.05033000000000001,3.699999999999979e-05,-3.051827606060606,2.050541484848485,-2.043414606060606,-0.0039285757575757575,6515.0,-48.484848484848484,276.4848484848485,-583.4545454545455,1.3465732424242425
0 days 00:00:57.789583,-7.056108575757576,1.0394505454545455,-1.3481254848484852,0.07802215151515152,-0.10547836363636365,-0.03573487878787879,-0.31830469696969693,-0.19685278787878788,-0.13379524242424243,0.012984666666666667,-0.003592181818181818,0.15260700000000002,10.0,-41.39393939393939,68.60606060606061,0.0,0.0,0.0,0.0,0.0,280.7878787878788,7821.454545454545,7505.30303030303,7757.424242424242,7342.818181818182,7872.575757575758,7462.030303030303,7735.939393939394,7350.393939393939,-3.056108575757576,2.0394505454545455,-2.048125484848485,0.07802215151515152,-0.10547836363636365,-0.03573487878787879,0.012984666666666667,-0.003592181818181818,0.15260700000000002,0.076772,0.105125,0.376952,0.036618,-0.015754,0.010765,-0.12233669696969698,-0.06714606060606058,-9.56918793939394,0.029348636363636365,0.05518309090909091,0.026670484848484846,-3.037863,2.039005,-2.046474,-0.011691,6502.666666666667,12.424242424242424,123.9090909090909,-561.969696969697,1.3481254848484852
0 days 00:00:57.854583,-7.047435909090909,1.0319881515151517,-1.3501997272727275,0.07795730303030303,-0.10395012121212122,-0.031091,-0.12282206060606063,-0.03774121212121212,-0.029035333333333344,0.015656363636363635,-0.0012233333333333334,0.15234760606060607,10.0,-41.0,69.0,0.0,0.0,0.0,0.0,0.0,283.1515151515151,7857.030303030303,7517.878787878788,7769.606060606061,7278.575757575758,7854.151515151515,7494.727272727273,7765.909090909091,7318.515151515152,-3.047435909090909,2.0319881515151517,-2.0501997272727275,0.07795730303030303,-0.10395012121212122,-0.031091,0.015656363636363635,-0.0012233333333333334,0.15234760606060607,0.076487,0.10496590909090908,0.37694472727272726,0.036621636363636356,-0.015743545454545455,0.010770454545454545,0.12393463636363634,0.033942999999999994,-9.464814212121212,0.07222857575757576,0.03460139393939394,0.008574545454545454,-3.031406181818182,2.0336250000000002,-2.047614909090909,-0.008170090909090908,6507.0,-43.81818181818182,132.0,-569.3333333333334,1.3501997272727275
0 days 00:00:57.919583,-7.037321529411765,1.024336029411765,-1.352665323529412,0.08581973529411764,-0.10393532352941176,-0.04872694117647059,-0.49312820588235295,-0.1463945588235294,0.05566588235294122,0.018360088235294118,0.0010131764705882352,0.1520734411764706,10.0,-41.61764705882353,68.58823529411765,0.0,0.0,0.0,0.0,0.0,289.8529411764706,7879.764705882353,7495.529411764706,7760.441176470588,7257.176470588235,7845.735294117647,7523.676470588235,7763.764705882353,7246.941176470588,-3.037321529411765,2.024336029411765,-2.052665323529412,0.08581973529411764,-0.10393532352941176,-0.04872694117647059,0.018360088235294118,0.0010131764705882352,0.1520734411764706,0.076145,0.104775,0.376936,0.036626,-0.015731,0.010777,-0.2551987647058824,-0.05365350000000001,-9.385713470588236,0.10844867647058823,0.013456499999999996,-0.0009190588235294117,-3.023658,2.027169,-2.048984,-0.003945,6488.294117647059,-97.23529411764706,179.0,-592.1470588235294,1.352665323529412
0 days 00:00:57.984583,-7.0253839696969695,1.0163595757575759,-1.3551916969696969,0.08954848484848485,-0.10090409090909092,-0.043915242424242426,-0.20570693939393941,0.03484693939393939,-0.13653230303030303,0.019068333333333333,0.001203969696969697,0.15195103030303028,10.0,-44.0,67.0,0.0,0.0,0.0,0.0,0.0,297.0,7902.121212121212,7488.69696969697,7734.333333333333,7280.787878787879,7826.575757575758,7499.424242424242,7789.242424242424,7271.181818181818,-3.0253839696969695,2.016359575757576,-2.055191696969697,0.08954848484848485,-0.10090409090909092,-0.043915242424242426,0.019068333333333333,0.001203969696969697,0.15195103030303028,0.0755620909090909,0.104355,0.37691648484848483,0.03663193939393939,-0.015714878787878788,0.010786333333333334,0.10369318181818182,0.05924481818181818,-9.575017696969695,0.10159212121212122,0.04623872727272727,0.0037656363636363634,-3.0116604242424243,2.0167589393939394,-2.051963878787879,-0.005956757575757575,6490.484848484848,-95.24242424242425,132.57575757575756,-596.5454545454545,1.3551916969696969
0 days 00:00:58.049583,-7.016843636363637,1.0094892424242428,-1.3582292727272727,0.09991739393939393,-0.09594075757575758,-0.06348366666666667,-0.08015509090909091,-0.11870233333333334,-0.31961957575757577,0.0198359696969697,0.004346606060606061,0.15211454545454545,10.0,-43.303030303030305,67.6969696969697,0.0,0.0,0.0,0.0,0.0,284.45454545454544,7812.484848484848,7487.545454545455,7743.606060606061,7322.0,7898.69696969697,7456.545454545455,7687.424242424242,7304.090909090909,-3.0168436363636366,2.0094892424242428,-2.0582292727272726,0.09991739393939393,-0.09594075757575758,-0.06348366666666667,0.0198359696969697,0.004346606060606061,0.15211454545454545,0.07527060606060607,0.10410060606060606,0.37690451515151513,0.03663469696969697,-0.015708363636363635,0.010789696969696972,0.22534915151515153,-0.12349069696969693,-9.752071484848484,-0.0437159696969697,-0.006510333333333327,0.03363963636363636,-3.0066120606060607,2.0121649696969697,-2.0532555151515153,-0.007384363636363637,6476.454545454545,29.515151515151516,181.63636363636363,-582.7575757575758,1.3582292727272727
0 days 00:00:58.114583,-7.005746058823529,1.0019387647058822,-1.3619221764705884,0.09739338235294118,-0.10235976470588236,-0.06252517647058824,-0.2593472352941177,-0.11164226470588234,0.23702558823529407,0.01977520588235294,0.004280205882352941,0.15175282352941175,10.0,-44.0,68.0,0.0,0.0,0.0,0.0,0.0,283.0,7873.35294117647,7516.117647058823,7742.441176470588,7239.205882352941,7895.0,7525.264705882353,7679.529411764706,7239.794117647059,-3.0057460588235294,2.001938764705882,-2.0619221764705884,0.09739338235294118,-0.10235976470588236,-0.06252517647058824,0.01977520588235294,0.004280205882352941,0.15175282352941175,0.074685,0.10354,0.376878,0.03664,-0.015697,0.010795,0.03096279411764704,-0.07981955882352942,-9.196834794117647,0.026359970588235294,-0.010146176470588233,0.006685264705882353,-2.997531,2.003618,-2.055629,-0.010723,6473.970588235294,-34.8235294117647,250.11764705882354,-571.4411764705883,1.3619221764705884
0 days 00:00:58.179583,-6.996359878787878,0.9944532424242425,-1.3645321515151514,0.08885939393939395,-0.09697345454545456,-0.05822754545454545,-0.45247551515151513,0.03808603030303031,-0.07449987878787877,0.020381363636363635,0.0074297878787878795,0.15178033333333335,10.0,-45.0,68.0,0.0,0.0,0.0,0.0,0.0,285.7878787878788,7875.787878787879,7483.787878787879,7729.242424242424,7262.757575757576,7812.636363636364,7494.090909090909,7774.606060606061,7265.030303030303,-2.9963598787878785,1.9944532424242425,-2.0645321515151513,0.08885939393939395,-0.09697345454545456,-0.05822754545454545,0.020381363636363635,0.0074297878787878795,0.15178033333333335,0.07400348484848485,0.10275448484848484,0.37683466666666665,0.036643939393939395,-0.015688333333333332,0.010798939393939395,-0.10623809090909091,0.08599666666666668,-9.51518106060606,0.10813942424242425,0.06648027272727274,0.006199575757575757,-2.989659303030303,1.995426424242424,-2.0575711212121215,-0.008535848484848483,6476.333333333333,-95.33333333333333,133.3939393939394,-584.6363636363636,1.3645321515151514
0 days 00:00:58.244583,-6.989560515151515,0.988029212121212,-1.367935272727273,0.08213187878787878,-0.09126463636363637,-0.06887909090909092,-0.3689274848484848,-0.11213051515151516,-0.38085978787878794,0.021954515151515152,0.011417757575757576,0.15199354545454546,10.0,-45.0,68.0,0.0,0.0,0.0,0.0,0.0,283.0,7810.848484848485,7449.878787878788,7754.939393939394,7304.0,7809.242424242424,7468.121212121212,7754.424242424242,7281.545454545455,-2.989560515151515,1.988029212121212,-2.067935272727273,0.08213187878787878,-0.09126463636363637,-0.06887909090909092,0.021954515151515152,0.011417757575757576,0.15199354545454546,0.07366075757575757,0.1023201212121212,0.3768108787878788,0.03664560606060606,-0.01568493939393939,0.010800454545454547,-0.008907515151515161,-0.09235924242424241,-9.81933593939394,0.06738287878787878,0.016483303030303036,0.011267575757575757,-2.9861795454545454,1.9916916060606058,-2.058419,-0.00861881818181818,6464.69696969697,-65.75757575757575,120.45454545454545,-574.6969696969697,1.367935272727273
0 days 00:00:58.309583,-6.982114636363637,0.9813812727272726,-1.3704716060606061,0.07287,-0.08896618181818182,-0.05889506060606061,-0.19481912121212122,0.06164351515151515,0.5409310303030302,0.021798242424242425,0.010200878787878788,0.1522907878787879,10.0,-45.484848484848484,67.51515151515152,0.0,0.0,0.0,0.0,0.0,281.54545454545456,7881.666666666667,7472.909090909091,7688.363636363636,7241.757575757576,7898.939393939394,7472.151515151515,7706.181818181818,7235.575757575758,-2.9821146363636366,1.9813812727272726,-2.070471606060606,0.07287,-0.08896618181818182,-0.05889506060606061,0.021798242424242425,0.010200878787878788,0.1522907878787879,0.072769,0.101072,0.376743,0.036649,-0.015679,0.010803,0.13810966666666669,0.06915842424242423,-8.896750636363636,0.035918303030303037,-0.033158848484848485,0.014959121212121212,-2.978561,1.9831269999999999,-2.060239,-0.012381,6464.515151515152,-21.848484848484848,214.24242424242425,-633.3939393939394,1.3704716060606061
0 days 00:00:58.374583,-6.976404764705882,0.9753890294117649,-1.3718337941176475,0.0639595294117647,-0.08251488235294117,-0.03244505882352941,-0.3159734411764706,-0.09173676470588235,0.07291344117647057,0.021507735294117647,0.010458882352941175,0.15204126470588236,10.0,-46.0,67.0,0.0,0.0,0.0,0.0,0.0,282.6470588235294,7892.14705882353,7493.088235294118,7704.676470588235,7251.323529411765,7925.676470588235,7489.735294117647,7684.85294117647,7257.911764705882,-2.9764047647058822,1.9753890294117649,-2.0718337941176475,0.0639595294117647,-0.08251488235294117,-0.03244505882352941,0.021507735294117647,0.010458882352941175,0.15204126470588236,0.07209267647058823,0.10008500000000001,0.37668679411764705,0.036650852941176475,-0.015675911764705883,0.010803617647058825,-0.02995729411764707,-0.07933135294117646,-9.365464176470589,0.005486029411764704,-0.007898647058823522,0.014713117647058823,-2.974361617647059,1.9774909705882355,-2.061210558823529,-0.011390911764705882,6480.588235294118,4.529411764705882,235.88235294117646,-609.0882352941177,1.3718337941176475
0 days 00:00:58.439583,-6.971171363636364,0.9696763333333334,-1.3734080000000002,0.08038448484848484,-0.08173024242424243,-0.05413693939393939,0.06303821212121212,-0.008306787878787886,-0.29243103030303025,0.022982666666666665,0.013565787878787879,0.1517238787878788,10.0,-46.0,67.0,0.0,0.0,0.0,0.0,0.0,285.8484848484849,7815.878787878788,7495.030303030303,7770.393939393939,7255.393939393939,7827.757575757576,7475.151515151515,7724.818181818182,7288.909090909091,-2.9711713636363637,1.9696763333333334,-2.073408,0.08038448484848484,-0.08173024242424243,-0.05413693939393939,0.022982666666666665,0.013565787878787879,0.1517238787878788,0.071674,0.099474,0.376652,0.036652,-0.015674,0.010804,0.41412157575757574,-0.07945663636363635,-9.722005181818181,0.01207384848484849,0.03685784848484848,0.01674212121212121,-2.971762,1.974002,-2.061812,-0.010778,6465.878787878788,-41.57575757575758,144.27272727272728,-556.7272727272727,1.3734080000000002
0 days 00:00:58.504583,-6.9655483333333335,0.9639312424242423,-1.3746087575757577,0.07543869696969696,-0.07367006060606061,-0.06853024242424242,-0.41298575757575756,0.1061658787878788,-0.21541539393939393,0.022276151515151516,0.015387939393939393,0.15185257575757577,10.0,-46.0,67.0,0.0,0.0,0.0,0.0,0.0,281.0,7868.484848484848,7450.090909090909,7745.363636363636,7221.848484848485,7783.787878787879,7498.818181818182,7791.121212121212,7214.060606060606,-2.9655483333333335,1.9639312424242423,-2.0746087575757577,0.07543869696969696,-0.07367006060606061,-0.06853024242424242,0.022276151515151516,0.015387939393939393,0.15185257575757577,0.07059084848484848,0.09775860606060606,0.3765540606060606,0.03665393939393939,-0.0156730303030303,0.010804,0.0015388181818181874,0.1047289090909091,-9.658587757575757,0.11558215151515153,0.0304509696969697,-0.009329121212121212,-2.9669096363636362,1.9648519393939394,-2.062692484848485,-0.016788181818181817,6455.69696969697,-145.75757575757575,138.42424242424244,-608.4848484848485,1.3746087575757577
0 days 00:00:58.569583,-6.961771724137931,0.9593358275862067,-1.377586448275862,0.05269603448275863,-0.067195,-0.062141206896551726,-0.6036810344827587,-0.047708172413793104,0.27166251724137924,0.020318655172413793,0.016647724137931034,0.15234544827586208,10.0,-46.86206896551724,67.0,0.0,0.0,0.0,0.0,0.0,286.17241379310343,7863.413793103448,7436.551724137931,7705.206896551724,7300.310344827586,7975.758620689655,7459.862068965517,7651.758620689655,7202.172413793103,-2.961771724137931,1.9593358275862067,-2.077586448275862,0.05269603448275863,-0.067195,-0.062141206896551726,0.020318655172413793,0.016647724137931034,0.15234544827586208,0.07022120689655172,0.09702472413793103,0.37650972413793105,0.036654310344827586,-0.015674241379310346,0.010803068965517242,-0.244645724137931,0.0005388965517241141,-9.175848655172413,-0.025356931034482756,-0.11113441379310345,0.01924503448275862,-2.966207448275862,1.9622117241379309,-2.062741724137931,-0.01585193103448276,6456.3448275862065,33.10344827586207,290.44827586206895,-681.6206896551724,1.377586448275862
0 days 00:00:58.634583,-6.9593782399999995,0.9547072399999998,-1.3791355600000001,0.058903080000000003,-0.06210532,-0.06724624,-0.043279960000000006,-0.009942,0.20254604,0.020252080000000002,0.01947792,0.1514738,10.0,-47.0,66.56,0.0,0.0,0.0,0.0,0.0,284.36,7928.08,7563.96,7618.64,7193.0,7811.12,7441.32,7701.92,7338.4,-2.95937824,1.9547072399999998,-2.07913556,0.058903080000000003,-0.06210532,-0.06724624,0.020252080000000002,0.01947792,0.1514738,0.069475,0.095513,0.376418,0.036655,-0.015677,0.010801,0.31601556,-0.07226555999999999,-9.23042964,-0.027226559999999997,0.07414068,0.01449224,-2.964984,1.9569800000000002,-2.06279,-0.013354,6457.36,3.2,106.08,-517.64,1.3791355600000001
0 days 00:00:58.699583,-6.958235633333333,0.9503621666666668,-1.3786020333333335,0.02941193333333333,-0.059221300000000004,-0.017876133333333332,-0.5373273333333334,0.05390180000000001,-0.05937940000000004,0.0181528,0.021270533333333334,0.15234303333333335,10.0,-47.0,66.0,0.0,0.0,0.0,0.0,0.0,282.2,7776.033333333334,7455.9,7778.8,7342.666666666667,7876.133333333333,7481.433333333333,7720.866666666667,7309.966666666666,-2.958235633333333,1.9503621666666668,-2.0786020333333335,0.02941193333333333,-0.059221300000000004,-0.017876133333333332,0.0181528,0.021270533333333334,0.15234303333333335,0.0685758,0.09352980000000001,0.3763004,0.036655,-0.0156826,0.0107978,-0.11425773333333336,0.08398433333333336,-9.506933533333333,-0.038793933333333336,-0.09772126666666667,0.02875966666666667,-2.9650583999999998,1.9515968,-2.062434,-0.017234799999999998,6491.233333333334,-8.066666666666666,163.1,-568.6666666666666,1.3786020333333335
0 days 00:00:58.764583,-6.959071787878788,0.9464515454545455,-1.3774335757575755,-0.015459939393939394,-0.050211,-0.011949818181818181,-0.40430703030303033,0.13275460606060602,-0.3042600909090909,0.015803636363636363,0.013126848484848486,0.1520479090909091,10.0,-47.0,66.0,0.0,0.0,0.0,0.0,0.0,284.0,7891.242424242424,7513.606060606061,7764.484848484848,7238.060606060606,7809.909090909091,7562.30303030303,7778.69696969697,7244.545454545455,-2.959071787878788,1.9464515454545455,-2.0774335757575755,-0.015459939393939394,-0.050211,-0.011949818181818181,0.015803636363636363,0.013126848484848486,0.1520479090909091,0.06813463636363637,0.09259215151515153,0.37624321212121214,0.03665521212121212,-0.01568590909090909,0.010796151515151516,-0.04856172727272731,0.15074572727272725,-9.747602878787879,0.08693621212121212,-0.12457833333333333,-0.012488151515151515,-2.9657133636363633,1.9487101515151515,-2.0620834545454545,-0.016469848484848486,6493.69696969697,-142.93939393939394,174.21212121212122,-551.8484848484849,1.3774335757575755
0 days 00:00:58.829583,-6.962804588235294,0.9427641176470587,-1.375252029411765,-0.023715029411764704,-0.04443717647058824,-0.016225117647058824,0.06750241176470594,0.03538597058823528,-0.2026868823529411,0.012047,0.005749117647058824,0.1524580294117647,10.0,-48.76470588235294,66.0,0.0,0.0,0.0,0.0,0.0,290.1764705882353,7903.529411764706,7499.970588235294,7674.441176470588,7313.35294117647,7909.411764705882,7524.35294117647,7688.64705882353,7260.088235294118,-2.962804588235294,1.9427641176470587,-2.075252029411765,-0.023715029411764704,-0.04443717647058824,-0.016225117647058824,0.012047,0.005749117647058824,0.1524580294117647,0.067331,0.090951,0.37614,0.036656,-0.015693,0.010793,0.3370576470588236,0.018296264705882356,-9.637034647058824,0.012077735294117648,-0.14636229411764706,0.012731264705882353,-2.968077,1.9429870000000002,-2.061112,-0.010025,6489.14705882353,-21.61764705882353,242.14705882352942,-574.3235294117648,1.375252029411765
0 days 00:00:58.894583,-6.965997151515151,0.939083212121212,-1.3744632727272725,-0.02926912121212121,-0.05099248484848485,-0.02279451515151515,-0.41611663636363644,-0.2624402727272727,-0.022082909090909188,0.010545121212121212,0.0011355454545454546,0.1527001212121212,10.0,-46.21212121212121,66.0,0.0,0.0,0.0,0.0,0.0,288.90909090909093,7894.666666666667,7520.060606060606,7683.151515151515,7297.727272727273,7906.272727272727,7493.151515151515,7687.212121212121,7286.0,-2.9659971515151513,1.939083212121212,-2.0744632727272725,-0.02926912121212121,-0.05099248484848485,-0.02279451515151515,0.010545121212121212,0.0011355454545454546,0.1527001212121212,0.06685312121212121,0.09000560606060605,0.3760720606060606,0.03665715151515152,-0.015697606060606058,0.01079069696969697,-0.2684067575757576,-0.18578366666666668,-9.45936903030303,0.016786515151515153,-0.05968121212121213,0.017992454545454548,-2.9711970303030304,1.9391035151515152,-2.0606732727272727,-0.0034308484848484845,6485.575757575758,6.0606060606060606,212.78787878787878,-574.8181818181819,1.3744632727272725
0 days 00:00:58.959583,-6.969637939393939,0.9349244848484848,-1.3740394545454546,-0.03202260606060606,-0.05847921212121212,-0.020812242424242424,0.25238563636363637,0.06520454545454545,0.019948303030303042,0.011186272727272727,-0.0017351818181818182,0.15259054545454545,10.0,-44.515151515151516,66.0,0.0,0.0,0.0,0.0,0.0,285.57575757575756,7900.0,7542.393939393939,7661.121212121212,7264.363636363636,7890.484848484848,7521.090909090909,7671.666666666667,7292.060606060606,-2.9696379393939396,1.9349244848484848,-2.0740394545454546,-0.03202260606060606,-0.05847921212121212,-0.020812242424242424,0.011186272727272727,-0.0017351818181818182,0.15259054545454545,0.06647890909090909,0.08925772727272727,0.37601866666666667,0.0366580303030303,-0.015701212121212123,0.010788939393939394,0.39828963636363635,0.029385696969696957,-9.414328969696971,0.05020421212121212,-0.015314212121212126,0.01459669696969697,-2.973649393939394,1.936075909090909,-2.0603322121212124,0.0011274545454545456,6486.606060606061,-5.121212121212121,223.57575757575756,-528.6666666666666,1.3740394545454546
0 days 00:00:59.024583,-6.973665909090909,0.9306164848484848,-1.3718578181818184,-0.018081545454545454,-0.05458466666666666,-0.019252515151515152,0.03547151515151515,-0.052512363636363635,-0.1563896060606061,0.012956757575757575,-0.001191787878787879,0.1528000303030303,10.0,-44.0,66.0,0.0,0.0,0.0,0.0,0.0,283.0,7879.727272727273,7539.181818181818,7688.333333333333,7258.606060606061,7908.939393939394,7533.393939393939,7667.69696969697,7274.666666666667,-2.9736659090909088,1.9306164848484848,-2.0718578181818184,-0.018081545454545454,-0.05458466666666666,-0.019252515151515152,0.012956757575757575,-0.001191787878787879,0.1528000303030303,0.065772,0.087617,0.375912,0.036659,-0.015708,0.010787,0.18314984848484844,-0.08220887878787879,-9.590435515151515,0.029725878787878784,-0.013272363636363638,0.01814030303030303,-2.978558,1.930761,-2.059763,-0.00849,6489.848484848485,-8.818181818181818,249.63636363636363,-542.4848484848485,1.3718578181818184
0 days 00:00:59.089583,-6.975882029411765,0.9268683529411765,-1.3716850294117646,-0.02015685294117647,-0.05362408823529412,-0.013610176470588235,-0.3505491470588235,0.02253670588235294,0.4744527058823529,0.014377882352941176,0.000610235294117647,0.15283055882352942,10.0,-43.029411764705884,66.0,0.0,0.0,0.0,0.0,0.0,288.8235294117647,7857.588235294118,7511.529411764706,7730.35294117647,7267.14705882353,7855.0,7528.823529411765,7730.176470588235,7280.705882352941,-2.975882029411765,1.9268683529411765,-2.0716850294117646,-0.02015685294117647,-0.05362408823529412,-0.013610176470588235,0.014377882352941176,0.000610235294117647,0.15283055882352942,0.06547511764705882,0.08691864705882353,0.3758662941176471,0.036659,-0.01571129411764706,0.010786176470588235,-0.1672219411764706,0.03656367647058822,-8.963235352941176,0.06196147058823529,0.0014288235294117643,0.007877088235294117,-2.9806946470588236,1.9284917647058823,-2.0589567647058824,-0.005675176470588235,6493.411764705882,-61.5,186.1764705882353,-547.5588235294117,1.3716850294117646
0 days 00:00:59.154583,-6.979428818181818,0.9231739999999999,-1.3696502424242423,-0.03556466666666667,-0.049958999999999996,0.006047212121212122,-0.3799162121212122,0.06929763636363637,0.10951912121212123,0.013802060606060606,-0.00015999999999999999,0.15295836363636364,10.0,-42.515151515151516,66.0,0.0,0.0,0.0,0.0,0.0,282.6969696969697,7904.393939393939,7520.393939393939,7703.727272727273,7280.757575757576,7907.818181818182,7550.727272727273,7711.818181818182,7263.060606060606,-2.9794288181818183,1.923174,-2.0696502424242422,-0.03556466666666667,-0.049958999999999996,0.006047212121212122,0.013802060606060606,-0.00015999999999999999,0.15295836363636364,0.065051,0.085921,0.375801,0.036659,-0.015716,0.010785,-0.18829906060606058,0.08682527272727272,-9.328154545454545,0.051802121212121216,-0.06666527272727273,0.002937090909090909,-2.983747,1.92525,-2.057805,-0.001654,6507.090909090909,-45.75757575757576,241.42424242424244,-568.939393939394,1.3696502424242423
