time,pos_x,pos_y,pos_z,vel_x,vel_y,vel_z,acc_x,acc_y,acc_z,att_phi,att_theta,att_psi,distance_est,centroid_x,centroid_y,divergence,true_divergence,divergence_sp,pitch_sum,raw_divergence,color_count,rpm_obs_1,rpm_obs_2,rpm_obs_3,rpm_obs_4,rpm_ref_1,rpm_ref_2,rpm_ref_3,rpm_ref_4,ekf_X1,ekf_X2,ekf_X3,ekf_X4,ekf_X5,ekf_X6,ekf_X7,ekf_X8,ekf_X9,ekf_X10,ekf_X11,ekf_X12,ekf_X13,ekf_X14,ekf_X15,ekf_U1,ekf_U2,ekf_U3,ekf_U4,ekf_U5,ekf_U6,ekf_Z1,ekf_Z2,ekf_Z3,ekf_Z4,cmd_thrust,cmd_roll,cmd_pitch,cmd_yaw,pos_z_inverted
0 days 00:02:34.834583,-2.3166554545454545,-0.9384485454545455,-0.3175897878787879,0.048755090909090915,-0.013916242424242423,-0.05237109090909091,0.1380135757575758,-0.14207221212121213,0.11232781818181817,-0.004340212121212121,-0.02194639393939394,0.03219093939393939,0.457298,-15.0,-57.0,0.3717,0.250794,0.314107,-12.55737,0.3717,2174.3030303030305,7748.878787878788,7787.090909090909,7491.424242424242,7477.272727272727,7844.060606060606,7852.272727272727,7331.121212121212,7409.666666666667,1.6833445454545455,0.06155145454545454,-1.0175897878787878,0.048755090909090915,-0.013916242424242423,-0.05237109090909091,-0.004340212121212121,-0.02194639393939394,0.03219093939393939,0.045043999999999994,-0.028335151515151515,0.3575929696969697,0.03687984848484849,-0.01612160606060606,0.011300151515151515,-0.16628200000000004,-0.03595524242424243,-9.343335787878788,0.004120818181818183,-0.1573819696969697,0.0011393030303030298,1.6592169090909092,0.0665300909090909,-1.014356,0.015553484848484848,6508.454545454545,35.18181818181818,476.90909090909093,61.333333333333336,0.3175897878787879
0 days 00:02:34.899583,-2.318054484848485,-0.9382917878787879,-0.32026299999999996,0.038416757575757576,-0.013620969696969697,-0.030962909090909093,0.4115294242424242,-0.14151927272727274,0.08136715151515153,-0.002648060606060606,-0.019876181818181817,0.0318290303030303,0.457298,-15.0,-57.0,0.3717,0.250794,0.314107,-12.55737,0.3717,2171.151515151515,7649.515151515152,7804.484848484848,7480.30303030303,7539.848484848485,7632.090909090909,7768.060606060606,7495.212121212121,7573.121212121212,1.681945515151515,0.06170821212121212,-1.020263,0.038416757575757576,-0.013620969696969697,-0.030962909090909093,-0.002648060606060606,-0.019876181818181817,0.0318290303030303,0.0450150303030303,-0.028262060606060607,0.3575897575757576,0.03687890909090909,-0.01612518181818182,0.011301090909090908,0.09271424242424245,-0.06516333333333332,-9.381717575757575,0.04891687878787878,0.07049015151515152,0.028357272727272727,1.658862393939394,0.06756369696969697,-1.0155780606060607,0.019934969696969694,6519.454545454545,-29.0,165.75757575757575,151.0,0.32026299999999996
0 days 00:02:34.964583,-2.3225827647058823,-0.9365110882352942,-0.3216047941176472,0.034447323529411766,-0.012251794117647059,-0.02749041176470588,-0.23091732352941174,-0.13651191176470587,0.27465502941176473,-0.0013893823529411765,-0.01679770588235294,0.03243882352941176,0.457298,-14.676470588235293,-57.0,0.3717,0.250794,0.314107,-12.55737,0.3717,2166.705882352941,7663.558823529412,7772.117647058823,7507.205882352941,7527.470588235294,7648.823529411765,7804.264705882353,7503.235294117647,7514.029411764706,1.6774172352941177,0.06348891176470588,-1.0216047941176472,0.034447323529411766,-0.012251794117647059,-0.02749041176470588,-0.0013893823529411765,-0.01679770588235294,0.03243882352941176,0.044984,-0.028136,0.357582,0.036876,-0.016131,0.011304,-0.4887121470588235,-0.09383614705882352,-9.16857194117647,0.053244205882352943,-0.044541294117647054,0.019373235294117646,1.659899,0.06989,-1.018396,0.014814,6520.058823529412,-72.26470588235294,217.5,117.29411764705883,0.3216047941176472
0 days 00:02:35.029583,-2.3230377272727276,-0.9360667575757575,-0.3227336363636364,0.012723818181818182,-0.012902969696969697,-0.01428169696969697,0.15720209090909085,-0.0670479393939394,-0.0022464545454545523,-0.003471969696969697,-0.02054433333333333,0.033054424242424246,0.457298,-14.121212121212121,-57.0,0.3717,0.250794,0.314107,-12.55737,0.3717,2164.121212121212,7712.909090909091,7721.939393939394,7497.606060606061,7523.69696969697,7707.909090909091,7731.818181818182,7557.393939393939,7497.969696969697,1.6769622727272726,0.06393324242424242,-1.0227336363636363,0.012723818181818182,-0.012902969696969697,-0.01428169696969697,-0.003471969696969697,-0.02054433333333333,0.033054424242424246,0.044969575757575764,-0.02809060606060606,0.35757945454545453,0.036874727272727274,-0.016132696969696967,0.011305272727272726,-0.10215433333333328,-0.01719351515151516,-9.454959818181818,0.050293060606060605,-0.1065859393939394,-0.0006658787878787877,1.6614084545454546,0.0710850909090909,-1.0193895757575757,0.015112242424242426,6528.909090909091,-41.57575757575758,191.72727272727272,-25.09090909090909,0.3227336363636364
0 days 00:02:35.094583,-2.3253073939393936,-0.9350325757575757,-0.3230206666666666,0.0059510303030303035,-0.012328545454545453,0.0003773333333333333,0.16425684848484845,-0.042712575757575755,0.19058048484848486,-0.00461369696969697,-0.027656727272727274,0.032261848484848483,0.457298,-15.0,-57.0,0.3717,0.250794,0.314107,-12.55737,0.3717,2173.060606060606,7704.121212121212,7749.333333333333,7471.69696969697,7548.484848484848,7735.363636363636,7747.757575757576,7494.636363636364,7547.969696969697,1.6746926060606062,0.06496742424242424,-1.0230206666666666,0.0059510303030303035,-0.012328545454545453,0.0003773333333333333,-0.00461369696969697,-0.027656727272727274,0.032261848484848483,0.04495,-0.028029,0.357576,0.036873,-0.016135,0.011307,-0.14669151515151513,0.02843869696969697,-9.262813696969696,0.017378363636363636,-0.12116775757575758,0.009040666666666667,1.663457,0.072707,-1.020738,0.015517,6539.636363636364,20.363636363636363,220.06060606060606,46.36363636363637,0.3230206666666666
0 days 00:02:35.159583,-2.3257205588235292,-0.9329050882352942,-0.32236164705882353,0.011737705882352942,-0.006742529411764706,0.013982029411764706,0.3340485,-0.02111732352941177,0.1690344117647059,-0.004000705882352941,-0.03474691176470588,0.03194211764705883,0.457298,-14.970588235294118,-57.0,0.3717,0.250794,0.314107,-12.55737,0.3717,2202.0,7694.558823529412,7834.205882352941,7445.441176470588,7526.764705882353,7743.058823529412,7813.911764705882,7439.85294117647,7561.088235294118,1.6742794411764705,0.06709491176470588,-1.0223616470588235,0.011737705882352942,-0.006742529411764706,0.013982029411764706,-0.004000705882352941,-0.03474691176470588,0.03194211764705883,0.0448515294117647,-0.027921,0.3575752058823529,0.036870617647058825,-0.01613579411764706,0.011309382352941176,-0.05164294117647059,0.04664523529411764,-9.289321029411765,-0.005967117647058824,-0.08473123529411765,0.02638879411764706,1.6695947352941176,0.07512667647058824,-1.0217084117647057,0.023502647058823527,6551.0,25.058823529411764,277.5882352941176,135.47058823529412,0.32236164705882353
0 days 00:02:35.224583,-2.3245857272727273,-0.9318383939393939,-0.321372393939394,0.022084515151515154,-0.004070575757575758,0.021022848484848485,0.038530545454545505,-0.0930789393939394,0.24547263636363637,-0.0050553636363636365,-0.03742830303030303,0.03207681818181818,0.457298,-14.0,-57.0,0.3717,0.250794,0.314107,-12.55737,0.3717,2169.0,7724.69696969697,7792.606060606061,7489.151515151515,7529.363636363636,7757.030303030303,7818.818181818182,7465.575757575758,7529.636363636364,1.6754142727272727,0.06816160606060606,-1.021372393939394,0.022084515151515154,-0.004070575757575758,0.021022848484848485,-0.0050553636363636365,-0.03742830303030303,0.03207681818181818,0.044798000000000004,-0.027872636363636363,0.3575764545454545,0.03686945454545454,-0.01613581818181818,0.011310363636363637,-0.35609015151515155,-0.019679181818181818,-9.200254515151515,0.017245272727272727,-0.04852478787878788,0.0032921515151515153,1.6727852727272727,0.07624763636363636,-1.0223974545454546,0.02494009090909091,6555.69696969697,1.2121212121212122,289.8484848484849,88.81818181818181,0.321372393939394
0 days 00:02:35.289583,-2.322002484848485,-0.9294071515151515,-0.3202623030303031,0.029697030303030305,-0.008830666666666667,0.030145272727272725,0.4619232424242424,-0.2277359696969697,-0.09927857575757573,-0.005258333333333333,-0.03711360606060606,0.031141969696969696,0.457298,-13.181818181818182,-57.0,0.3717,0.250794,0.314107,-12.55737,0.3717,2196.818181818182,7699.181818181818,7787.121212121212,7496.515151515152,7582.878787878788,7681.757575757576,7786.969696969697,7507.151515151515,7614.272727272727,1.6779975151515152,0.07059284848484848,-1.020262303030303,0.029697030303030305,-0.008830666666666667,0.030145272727272725,-0.005258333333333333,-0.03711360606060606,0.031141969696969696,0.044672,-0.027781,0.357583,0.036867,-0.016135,0.011312,0.06149378787878786,-0.1415127575757576,-9.564778575757575,0.04023142424242424,0.028127969696969696,-0.001220727272727273,1.679982,0.078469,-1.024366,0.022092,6562.484848484848,0.9393939393939394,173.27272727272728,149.78787878787878,0.3202623030303031
0 days 00:02:35.354583,-2.316777878787879,-0.9277961818181818,-0.3197955454545456,0.05664548484848485,-0.010405242424242424,0.01695812121212121,0.6193742121212121,-0.16104196969696968,-0.5236201818181818,-0.004815030303030304,-0.036237727272727276,0.03134724242424242,0.457298,-13.0,-57.0,0.3717,0.250794,0.314107,-12.55737,0.3717,2210.2727272727275,7696.212121212121,7822.151515151515,7436.969696969697,7595.787878787879,7718.454545454545,7841.363636363636,7451.212121212121,7557.121212121212,1.6832221212121212,0.07220381818181817,-1.0197955454545455,0.05664548484848485,-0.010405242424242424,0.01695812121212121,-0.004815030303030304,-0.036237727272727276,0.03134724242424242,0.04455681818181819,-0.027720545454545453,0.3575938181818181,0.03686509090909091,-0.01613309090909091,0.011313272727272727,0.22159093939393934,-0.0781249090909091,-9.994022363636363,0.06706466666666668,-0.0063403333333333315,0.013183636363636364,1.6884418181818184,0.08044554545454545,-1.025841090909091,0.022232,6554.575757575758,-8.454545454545455,275.24242424242425,161.45454545454547,0.3197955454545456
0 days 00:02:35.419583,-2.310717411764706,-0.927076205882353,-0.31977526470588247,0.07424770588235294,-0.010621117647058823,0.00912285294117647,0.04254997058823526,-0.11318270588235295,0.2111912941176471,-0.004751617647058824,-0.03335432352941176,0.031303058823529406,0.457298,-13.705882352941176,-57.0,0.3717,0.250794,0.314107,-12.55737,0.3717,2211.705882352941,7669.235294117647,7794.14705882353,7436.058823529412,7646.941176470588,7634.85294117647,7761.970588235294,7477.558823529412,7671.705882352941,1.6892825882352942,0.07292379411764706,-1.0197752647058824,0.07424770588235294,-0.010621117647058823,0.00912285294117647,-0.004751617647058824,-0.03335432352941176,0.031303058823529406,0.04448555882352941,-0.02768435294117647,0.3576006176470588,0.03686391176470588,-0.016131852941176472,0.011314058823529411,-0.2691004117647059,-0.040469970588235295,-9.23552394117647,0.0397374705882353,0.08391976470588235,0.024550441176470587,1.693761588235294,0.08166194117647059,-1.0267585588235293,0.022145617647058823,6546.85294117647,33.529411764705884,123.61764705882354,226.88235294117646,0.31977526470588247
0 days 00:02:35.484583,-2.299481181818182,-0.9240470606060606,-0.3214770303030303,0.10507384848484848,-0.008592,0.007450090909090909,0.3135968484848485,-0.1742698787878788,0.18332009090909093,-0.0028051515151515153,-0.0300799696969697,0.03182887878787879,0.457298,-14.0,-57.0,0.3717,0.250794,0.314107,-12.55737,0.3717,2229.0,7658.787878787879,7838.757575757576,7445.090909090909,7592.484848484848,7690.939393939394,7841.181818181818,7420.454545454545,7582.939393939394,1.700518818181818,0.07595293939393939,-1.0214770303030303,0.10507384848484848,-0.008592,0.007450090909090909,-0.0028051515151515153,-0.0300799696969697,0.03182887878787879,0.044306,-0.02763,0.357621,0.036861,-0.016127,0.011316,0.02752139393939393,-0.10555763636363635,-9.275390606060606,0.03434248484848485,0.024724787878787884,0.02564221212121212,1.709786,0.084531,-1.029219,0.016655,6543.090909090909,6.090909090909091,263.93939393939394,220.72727272727272,0.3214770303030303
0 days 00:02:35.549583,-2.2895308484848487,-0.9230492727272728,-0.3217251818181819,0.11718445454545455,-0.006606909090909091,0.019392757575757577,-0.1694178484848485,0.03539966666666667,0.33028484848484846,-0.003681636363636364,-0.025146272727272725,0.03225472727272727,0.457298,-14.606060606060606,-57.0,0.3717,0.250794,0.314107,-12.55737,0.3717,2248.030303030303,7688.242424242424,7752.727272727273,7499.969696969697,7618.69696969697,7739.424242424242,7777.727272727273,7465.242424242424,7574.69696969697,1.7104691515151516,0.07695072727272727,-1.0217251818181818,0.11718445454545455,-0.006606909090909091,0.019392757575757577,-0.003681636363636364,-0.025146272727272725,0.03225472727272727,0.044233272727272725,-0.027609545454545453,0.3576319090909091,0.03685963636363636,-0.016124727272727273,0.011316454545454546,-0.42092806060606064,0.12784087878787878,-9.11496806060606,0.020285939393939394,0.030007090909090893,0.0021084848484848482,1.7181505454545454,0.08553872727272727,-1.030377181818182,0.014446363636363636,6550.757575757576,35.515151515151516,238.12121212121212,104.27272727272727,0.3217251818181819
0 days 00:02:35.614583,-2.2785869705882353,-0.92126,-0.32139044117647053,0.11755652941176471,-0.0010108823529411763,0.027745617647058823,0.3570434411764706,-0.19083135294117648,-0.3993530882352941,-0.0034052941176470584,-0.021671382352941176,0.03117691176470588,0.457298,-16.41176470588235,-57.0,0.3717,0.250794,0.314107,-12.55737,0.3717,2261.5882352941176,7711.0,7825.235294117647,7451.235294117647,7588.64705882353,7665.794117647059,7805.823529411765,7478.35294117647,7625.264705882353,1.7214130294117647,0.07873999999999999,-1.0213904411764705,0.11755652941176471,-0.0010108823529411763,0.027745617647058823,-0.0034052941176470584,-0.021671382352941176,0.03117691176470588,0.044146,-0.027585,0.357645,0.036858,-0.016122,0.011317,0.10383158823529415,-0.0922564705882353,-9.86040905882353,0.04215014705882353,0.0914665588235294,0.007317,1.728188,0.086748,-1.031767,0.011796,6557.14705882353,3.411764705882353,183.64705882352942,202.47058823529412,0.32139044117647053
0 days 00:02:35.679583,-2.265163757575758,-0.9188441818181818,-0.32227581818181816,0.1308149090909091,-0.002803121212121212,0.02514790909090909,-0.0786753333333333,-0.15176869696969697,0.2556995151515151,-0.004386848484848485,-0.016196727272727272,0.03090687878787879,0.457298,-17.0,-57.0,0.3717,0.250794,0.314107,-12.55737,0.3717,2278.212121212121,7713.060606060606,7752.727272727273,7482.848484848485,7614.30303030303,7732.212121212121,7743.969696969697,7493.151515151515,7595.878787878788,1.7348362424242423,0.08115581818181819,-1.0222758181818181,0.1308149090909091,-0.002803121212121212,0.02514790909090909,-0.004386848484848485,-0.016196727272727272,0.03090687878787879,0.04402151515151515,-0.027570818181818182,0.3576686363636364,0.03685563636363636,-0.016117272727272727,0.011317787878787879,-0.24292721212121213,-0.05563448484848485,-9.194513515151515,0.024132939393939398,0.048976060606060606,-0.0037064848484848483,1.7444986666666669,0.08854909090909091,-1.033971484848485,0.006022424242424242,6553.636363636364,45.39393939393939,193.3030303030303,80.87878787878788,0.32227581818181816
0 days 00:02:35.744583,-2.253022727272727,-0.917489393939394,-0.32272418181818185,0.13727881818181817,-0.0022546060606060607,0.016874545454545455,0.21418321212121208,-0.10478542424242424,-0.0801868484848485,-0.004189121212121213,-0.012787363636363637,0.030006848484848487,0.457298,-17.0,-57.0,0.3717,0.250794,0.314107,-12.55737,0.3717,2305.0,7664.333333333333,7761.878787878788,7464.575757575758,7641.212121212121,7673.666666666667,7778.69696969697,7442.575757575758,7649.333333333333,1.7469772727272728,0.08251060606060606,-1.0227241818181818,0.13727881818181817,-0.0022546060606060607,0.016874545454545455,-0.004189121212121213,-0.012787363636363637,0.030006848484848487,0.0439649696969697,-0.027561848484848488,0.35768500000000003,0.03685439393939394,-0.016114181818181816,0.011318303030303031,0.07489936363636361,-0.004083818181818197,-9.534593969696969,0.023563272727272724,0.028401606060606058,0.012377181818181818,1.755250909090909,0.08953521212121211,-1.0355383333333332,0.003149212121212121,6546.212121212121,50.75757575757576,180.0,219.9090909090909,0.32272418181818185
0 days 00:02:35.809583,-2.238592,-0.9154287878787879,-0.32433551515151526,0.15530139393939396,0.006518909090909091,0.015646121212121212,0.036980575757575726,0.042634060606060606,0.15865578787878787,-0.004265333333333333,-0.010847090909090909,0.030696848484848487,0.457298,-20.09090909090909,-57.09090909090909,0.3717,0.250794,0.314107,-12.55737,0.3717,2334.3636363636365,7662.515151515152,7808.666666666667,7426.757575757576,7622.515151515152,7684.818181818182,7787.181818181818,7442.787878787879,7620.818181818182,1.7614079999999999,0.08457121212121212,-1.0243355151515152,0.15530139393939396,0.006518909090909091,0.015646121212121212,-0.004265333333333333,-0.010847090909090909,0.030696848484848487,0.043912,-0.02755,0.357708,0.036853,-0.01611,0.011319,-0.067708303030303,0.14189745454545452,-9.291489090909092,0.018251272727272727,0.04076409090909091,0.02888987878787879,1.769881,0.090688,-1.037777,0.000116,6543.151515151515,37.78787878787879,203.87878787878788,197.84848484848484,0.32433551515151526
0 days 00:02:35.874583,-2.223644575757576,-0.9131757575757575,-0.3259708787878788,0.14640887878787878,0.011648848484848484,0.023143999999999998,-0.5357381212121213,-0.06271712121212121,0.41481669696969703,-0.00560809090909091,-0.007611939393939393,0.03070693939393939,0.457298,-21.0,-58.0,0.3717,0.250794,0.314107,-12.55737,0.3717,2348.0,7692.060606060606,7753.69696969697,7486.424242424242,7619.484848484848,7743.606060606061,7772.909090909091,7436.515151515152,7594.666666666667,1.7763554242424242,0.08682424242424243,-1.0259708787878787,0.14640887878787878,0.011648848484848484,0.023143999999999998,-0.00560809090909091,-0.007611939393939393,0.03070693939393939,0.04388321212121213,-0.02753712121212121,0.357733,0.03685148484848485,-0.016105454545454544,0.01132051515151515,-0.604965787878788,0.049183212121212135,-9.032019333333334,-0.013997363636363638,-0.014604000000000008,0.007583151515151516,1.7860726666666664,0.09185163636363636,-1.0394603333333332,-0.001230969696969697,6547.454545454545,64.33333333333333,242.3030303030303,132.27272727272728,0.3259708787878788
0 days 00:02:35.939583,-2.2115421470588235,-0.9118525882352941,-0.3258724705882352,0.1477064117647059,0.005857970588235294,0.023786323529411763,0.2993445294117647,-0.24535541176470588,-0.1703603235294118,-0.006515117647058824,-0.005417764705882353,0.02958555882352941,0.457298,-21.0,-58.0,0.3717,0.250794,0.314107,-12.55737,0.3717,2365.6470588235293,7664.705882352941,7723.735294117647,7542.794117647059,7638.5,7577.911764705882,7738.5,7563.323529411765,7671.117647058823,1.7884578529411765,0.08814741176470588,-1.0258724705882352,0.1477064117647059,0.005857970588235294,0.023786323529411763,-0.006515117647058824,-0.005417764705882353,0.02958555882352941,0.04387973529411765,-0.027536529411764706,0.3577464411764706,0.03685085294117647,-0.016103117647058823,0.011321,0.2659984117647058,-0.14200376470588236,-9.631232764705882,0.06626267647058823,0.08185179411764705,-0.012006000000000001,1.794425911764706,0.09219561764705882,-1.0404879705882353,-0.0034012647058823528,6548.529411764706,-26.323529411764707,40.970588235294116,189.47058823529412,0.3258724705882352
0 days 00:02:36.004583,-2.196508818181818,-0.9103891212121212,-0.32737751515151525,0.14032348484848486,0.005566090909090909,0.03248209090909091,-0.05077996969696963,-0.15879015151515155,-0.25436006060606065,-0.008299818181818183,-0.00823269696969697,0.029913848484848484,0.457298,-22.393939393939394,-58.696969696969695,0.3717,0.250794,0.314107,-12.55737,0.3717,2396.5757575757575,7772.727272727273,7832.272727272727,7364.787878787879,7603.878787878788,7761.090909090909,7858.272727272727,7388.454545454545,7558.30303030303,1.8034911818181818,0.08961087878787878,-1.0273775151515152,0.14032348484848486,0.005566090909090909,0.03248209090909091,-0.008299818181818183,-0.00823269696969697,0.029913848484848484,0.043913,-0.027557,0.357778,0.03685,-0.016098,0.011321,-0.11529366666666672,-0.0320489696969697,-9.70827412121212,0.04384909090909091,-0.07127421212121213,0.016364909090909093,1.812823,0.092031,-1.043324,-0.013489,6553.909090909091,36.39393939393939,335.8181818181818,188.54545454545453,0.32737751515151525
0 days 00:02:36.069583,-2.1830822058823527,-0.909826205882353,-0.3290629705882353,0.15202161764705882,-0.004007264705882353,0.0024103529411764707,-0.1005295294117647,-0.20441167647058822,-0.011766264705882339,-0.009374529411764707,-0.004379058823529411,0.030467617647058822,0.457298,-23.794117647058822,-59.0,0.3717,0.250794,0.314107,-12.55737,0.3717,2429.6470588235293,7653.411764705882,7711.735294117647,7466.64705882353,7699.85294117647,7686.088235294118,7663.911764705882,7459.823529411765,7699.911764705882,1.816917794117647,0.09017379411764706,-1.0290629705882353,0.15202161764705882,-0.004007264705882353,0.0024103529411764707,-0.009374529411764707,-0.004379058823529411,0.030467617647058822,0.043967970588235296,-0.027557617647058823,0.3578014705882353,0.03685,-0.016094911764705882,0.011321617647058824,-0.11009305882352943,-0.06321805882352942,-9.466825617647059,-0.008092499999999999,0.06157370588235295,0.029146088235294118,1.8250721764705882,0.09231944117647059,-1.0448335294117648,-0.0134785,6534.0,131.02941176470588,94.97058823529412,153.8235294117647,0.3290629705882353
0 days 00:02:36.134583,-2.170133909090909,-0.9099061818181818,-0.3306556666666667,0.1562720303030303,-0.009809848484848484,0.013473212121212122,-0.003353181818181776,-0.16137284848484848,0.15588148484848482,-0.007684545454545454,-0.002829878787878788,0.031041515151515153,0.457298,-24.0,-59.0,0.3717,0.250794,0.314107,-12.55737,0.3717,2457.4242424242425,7656.848484848485,7774.121212121212,7433.818181818182,7636.090909090909,7682.090909090909,7792.606060606061,7405.242424242424,7644.606060606061,1.829866090909091,0.09009381818181818,-1.0306556666666666,0.1562720303030303,-0.009809848484848484,0.013473212121212122,-0.007684545454545454,-0.002829878787878788,0.031041515151515153,0.04401145454545454,-0.02755890909090909,0.35781918181818184,0.03685,-0.016092545454545457,0.011322090909090908,-0.002456121212121283,-0.043057545454545446,-9.298265878787879,0.04624618181818182,-0.01853248484848485,0.0363770303030303,1.8344079090909091,0.09235072727272728,-1.0459741818181818,-0.01363790909090909,6539.181818181818,64.36363636363636,212.03030303030303,247.0,0.3306556666666667
0 days 00:02:36.199583,-2.1544370909090906,-0.9104090606060606,-0.33410975757575767,0.17959578787878788,-0.014516666666666666,-0.01586433333333333,0.34643348484848485,-0.13797415151515152,-0.29928921212121207,-0.006007909090909091,-0.0015506666666666668,0.03230539393939394,0.457298,-24.393939393939394,-59.39393939393939,0.3717,0.250794,0.314107,-12.55737,0.3717,2485.3939393939395,7691.151515151515,7773.757575757576,7428.666666666667,7594.363636363636,7688.030303030303,7749.545454545455,7444.454545454545,7583.545454545455,1.8455629090909091,0.08959093939393939,-1.0341097575757576,0.17959578787878788,-0.014516666666666666,-0.01586433333333333,-0.006007909090909091,-0.0015506666666666668,0.03230539393939394,0.044106,-0.027568,0.357851,0.03685,-0.016088,0.011323,0.3696141212121212,-0.037464575757575766,-9.753195999999999,0.06415715151515151,0.04944221212121212,0.02053748484848485,1.851937,0.090878,-1.048036,-0.015296999999999998,6518.424242424242,38.78787878787879,204.45454545454547,141.54545454545453,0.33410975757575767
0 days 00:02:36.264583,-2.1408943939393943,-0.9114900909090909,-0.3367202727272727,0.1855049393939394,-0.019035575757575758,-0.012366030303030304,-0.13044290909090916,-0.14293981818181817,0.16275706060606063,-0.005313999999999999,0.0032704545454545456,0.03227490909090909,0.457298,-25.484848484848484,-60.0,0.3717,0.250794,0.314107,-12.55737,0.3717,2509.3939393939395,7691.121212121212,7707.454545454545,7456.121212121212,7581.363636363636,7693.0,7716.181818181818,7480.333333333333,7577.30303030303,1.859105606060606,0.0885099090909091,-1.0367202727272726,0.1855049393939394,-0.019035575757575758,-0.012366030303030304,-0.005313999999999999,0.0032704545454545456,0.03227490909090909,0.04415393939393939,-0.02758030303030303,0.357863303030303,0.03685,-0.016086727272727273,0.011323424242424244,-0.04347181818181821,-0.0640980606060606,-9.290216696969697,0.05664057575757576,0.05994018181818182,0.0012206666666666674,1.8600374848484849,0.089758,-1.0488658181818182,-0.01523378787878788,6518.848484848485,36.72727272727273,175.27272727272728,84.75757575757575,0.3367202727272727
0 days 00:02:36.329583,-2.126958676470588,-0.9129946176470588,-0.33870417647058826,0.17305482352941176,-0.025991323529411765,0.01013220588235294,-0.40828541176470584,-0.06569991176470588,0.3908987941176471,-0.005567882352941177,0.006438176470588235,0.030955558823529412,0.457298,-26.294117647058822,-60.0,0.3717,0.250794,0.314107,-12.55737,0.3717,2517.705882352941,7725.794117647059,7678.470588235294,7482.029411764706,7599.117647058823,7671.764705882353,7723.882352941177,7496.617647058823,7613.294117647059,1.8730413235294119,0.08700538235294118,-1.0387041764705882,0.17305482352941176,-0.025991323529411765,0.01013220588235294,-0.005567882352941177,0.006438176470588235,0.030955558823529412,0.044219,-0.027597,0.35788,0.03685,-0.016085,0.011324,-0.259995411764706,-0.011488970588235291,-9.06649238235294,0.06644926470588236,0.019215352941176468,-0.021994147058823528,1.871031,0.088238,-1.049992,-0.015148000000000002,6532.558823529412,32.088235294117645,142.7058823529412,119.26470588235294,0.33870417647058826
0 days 00:02:36.394583,-2.1140451515151515,-0.9147572121212121,-0.34036603030303025,0.16428003030303032,-0.027063575757575755,0.024585212121212122,-0.17729848484848487,-0.0890170909090909,0.3912088181818182,-0.005222757575757576,0.0059897272727272724,0.03085827272727273,0.457298,-27.181818181818183,-60.09090909090909,0.3717,0.250794,0.314107,-12.55737,0.3717,2531.6363636363635,7658.090909090909,7789.454545454545,7404.333333333333,7675.363636363636,7703.212121212121,7796.878787878788,7384.393939393939,7641.30303030303,1.8859548484848485,0.08524278787878788,-1.0403660303030302,0.16428003030303032,-0.027063575757575755,0.024585212121212122,-0.005222757575757576,0.0059897272727272724,0.03085827272727273,0.04429809090909091,-0.027648818181818184,0.35790272727272726,0.03685,-0.01608318181818182,0.01132490909090909,-0.030273454545454544,-0.03311430303030303,-9.062381606060605,0.009070242424242425,-0.06713866666666667,0.038714787878787876,1.885110090909091,0.08605618181818181,-1.0514274545454545,-0.01855890909090909,6539.636363636364,81.57575757575758,236.78787878787878,247.5151515151515,0.34036603030303025
0 days 00:02:36.459583,-2.103476272727273,-0.9167223939393939,-0.3394387272727273,0.15663327272727273,-0.03234875757575758,0.0344770303030303,-0.02015339393939396,-0.08199278787878787,-0.17132175757575757,-0.005453969696969697,0.0048818484848484845,0.031833151515151516,0.457298,-29.0,-61.0,0.3717,0.250794,0.314107,-12.55737,0.3717,2561.818181818182,7665.212121212121,7792.393939393939,7431.151515151515,7664.757575757576,7669.636363636364,7761.272727272727,7437.272727272727,7680.878787878788,1.8965237272727271,0.08327760606060607,-1.0394387272727272,0.15663327272727273,-0.03234875757575758,0.0344770303030303,-0.005453969696969697,0.0048818484848484845,0.031833151515151516,0.04433818181818182,-0.027669818181818184,0.35791290909090906,0.03685,-0.016083,0.011325272727272727,0.12218869696969699,-0.02305281818181817,-9.62260296969697,0.02311190909090909,0.0013094545454545438,0.031316636363636366,1.890433818181818,0.0847920909090909,-1.0519590909090908,-0.019740818181818182,6547.939393939394,75.93939393939394,156.12121212121212,236.6060606060606,0.3394387272727273
0 days 00:02:36.524583,-2.0929270303030303,-0.9191364848484849,-0.340043878787879,0.15039321212121212,-0.036811303030303034,0.030792181818181823,-0.44745290909090907,-0.07787884848484848,0.368717909090909,-0.004467181818181818,0.0035014545454545454,0.03256881818181818,7.3974449090909085,-24.606060606060606,-51.75757575757576,0.10137272727272727,0.12014236363636364,0.08566554545454545,-3.3880570909090912,0.10137272727272727,2188.242424242424,7722.333333333333,7597.424242424242,7370.545454545455,7782.272727272727,7706.272727272727,7370.272727272727,7322.575757575758,7904.818181818182,1.9070729696969697,0.08086351515151516,-1.040043878787879,0.15039321212121212,-0.036811303030303034,0.030792181818181823,-0.004467181818181818,0.0035014545454545454,0.03256881818181818,0.044424,-0.027712,0.357934,0.03685,-0.016083,0.011326,-0.3320609393939394,-0.026100909090909088,-9.086026303030303,0.1446051515151515,-0.08179457575757576,0.022971393939393937,1.900876,0.082003,-1.052994,-0.021983,6461.393939393939,458.42424242424244,-75.36363636363636,173.87878787878788,0.340043878787879
0 days 00:02:36.589583,-2.084590484848485,-0.9216486666666667,-0.34008672727272726,0.13240124242424242,-0.03127454545454545,0.0010113030303030308,0.2760547575757577,0.3661768181818182,-2.8062107575757578,0.03919263636363637,-0.020216969696969695,0.031201727272727273,10.0,-29.0,-61.96969696969697,0.010489969696969697,0.064543,0.0,-0.10486727272727273,0.0438590606060606,2596.818181818182,8719.60606060606,8427.939393939394,8308.545454545454,8768.757575757576,9503.787878787878,9437.666666666666,8814.848484848484,8995.939393939394,1.9154095151515151,0.07835133333333333,-1.0400867272727272,0.13240124242424242,-0.03127454545454545,0.0010113030303030308,0.03919263636363637,-0.020216969696969695,0.031201727272727273,0.044433545454545455,-0.02775336363636364,0.3579543636363636,0.03685,-0.016083636363636362,0.011326636363636363,0.02447327272727272,-0.17788233333333334,-12.273171151515152,1.2626065151515151,-0.7288559696969698,-0.04246560606060606,1.908182090909091,0.07945118181818182,-1.0535412727272728,-0.0025707272727272727,9308.484848484848,121.81818181818181,565.7272727272727,645.5454545454545,0.34008672727272726
0 days 00:02:36.654583,-2.075439029411765,-0.9220935,-0.3496044999999999,0.16149079411764708,0.030175941176470586,-0.21995773529411766,0.3378038235294118,1.2956143823529411,-1.549924794117647,0.11941064705882352,-0.049496058823529414,0.027614588235294116,10.0,-29.0,-62.0,0.032159,0.073353,0.0,-1.4784125588235295,0.085199,2633.0,8362.235294117647,8998.0,7873.558823529412,8073.85294117647,6565.5,8594.14705882353,7337.705882352941,7615.705882352941,1.9245609705882354,0.07790649999999999,-1.0496044999999998,0.16149079411764708,0.030175941176470586,-0.21995773529411766,0.11941064705882352,-0.049496058823529414,0.027614588235294116,0.04438805882352941,-0.027786647058823527,0.35797,0.03685,-0.016084117647058825,0.011327117647058824,-0.19941970588235292,-0.010541117647058817,-11.084386470588235,1.003346205882353,0.02946926470588235,0.08149273529411764,1.913642882352941,0.07821652941176471,-1.0559804705882354,0.021183294117647057,6394.0,-873.9705882352941,103.05882352941177,1628.1470588235295,0.3496044999999999
0 days 00:02:36.719583,-2.066219515151515,-0.9169649696969697,-0.3682572727272728,0.17302575757575758,0.1195570303030303,-0.22717387878787879,0.4490729393939394,1.161653515151515,0.5953267575757576,0.1309418484848485,-0.04200072727272727,0.04040060606060606,10.0,-21.96969696969697,-62.878787878787875,0.032159,0.073353,0.0,-2.9910959696969694,0.085199,2667.2727272727275,7145.636363636364,7699.818181818182,7575.090909090909,7624.575757575758,7762.030303030303,7419.181818181818,7539.818181818182,7521.757575757576,1.933780484848485,0.08303503030303029,-1.0682572727272728,0.17302575757575758,0.1195570303030303,-0.22717387878787879,0.1309418484848485,-0.04200072727272727,0.04040060606060606,0.044006,-0.027859,0.358,0.03685,-0.016085,0.011328,0.1107066363636364,-0.03906239393939394,-8.942234848484848,-0.5130134848484849,-0.14615881818181817,0.15999348484848486,1.923287,0.079893,-1.071929,0.116143,6439.818181818182,162.15151515151516,59.63636363636363,-254.72727272727272,0.3682572727272728
0 days 00:02:36.784583,-2.0552320588235293,-0.9068204705882353,-0.383642794117647,0.2060465588235294,0.18721126470588234,-0.19444985294117648,0.5899810882352942,0.8980208529411765,-0.17888767647058823,0.10439076470588235,-0.055377264705882355,0.0357819705882353,10.0,-14.235294117647058,-64.3529411764706,0.020632294117647058,0.08948352941176471,0.0,-4.690907323529411,0.0014547058823529404,2661.176470588235,8206.764705882353,7600.058823529412,7531.117647058823,7564.735294117647,8402.264705882353,7991.35294117647,7761.029411764706,7946.470588235294,1.9447679411764707,0.0931795294117647,-1.083642794117647,0.2060465588235294,0.18721126470588234,-0.19444985294117648,0.10439076470588235,-0.055377264705882355,0.0357819705882353,0.04382011764705882,-0.027865588235294118,0.3580169411764706,0.03685,-0.016086411764705884,0.011328470588235294,0.07775158823529409,-0.11572270588235295,-9.688821235294117,-0.015380794117647057,-0.08880976470588235,-0.10280467647058823,1.9299175882352941,0.08651652941176471,-1.0850857058823529,0.1058620588235294,7095.705882352941,297.79411764705884,342.5882352941176,-159.1764705882353,0.383642794117647
0 days 00:02:36.849583,-2.0423748787878786,-0.8923495757575758,-0.40001296969696964,0.23560184848484847,0.2569580303030303,-0.2463458787878788,0.5035987272727273,1.0117287272727273,-0.5189888181818182,0.11804957575757576,-0.05418315151515152,0.032731030303030303,10.0,-14.151515151515152,-61.84848484848485,0.018007121212121214,0.10486230303030303,0.0,-6.5481632727272725,0.012672969696969698,2667.030303030303,7965.30303030303,8264.333333333334,7749.787878787879,7803.818181818182,7479.727272727273,8211.030303030304,7698.909090909091,7233.545454545455,1.9576251212121214,0.10765042424242424,-1.1000129696969696,0.23560184848484847,0.2569580303030303,-0.2463458787878788,0.11804957575757576,-0.05418315151515152,0.032731030303030303,0.043611,-0.027873,0.358036,0.03685,-0.016088,0.011329,-0.008611424242424233,-0.17066175757575758,-10.03160512121212,0.26871006060606056,0.08521987878787879,-0.004971575757575758,1.937377,0.093968,-1.099887,0.094296,6574.121212121212,-597.3636363636364,378.57575757575756,187.57575757575756,0.40001296969696964
0 days 00:02:36.914583,-2.0299251818181823,-0.8732308484848486,-0.41920372727272737,0.2532677575757576,0.32030857575757576,-0.2286928484848485,0.1328884242424242,0.8013588787878787,0.4673552727272727,0.0900410303030303,-0.04001363636363636,0.03545021212121212,10.0,-15.0,-61.878787878787875,0.01209839393939394,0.12185551515151516,0.0,-8.094133242424244,-0.00936278787878788,2664.7272727272725,7700.666666666667,7374.212121212121,7193.242424242424,7654.575757575758,8092.757575757576,7143.181818181818,7198.757575757576,7886.0,1.970074818181818,0.1267691515151515,-1.1192037272727273,0.2532677575757576,0.32030857575757576,-0.2286928484848485,0.0900410303030303,-0.04001363636363636,0.03545021212121212,0.043176,-0.027876515151515152,0.35806763636363637,0.036849121212121215,-0.01609151515151515,0.011329,-0.19966263636363638,-0.0064216363636363785,-9.019116969696968,-0.5842063636363637,0.19971454545454545,-0.0010653333333333348,1.9530185454545455,0.11742460606060606,-1.1245352424242423,0.10034030303030303,6467.242424242424,817.0909090909091,75.45454545454545,-185.12121212121212,0.41920372727272737
0 days 00:02:36.979583,-2.0155746666666667,-0.8506112121212122,-0.4351041515151517,0.2543949090909091,0.37180824242424243,-0.2031880909090909,0.16380578787878786,0.7680422121212122,0.7604164545454546,0.09570121212121212,-0.032450818181818185,0.03144409090909091,10.0,-15.727272727272727,-61.63636363636363,0.023650333333333332,0.12414166666666668,0.0,-9.32375206060606,0.046801333333333334,2687.2727272727275,7466.545454545455,7740.060606060606,7292.454545454545,7579.363636363636,7486.727272727273,7871.878787878788,7228.939393939394,7685.121212121212,1.9844253333333333,0.14938878787878787,-1.1351041515151516,0.2543949090909091,0.37180824242424243,-0.2031880909090909,0.09570121212121212,-0.032450818181818185,0.03144409090909091,0.04294566666666667,-0.027886333333333332,0.35808433333333334,0.036849,-0.016093333333333334,0.011329,-0.11120972727272727,-0.0754320606060606,-8.724816515151515,0.25452030303030304,0.03660627272727273,0.016224272727272726,1.9613973333333334,0.13250599999999998,-1.1366633333333334,0.09442766666666666,6450.393939393939,35.303030303030305,221.9090909090909,594.030303030303,0.4351041515151517
0 days 00:02:37.044583,-2.002188617647059,-0.8240729705882353,-0.4493716470588234,0.25405370588235293,0.42275376470588233,-0.14687879411764704,0.24515814705882355,0.6610819411764706,1.113805911764706,0.09730602941176471,-0.02980605882352941,0.033948,10.0,-20.294117647058822,-60.529411764705884,0.05530638235294118,0.1239409705882353,0.0,-10.430222029411764,0.14399920588235293,2746.823529411765,7463.823529411765,7552.470588235294,7157.235294117647,7449.911764705882,7553.323529411765,7522.617647058823,7151.411764705882,7411.882352941177,1.9978113823529409,0.17592702941176472,-1.1493716470588233,0.25405370588235293,0.42275376470588233,-0.14687879411764704,0.09730602941176471,-0.02980605882352941,0.033948,0.042605,-0.027905,0.358109,0.036849,-0.016096,0.011329,0.013011235294117681,-0.1674229705882353,-8.36560782352941,0.004588382352941175,-0.004688911764705885,0.00021541176470588267,1.9738400000000003,0.156198,-1.15412,0.080935,6226.735294117647,145.3235294117647,255.94117647058823,162.14705882352942,0.4493716470588234
0 days 00:02:37.109583,-1.9886473333333332,-0.7943999696969697,-0.45992427272727276,0.27520748484848484,0.46723530303030303,-0.07871433333333333,0.6520230909090909,0.5330371818181818,0.9047116969696969,0.09039675757575759,-0.027581181818181817,0.033510000000000005,10.0,-25.151515151515152,-58.84848484848485,0.06845163636363637,0.12794363636363634,0.0,-11.403168454545455,0.10579663636363637,2791.030303030303,7338.121212121212,7376.575757575758,7000.515151515152,7350.969696969697,7428.060606060606,7544.151515151515,7133.666666666667,7410.878787878788,2.011352666666667,0.2056000303030303,-1.1599242727272727,0.27520748484848484,0.46723530303030303,-0.07871433333333333,0.09039675757575759,-0.027581181818181817,0.033510000000000005,0.042284272727272726,-0.027925363636363634,0.3581366363636364,0.03684827272727272,-0.01609890909090909,0.011327545454545455,0.45247387878787876,-0.24331193939393939,-8.575284,-0.0406530606060606,0.009033151515151518,-0.0030628787878787876,1.989344,0.1890729090909091,-1.1690720000000001,0.07558663636363636,6183.545454545455,80.48484848484848,213.45454545454547,277.57575757575756,0.45992427272727276
0 days 00:02:37.174583,-1.972029878787879,-0.7626647575757576,-0.4648243939393941,0.29468527272727274,0.5096167575757576,-0.016409030303030304,-0.10642536363636367,0.5119870909090909,1.3350942121212122,0.07448875757575757,-0.026845333333333332,0.03415651515151515,10.0,-26.12121212121212,-57.878787878787875,0.07287621212121212,0.13076,0.0,-12.262363393939394,0.10341778787878789,2809.151515151515,7531.484848484848,7479.848484848485,7056.424242424242,7509.969696969697,7662.363636363636,7469.30303030303,7102.454545454545,7566.060606060606,2.027970121212121,0.23733524242424242,-1.164824393939394,0.29468527272727274,0.5096167575757576,-0.016409030303030304,0.07448875757575757,-0.026845333333333332,0.03415651515151515,0.04213854545454545,-0.027934454545454547,0.35815072727272723,0.03684790909090909,-0.016100454545454546,0.011326727272727273,-0.2829960303030304,-0.08348127272727274,-8.127959272727274,-0.2743254242424243,0.005149151515151506,0.01697887878787879,1.9972356363636365,0.20623381818181818,-1.1756346363636363,0.07174781818181818,6283.575757575758,327.75757575757575,231.24242424242425,191.0,0.4648243939393941
0 days 00:02:37.239583,-1.958998588235294,-0.7273386764705883,-0.46721473529411783,0.26701814705882354,0.5422606470588236,0.06966020588235294,0.03145297058823523,0.3490819117647059,0.8860994117647059,0.06148432352941176,-0.025110176470588236,0.03375688235294118,10.0,-28.352941176470587,-55.470588235294116,0.06958738235294118,0.1323220588235294,0.0,-13.160551588235293,0.059391147058823535,2837.0588235294117,7522.676470588235,7520.794117647059,7077.235294117647,7487.941176470588,7610.764705882353,7588.705882352941,7037.764705882353,7525.382352941177,2.041001411764706,0.2726613235294118,-1.1672147352941178,0.26701814705882354,0.5422606470588236,0.06966020588235294,0.06148432352941176,-0.025110176470588236,0.03375688235294118,0.041884,-0.027949,0.358188,0.036847,-0.016105,0.011324,-0.18207144117647053,-0.1565085294117647,-8.571030588235294,-0.14600323529411763,-0.018296176470588232,0.011051,2.018012,0.254562,-1.185191,0.053416,6270.294117647059,254.5,317.70588235294116,328.6764705882353,0.46721473529411783
0 days 00:02:37.304583,-1.944573575757576,-0.6906782727272727,-0.4644104848484849,0.2664772121212121,0.5671658181818182,0.11426372727272728,0.31528160606060607,0.2252817878787879,0.527149696969697,0.051507000000000004,-0.022174212121212122,0.03430830303030303,10.0,-30.272727272727273,-52.18181818181818,0.08778315151515151,0.13141666666666668,0.0,-14.085161636363637,0.13036933333333334,2902.818181818182,7506.515151515152,7540.909090909091,7079.939393939394,7507.878787878788,7528.575757575758,7550.090909090909,7138.30303030303,7564.151515151515,2.055426424242424,0.3093217272727273,-1.1644104848484849,0.2664772121212121,0.5671658181818182,0.11426372727272728,0.051507000000000004,-0.022174212121212122,0.03430830303030303,0.04187309090909091,-0.027930454545454547,0.35821581818181814,0.036847,-0.016107727272727274,0.011322363636363637,0.12283975757575755,-0.20889551515151514,-8.930693636363637,-0.1247410303030303,0.08878578787878788,0.019805,2.030083454545455,0.2849361818181818,-1.1866320909090908,0.048215090909090916,6276.848484848485,201.8181818181818,187.8181818181818,315.75757575757575,0.4644104848484849
0 days 00:02:37.369583,-1.9299051818181816,-0.6532997575757575,-0.4585469090909091,0.26962257575757576,0.5815743939393939,0.1513150909090909,0.026128424242424286,0.04358966666666667,0.4827529696969697,0.039486,-0.01909690909090909,0.035135484848484846,10.0,-31.12121212121212,-49.81818181818182,0.10579054545454546,0.13252848484848484,0.0,-14.834563303030304,0.17693027272727274,2958.818181818182,7566.181818181818,7557.363636363636,7119.424242424242,7472.121212121212,7619.848484848485,7578.878787878788,7126.787878787879,7490.424242424242,2.0700948181818184,0.3467002424242424,-1.158546909090909,0.26962257575757576,0.5815743939393939,0.1513150909090909,0.039486,-0.01909690909090909,0.035135484848484846,0.041864,-0.027915,0.358239,0.036847,-0.01611,0.011321,-0.13260533333333333,-0.2848308484848485,-8.96445896969697,-0.16642257575757577,0.00044393939393939447,0.011519,2.040143,0.310248,-1.187833,0.043881,6289.121212121212,202.0909090909091,290.1818181818182,227.8181818181818,0.4585469090909091
0 days 00:02:37.434583,-1.9164660303030305,-0.617495303030303,-0.4534861515151516,0.2741363636363636,0.5838487575757576,0.16091378787878788,-0.0426571515151515,-0.007591727272727283,0.547649909090909,0.02240681818181818,-0.015610424242424243,0.03581318181818182,10.0,-33.15151515151515,-46.39393939393939,0.14254957575757576,0.14243854545454543,0.0,-15.480646636363636,0.28838796969696967,3058.848484848485,7520.030303030303,7448.0,7108.666666666667,7472.878787878788,7569.848484848485,7454.363636363636,7098.0,7461.424242424242,2.0835339696969695,0.38250469696969697,-1.1534861515151515,0.2741363636363636,0.5838487575757576,0.16091378787878788,0.02240681818181818,-0.015610424242424243,0.03581318181818182,0.0421009696969697,-0.027738030303030303,0.35827960606060605,0.03684821212121212,-0.01611363636363636,0.011318575757575756,-0.1745088787878788,-0.15997869696969697,-8.902047757575758,-0.24729233333333336,0.008115727272727281,0.013449969696969696,2.0550484545454544,0.34778800000000004,-1.1855093636363636,0.03229918181818182,6207.181818181818,239.0909090909091,232.0,175.0909090909091,0.4534861515151516
0 days 00:02:37.499583,-1.9031324117647057,-0.5798249117647059,-0.4479943529411765,0.2633204705882353,0.5780404411764706,0.18759417647058824,0.04225320588235293,-0.23404238235294117,0.7109745882352941,0.008142911764705883,-0.01476070588235294,0.03610411764705883,10.0,-34.529411764705884,-41.94117647058823,0.1324850588235294,0.13055282352941178,0.0,-16.13269244117647,0.10870264705882353,3120.8823529411766,7635.058823529412,7465.617647058823,7080.735294117647,7487.735294117647,7612.794117647059,7556.85294117647,7137.735294117647,7439.558823529412,2.0968675882352943,0.4201750882352941,-1.1479943529411765,0.2633204705882353,0.5780404411764706,0.18759417647058824,0.008142911764705883,-0.01476070588235294,0.03610411764705883,0.04237008823529412,-0.027578264705882354,0.35832779411764704,0.03684861764705882,-0.016117147058823528,0.011316235294117648,-0.09214149999999999,-0.2565200588235294,-8.739458941176471,-0.027681352941176473,-0.021599323529411765,0.005399764705882353,2.0737842352941174,0.39498220588235294,-1.1801976470588236,0.01879673529411765,6264.764705882353,178.5,295.5882352941176,173.7058823529412,0.4479943529411765
0 days 00:02:37.564583,-1.8882260606060606,-0.5408903333333333,-0.4385752727272727,0.2672426666666667,0.5715068484848485,0.23115572727272726,0.31661927272727275,-0.3068460606060606,0.6274969393939394,0.0017926666666666668,-0.012894242424242424,0.03687693939393939,10.0,-36.0,-39.0,0.11774,0.12494599999999999,0.0,-16.73298975757576,0.060985,3140.0,7500.242424242424,7539.30303030303,7159.393939393939,7376.393939393939,7612.848484848485,7419.787878787879,7124.060606060606,7437.969696969697,2.1117739393939394,0.4591096666666667,-1.1385752727272727,0.2672426666666667,0.5715068484848485,0.23115572727272726,0.0017926666666666668,-0.012894242424242424,0.03687693939393939,0.042556,-0.027506,0.358363,0.036848,-0.016119,0.011315,0.20549242424242425,-0.2617779696969697,-8.830344393939393,-0.22280421212121213,0.019072606060606068,0.039802333333333335,2.088399,0.431802,-1.174057,0.009146,6211.030303030303,253.0,234.9090909090909,85.36363636363636,0.4385752727272727
0 days 00:02:37.629583,-1.8734080606060606,-0.5026388484848485,-0.4282609696969699,0.2785168484848485,0.5608993333333334,0.26406172727272725,0.11559939393939393,-0.3228658181818182,0.6339091515151515,-0.009217727272727272,-0.011524727272727272,0.036757787878787876,10.0,-36.0,-36.72727272727273,0.13937563636363637,0.13739181818181817,0.0,-17.246112666666665,0.214441,3207.4242424242425,7625.090909090909,7468.0,7211.393939393939,7364.939393939394,7620.818181818182,7554.090909090909,7236.0,7389.363636363636,2.1265919393939394,0.49736115151515153,-1.1282609696969699,0.2785168484848485,0.5608993333333334,0.26406172727272725,-0.009217727272727272,-0.011524727272727272,0.036757787878787876,0.04289709090909091,-0.02738636363636364,0.3584113636363636,0.03684630303030303,-0.016121545454545454,0.011314151515151515,0.01982715151515152,-0.1779712121212121,-8.823360545454547,-0.05270472727272727,-0.013694121212121222,-0.005467212121212121,2.108742272727273,0.48189739393939396,-1.1607739696969697,-0.002966121212121212,6283.575757575758,109.9090909090909,274.3939393939394,61.15151515151515,0.4282609696969699
0 days 00:02:37.694583,-1.8563847352941174,-0.4656073235294118,-0.41262382352941196,0.28009370588235294,0.5440376764705883,0.2937292647058824,0.06545558823529414,-0.42241811764705883,0.5603631764705883,-0.018194676470588235,-0.010187147058823528,0.03718226470588235,10.0,-36.0,-31.735294117647058,0.147489,0.142059,0.0,-17.711108617647056,0.271987,3307.470588235294,7662.5,7497.029411764706,7255.735294117647,7432.470588235294,7682.235294117647,7500.35294117647,7286.676470588235,7410.382352941177,2.1436152647058826,0.5343926764705882,-1.112623823529412,0.28009370588235294,0.5440376764705883,0.2937292647058824,-0.018194676470588235,-0.010187147058823528,0.03718226470588235,0.04307188235294118,-0.02732735294117647,0.3584329411764706,0.036845764705882356,-0.016122705882352942,0.011313764705882353,-0.020708882352941188,-0.19735179411764706,-8.899586264705883,-0.07071458823529411,-0.002024941176470591,0.010275470588235294,2.1183460588235294,0.5049858235294118,-1.1529017647058823,-0.007578882352941176,6311.64705882353,152.52941176470588,242.47058823529412,-41.0,0.41262382352941196
0 days 00:02:37.759583,-1.841039696969697,-0.4292857272727273,-0.3973168484848484,0.27598796969696965,0.5198262727272728,0.32751260606060606,-0.03616733333333333,-0.5163863939393939,0.4307716363636363,-0.03390069696969697,-0.010074666666666666,0.03711193939393939,10.0,-36.0,-27.12121212121212,0.15244524242424243,0.1394108484848485,0.0,-18.156511454545456,0.1738222121212121,3395.6666666666665,7478.484848484848,7787.484848484848,7523.363636363636,7215.30303030303,7572.636363636364,7743.242424242424,7480.939393939394,7296.666666666667,2.158960303030303,0.5707142727272727,-1.0973168484848483,0.27598796969696965,0.5198262727272728,0.32751260606060606,-0.03390069696969697,-0.010074666666666666,0.03711193939393939,0.043442,-0.027205,0.358475,0.036845,-0.016125,0.011313,-0.11363627272727274,-0.1412761212121212,-9.035215363636363,-0.6693373333333332,-0.010749545454545456,0.0447960303030303,2.137752,0.55095,-1.135026,-0.015541,6387.151515151515,-177.27272727272728,268.57575757575756,-9.636363636363637,0.3973168484848484
0 days 00:02:37.824583,-1.825823818181818,-0.39581906060606054,-0.3801960303030305,0.27747548484848483,0.47278366666666666,0.33789342424242425,0.18549584848484849,-1.142838515151515,0.08140587878787879,-0.09215563636363636,-0.008108575757575759,0.03767684848484849,10.0,-35.24242424242424,-23.96969696969697,0.1451308181818182,0.14150981818181815,0.0,-18.544542818181817,0.12806718181818183,3438.151515151515,8049.515151515152,7244.242424242424,7211.757575757576,7618.484848484848,7957.181818181818,7219.333333333333,7244.060606060606,7645.515151515152,2.174176181818182,0.6041809393939395,-1.0801960303030305,0.27747548484848483,0.47278366666666666,0.33789342424242425,-0.09215563636363636,-0.008108575757575759,0.03767684848484849,0.04397030303030303,-0.02699172727272727,0.35851193939393944,0.03684430303030303,-0.01612709090909091,0.011313,0.12630215151515153,-0.19217563636363638,-9.43829906060606,-0.4545380606060606,0.060169575757575755,-0.045595090909090905,2.154044363636364,0.5876231515151514,-1.1164656969696969,-0.04856760606060606,6377.454545454545,568.8181818181819,143.24242424242425,-237.36363636363637,0.3801960303030305
0 days 00:02:37.889583,-1.8093496363636365,-0.3667742727272727,-0.36100548484848494,0.288485,0.4055997575757576,0.3465997272727273,0.4175667878787879,-0.990927090909091,0.3869482121212122,-0.08583969696969697,-0.008380242424242425,0.035752606060606054,10.0,-34.45454545454545,-21.363636363636363,0.14689612121212123,0.14568733333333334,0.0,-18.86260512121212,0.14541657575757577,3496.818181818182,7676.909090909091,7611.090909090909,7223.878787878788,7546.969696969697,7747.969696969697,7641.727272727273,7137.484848484848,7524.727272727273,2.1906503636363635,0.6332257272727273,-1.061005484848485,0.288485,0.4055997575757576,0.3465997272727273,-0.08583969696969697,-0.008380242424242425,0.035752606060606054,0.04429684848484849,-0.026863727272727272,0.3585340606060606,0.03684375757575758,-0.01612848484848485,0.011313121212121214,0.3669804242424243,-0.1335819696969697,-9.122218272727274,0.3193136666666667,-0.10478821212121213,0.05182442424242425,2.1639081212121214,0.6090907878787879,-1.104768,-0.06200227272727273,6372.515151515152,246.3939393939394,363.09090909090907,198.33333333333334,0.36100548484848494
0 days 00:02:37.954583,-1.7936433529411766,-0.3402838235294118,-0.34302123529411777,0.3041345294117647,0.36048735294117645,0.37047282352941174,0.0892821764705882,-0.6778731764705883,0.4068427647058823,-0.05716014705882353,-0.00857170588235294,0.03711379411764706,10.0,-34.0,-16.764705882352942,0.15398879411764704,0.15231758823529412,0.0,-19.177758705882354,0.17064061764705882,3588.0588235294117,7590.941176470588,7661.558823529412,7457.058823529412,7351.205882352941,7463.911764705882,7735.264705882353,7540.617647058823,7264.970588235294,2.2063566470588234,0.6597161764705882,-1.0430212352941177,0.3041345294117647,0.36048735294117645,0.37047282352941174,-0.05716014705882353,-0.00857170588235294,0.03711379411764706,0.044999,-0.026608,0.358578,0.036842,-0.016132,0.011314,0.055376941176470615,-0.10259650000000002,-9.070657088235293,0.48590449999999996,0.008164352941176468,0.017111382352941178,2.184064,0.649131,-1.078465,-0.055298,6355.705882352941,-273.0882352941176,196.47058823529412,-3.264705882352941,0.34302123529411777
0 days 00:02:38.019583,-1.776346272727273,-0.3169328181818182,-0.3210421212121213,0.3104858787878788,0.32129242424242427,0.3856444242424243,0.1075830606060606,-0.7674626666666666,0.3023484848484848,-0.06079178787878788,-0.007701242424242425,0.039264848484848486,10.0,-32.63636363636363,-14.090909090909092,0.15823481818181817,0.15580593939393939,0.0,-19.41959087878788,0.17176878787878785,3657.4545454545455,7893.848484848485,7366.909090909091,7384.060606060606,7396.757575757576,8016.909090909091,7273.454545454545,7417.666666666667,7439.242424242424,2.223653727272727,0.6830671818181818,-1.0210421212121212,0.3104858787878788,0.32129242424242427,0.3856444242424243,-0.06079178787878788,-0.007701242424242425,0.039264848484848486,0.04542760606060606,-0.02648590909090909,0.358601696969697,0.0368409696969697,-0.016134575757575757,0.011315030303030302,0.08389563636363637,-0.15926848484848485,-9.179598696969697,-0.13065230303030304,-0.011348696969696972,-0.004934696969696968,2.1965976363636366,0.6694537272727272,-1.0603976060606062,-0.049348,6406.090909090909,381.8787878787879,216.42424242424244,-509.6363636363636,0.3210421212121213
0 days 00:02:38.084583,-1.7588870606060607,-0.2966121515151515,-0.2990277272727273,0.3153726363636364,0.27868042424242423,0.382345303030303,0.06255324242424243,-0.6928064545454545,-0.008049787878787875,-0.050778363636363635,-0.008007636363636363,0.03663081818181818,10.0,-29.363636363636363,-11.363636363636363,0.1553657575757576,0.15920057575757574,0.0,-19.65724539393939,0.15117733333333336,3750.181818181818,7838.818181818182,7546.636363636364,7492.939393939394,7456.454545454545,7817.090909090909,7709.030303030303,7444.69696969697,7401.30303030303,2.2411129393939393,0.7033878484848485,-0.9990277272727273,0.3153726363636364,0.27868042424242423,0.382345303030303,-0.050778363636363635,-0.008007636363636363,0.03663081818181818,0.045831,-0.026371,0.358624,0.03684,-0.016137,0.011316,0.025805030303030344,-0.17968760606060608,-9.483398393939394,0.3473528484848485,-0.10018648484848484,0.010579484848484848,2.208394,0.688581,-1.043393,-0.043748,6485.393939393939,32.39393939393939,339.57575757575756,-106.87878787878788,0.2990277272727273
0 days 00:02:38.149583,-1.744670878787879,-0.27818515151515144,-0.2792305757575757,0.3148266060606061,0.246121,0.37936124242424246,0.34372106060606056,-0.5379091818181818,-0.2502957878787879,-0.0368959696969697,-0.00875478787878788,0.03755175757575758,10.0,-26.727272727272727,-8.727272727272727,0.15474357575757575,0.16366942424242426,0.0,-19.896177212121213,0.16564254545454546,3834.7272727272725,7824.121212121212,7604.454545454545,7538.878787878788,7423.909090909091,7828.242424242424,7471.151515151515,7610.69696969697,7501.939393939394,2.255329121212121,0.7218148484848486,-0.9792305757575757,0.3148266060606061,0.246121,0.37936124242424246,-0.0368959696969697,-0.00875478787878788,0.03755175757575758,0.04657184848484848,-0.026212939393939393,0.3586618181818182,0.0368390303030303,-0.016141848484848485,0.01131890909090909,0.33898557575757576,-0.14231178787878787,-9.718187757575757,0.1069040606060606,0.079834,0.028120545454545454,2.230860909090909,0.7173819696969697,-1.0084693636363637,-0.031186545454545453,6499.575757575758,123.93939393939394,93.15151515151516,-328.8787878787879,0.2792305757575757
0 days 00:02:38.214583,-1.7265134999999998,-0.26232826470588233,-0.25617502941176473,0.32050864705882354,0.21764829411764705,0.36680582352941177,0.04163432352941176,-0.48507532352941174,-0.17639873529411765,-0.03292985294117647,-0.0089865,0.03676173529411765,10.0,-25.558823529411764,-7.852941176470588,0.15614299999999998,0.16543041176470585,0.0,-20.04717917647059,0.17996976470588233,3869.5,7851.029411764706,7608.35294117647,7590.411764705882,7383.382352941177,7935.588235294118,7620.676470588235,7481.235294117647,7417.058823529412,2.2734865,0.7376717352941177,-0.9561750294117647,0.32050864705882354,0.21764829411764705,0.36680582352941177,-0.03292985294117647,-0.0089865,0.03676173529411765,0.046856176470588234,-0.026182588235294117,0.35867358823529416,0.03683829411764706,-0.016144117647058823,0.011320764705882351,0.02317902941176472,-0.11431529411764707,-9.638930352941177,-0.006757058823529412,-0.09331923529411765,0.015036176470588237,2.240000411764706,0.7279448235294117,-0.993315411764706,-0.028239058823529412,6514.529411764706,125.08823529411765,328.4117647058824,-267.5882352941176,0.25617502941176473
0 days 00:02:38.279583,-1.7106337575757573,-0.24754912121212125,-0.23495603030303036,0.31446912121212117,0.19522515151515152,0.3608374848484848,-0.07039136363636365,-0.41676030303030304,0.10323633333333332,-0.02927821212121212,-0.009211454545454547,0.036246181818181816,10.0,-22.272727272727273,-6.2727272727272725,0.1406903333333333,0.16503048484848487,0.0,-20.30554818181818,0.10571227272727272,3936.2727272727275,7964.787878787879,7523.878787878788,7541.242424242424,7478.484848484848,7849.909090909091,7625.939393939394,7627.181818181818,7424.575757575758,2.2893662424242427,0.7524508787878788,-0.9349560303030303,0.31446912121212117,0.19522515151515152,0.3608374848484848,-0.02927821212121212,-0.009211454545454547,0.036246181818181816,0.047335,-0.026136,0.358693,0.036837,-0.016148,0.011324,-0.0965316666666667,-0.0768229090909091,-9.357185181818181,0.3095998787878788,0.014256333333333333,-0.016867909090909093,2.255469,0.74566,-0.967534,-0.023555,6540.363636363636,10.606060606060606,211.6060606060606,-301.1212121212121,0.23495603030303036
0 days 00:02:38.344583,-1.6961805454545456,-0.23427678787878792,-0.21405660606060617,0.3226742121212121,0.1779859696969697,0.33295939393939394,0.6599324242424243,-0.4895695757575757,-0.8478138787878788,-0.019682878787878787,-0.006977060606060606,0.035947909090909086,10.0,-19.0,-3.6666666666666665,0.14903839393939394,0.17006363636363636,0.0,-20.514199666666666,0.16913645454545453,4052.3333333333335,7784.242424242424,7674.121212121212,7646.575757575758,7425.424242424242,7924.454545454545,7550.848484848485,7594.666666666667,7488.848484848485,2.3038194545454544,0.7657232121212121,-0.9140566060606061,0.3226742121212121,0.1779859696969697,0.33295939393939394,-0.019682878787878787,-0.006977060606060606,0.035947909090909086,0.04778518181818182,-0.02616509090909091,0.35870681818181815,0.036835545454545454,-0.01615309090909091,0.01132909090909091,0.6528467272727272,-0.22230109090909092,-10.312677515151515,-0.04526221212121212,0.006961696969696971,0.04379727272727273,2.2726348181818183,0.7616090909090909,-0.9385681818181819,-0.020973909090909088,6551.333333333333,133.54545454545453,195.6060606060606,-338.3939393939394,0.21405660606060617
