time,pos_x,pos_y,pos_z,vel_x,vel_y,vel_z,acc_x,acc_y,acc_z,att_phi,att_theta,att_psi,distance_est,centroid_x,centroid_y,divergence,true_divergence,divergence_sp,pitch_sum,raw_divergence,color_count,rpm_obs_1,rpm_obs_2,rpm_obs_3,rpm_obs_4,rpm_ref_1,rpm_ref_2,rpm_ref_3,rpm_ref_4,ekf_X1,ekf_X2,ekf_X3,ekf_X4,ekf_X5,ekf_X6,ekf_X7,ekf_X8,ekf_X9,ekf_X10,ekf_X11,ekf_X12,ekf_X13,ekf_X14,ekf_X15,ekf_U1,ekf_U2,ekf_U3,ekf_U4,ekf_U5,ekf_U6,ekf_Z1,ekf_Z2,ekf_Z3,ekf_Z4,cmd_thrust,cmd_roll,cmd_pitch,cmd_yaw,pos_z_inverted
0 days 00:01:34.173949,-7.551319911764706,2.0850604705882354,-1.2087601176470586,0.10296673529411764,-0.044133411764705886,-0.058043823529411766,0.054756529411764704,-0.15580232352941176,0.3516661176470588,-5.429411764705882e-05,-0.008124294117647058,-0.039449882352941175,,-26.147058823529413,48.0,0.041367,-0.03651,-0.023191,-32.450397,0.328229,252.8235294117647,7953.14705882353,7406.941176470588,7817.0,7393.941176470588,7895.294117647059,7420.029411764706,7819.058823529412,7441.470588235294,-3.351319911764706,2.0850604705882354,-1.9087601176470586,0.10296673529411764,-0.044133411764705886,-0.058043823529411766,-5.429411764705882e-05,-0.008124294117647058,-0.039449882352941175,-0.062858,0.107658,0.380508,0.036957,-0.015908,0.014533,-0.16093182352941174,0.016113352941176478,-9.076372852941176,0.08305814705882353,0.023394441176470583,0.009622058823529412,-3.358265,2.081364,-1.890622,0.033324,6557.294117647059,48.73529411764706,27.323529411764707,-602.0588235294117,1.2087601176470586
0 days 00:01:34.238949,-7.5450032857142855,2.0805295357142857,-1.2104744285714286,0.11074321428571429,-0.05147421428571429,-0.056734964285714284,-0.3601305357142857,-0.11305446428571429,0.46909760714285725,0.0025122142857142856,-0.005859178571428572,-0.03855075,,-27.0,48.0,0.041367,-0.03651,-0.023191,-32.450397,0.328229,246.0,7891.464285714285,7383.75,7876.785714285715,7436.0,7970.214285714285,7389.214285714285,7835.821428571428,7376.071428571428,-3.3450032857142857,2.0805295357142857,-1.9104744285714286,0.11074321428571429,-0.05147421428571429,-0.056734964285714284,0.0025122142857142856,-0.005859178571428572,-0.03855075,-0.06256175,0.10760121428571427,0.3804849642857143,0.03695967857142857,-0.015908535714285712,0.014530857142857142,-0.5470843928571428,0.01279989285714286,-8.955287392857143,0.05217642857142857,-0.06331960714285714,0.020019535714285715,-3.352055,2.076655607142857,-1.8947952142857143,0.027584892857142856,6555.75,60.57142857142857,73.53571428571429,-734.6785714285714,1.2104744285714286
0 days 00:01:34.303949,-7.538316966666667,2.0753623,-1.212514,0.11241343333333333,-0.0580038,-0.0819132,0.8967461333333333,-0.09187046666666669,-2.5308867000000004,0.0029295666666666665,-0.002853333333333333,-0.037822466666666665,10.0,-26.866666666666667,45.63333333333333,0.0082734,0.0045406000000000005,-0.0046381999999999994,-6.570475033333334,0.0656458,254.66666666666666,8085.566666666667,8113.6,8528.1,7852.933333333333,8215.966666666667,8849.133333333333,9290.966666666667,8199.666666666666,-3.3383169666666666,2.0753623,-1.912514,0.11241343333333333,-0.0580038,-0.0819132,0.0029295666666666665,-0.002853333333333333,-0.037822466666666665,-0.06230499999999999,0.107552,0.380465,0.036962,-0.015909,0.014528999999999999,0.6892903,0.057487,-11.973209666666667,-0.1404541,0.07859706666666666,0.0955729,-3.346673,2.072575,-1.898412,0.022611,8366.8,-861.3333333333334,-213.0,-803.0666666666667,1.212514
0 days 00:01:34.368949,-7.529331413793104,2.0686140344827586,-1.2243628620689655,0.1502558275862069,-0.08942448275862068,-0.35990810344827584,0.9159383793103448,-1.4355452068965517,-4.687041482758621,-0.07181596551724138,-0.014615758620689655,-0.027767758620689656,10.0,-28.413793103448278,47.41379310344828,-0.04291403448275862,0.01609658620689655,0.0,-0.4773145862068966,-0.1517241379310345,259.7241379310345,9421.448275862069,8483.379310344828,8965.689655172413,8767.620689655172,9466.620689655172,7423.0344827586205,8562.103448275862,8077.862068965517,-3.3293314137931036,2.0686140344827586,-1.9243628620689655,0.1502558275862069,-0.08942448275862068,-0.35990810344827584,-0.07181596551724138,-0.014615758620689655,-0.027767758620689656,-0.061859413793103446,0.10779675862068966,0.38044348275862067,0.03696648275862069,-0.01590810344827586,0.014525413793103447,0.5301724137931034,-0.19245020689655173,-14.214203931034483,-1.4381902413793104,-0.33627431034482763,0.09925568965517241,-3.333537620689655,2.06517575862069,-1.9085896551724137,0.012913,8033.275862068966,780.3793103448276,126.58620689655173,-2662.9655172413795,1.2243628620689655
0 days 00:01:34.433949,-7.517836222222222,2.05911237037037,-1.253128037037037,0.20538255555555554,-0.17503996296296298,-0.5049048518518519,0.8081324074074074,-1.4615014074074073,-0.27629525925925924,-0.09986214814814814,-0.03217837037037037,-0.0377182962962963,10.0,-29.0,48.0,-0.11313699999999999,0.018035,0.0,-1.3473921851851853,-0.4,248.0,8339.666666666666,6948.962962962963,8725.703703703704,7175.518518518518,8020.925925925926,7067.777777777777,8320.555555555555,6825.222222222223,-3.317836222222222,2.05911237037037,-1.953128037037037,0.20538255555555554,-0.17503996296296298,-0.5049048518518519,-0.09986214814814814,-0.03217837037037037,-0.0377182962962963,-0.06152755555555555,0.10795566666666667,0.38042988888888885,0.036967888888888883,-0.015908,0.014524333333333332,0.3817274814814815,-0.2650463703703704,-9.830367481481481,-0.03162985185185185,-0.4615161481481482,-0.3636611111111111,-3.3283857777777777,2.0608444444444447,-1.9180324444444443,0.010144,6436.888888888889,-270.7037037037037,-28.555555555555557,-1728.4444444444443,1.253128037037037
0 days 00:01:34.498949,-7.501077964285715,2.0420299285714285,-1.2850815357142857,0.3398405357142857,-0.29216103571428576,-0.5791549642857143,1.676007107142857,-1.42752075,-0.6275515,-0.11680824999999999,-0.06653028571428572,-0.04724225,10.0,-25.0,50.0,-0.12923478571428573,0.033847357142857144,0.0,-2.9823354285714285,-0.17081242857142856,240.0,8054.607142857143,7535.678571428572,7357.321428571428,7556.392857142857,7729.464285714285,7759.964285714285,7477.642857142857,7863.857142857143,-3.301077964285714,2.0420299285714285,-1.9850815357142857,0.3398405357142857,-0.29216103571428576,-0.5791549642857143,-0.11680824999999999,-0.06653028571428572,-0.04724225,-0.060546,0.108413,0.380391,0.036971,-0.015908,0.014521999999999998,0.875558,0.023472357142857146,-10.244663892857144,0.06896975,-0.2843715357142857,0.022591785714285714,-3.315659,2.048673,-1.946972,0.004369,6647.428571428572,177.60714285714286,73.78571428571429,294.17857142857144,1.2850815357142857
0 days 00:01:34.563949,-7.479093933333333,2.0205497333333335,-1.3193420666666664,0.4277127333333333,-0.3740114666666667,-0.6226175666666667,0.5716613333333334,-0.9799029333333333,0.0015714999999999655,-0.10268113333333333,-0.07527073333333334,-0.04134313333333333,10.0,-21.133333333333333,49.03333333333333,-0.0642438,0.0545762,0.0,-5.189936866666667,0.15785973333333334,245.8,7657.4,7441.333333333333,7814.2,7812.2,8028.566666666667,7421.733333333334,7775.166666666667,7797.566666666667,-3.2790939333333333,2.0205497333333335,-2.0193420666666664,0.4277127333333333,-0.3740114666666667,-0.6226175666666667,-0.10268113333333333,-0.07527073333333334,-0.04134313333333333,-0.0599844,0.1085666,0.3803312666666666,0.036972066666666664,-0.015912266666666664,0.0145204,-0.23925780000000002,0.18382166666666666,-9.490429633333333,0.23356933333333335,-0.26739916666666663,0.0954834,-3.3033000666666665,2.0323743333333333,-1.9708525333333333,0.017244199999999998,6715.2,314.1,-61.03333333333333,-412.6333333333333,1.3193420666666664
0 days 00:01:34.628949,-7.45345015625,1.99270453125,-1.35663715625,0.40160575,-0.4330893125,-0.584438625,-0.13266671875000002,-0.6964661875,0.500077375,-0.0694828125,-0.0918491875,-0.03959190625,10.0,-17.5625,47.625,-0.059559,0.056015,0.0,-7.8956557499999995,0.18073,238.4375,7958.125,7727.4375,7847.34375,7287.4375,7847.84375,7746.71875,7965.53125,7488.0625,-3.25345015625,1.99270453125,-2.05663715625,0.40160575,-0.4330893125,-0.584438625,-0.0694828125,-0.0918491875,-0.03959190625,-0.059493,0.108701,0.380279,0.036973,-0.015916,0.014519,-1.0426636249999999,0.06729128125,-8.90872203125,0.51619715625,0.09296415625,0.0128936875,-3.292486,2.018113,-1.991748,0.02851,6724.0625,-187.875,70.3125,-408.46875,1.35663715625
0 days 00:01:34.693949,-7.4337990000000005,1.9637043939393939,-1.3835933030303031,0.40810345454545455,-0.47142830303030303,-0.5534612424242424,0.9235270909090909,-0.5403035454545455,-0.23910466666666666,-0.051647060606060606,-0.07887130303030303,-0.038536121212121216,10.0,-10.878787878787879,45.121212121212125,-0.06502581818181818,0.05598409090909091,0.0,-10.625839272727273,0.13955718181818183,222.78787878787878,7956.878787878788,7417.939393939394,8053.515151515152,7571.121212121212,7911.606060606061,7580.30303030303,8209.666666666666,7529.939393939394,-3.233799,1.9637043939393939,-2.083593303030303,0.40810345454545455,-0.47142830303030303,-0.5534612424242424,-0.051647060606060606,-0.07887130303030303,-0.038536121212121216,-0.058861727272727274,0.1088710303030303,0.3801362121212121,0.03697393939393939,-0.015924454545454547,0.014518060606060606,0.10638606060606062,0.10289418181818182,-9.726858424242424,0.4142400606060606,0.1872558484848485,4.4424242424241014e-05,-3.2611196363636363,1.9793676969696972,-2.0328089090909094,0.06824542424242423,6788.787878787879,-173.9090909090909,-123.54545454545455,-713.7272727272727,1.3835933030303031
0 days 00:01:34.758949,-7.407939545454545,1.9325617272727273,-1.416264424242424,0.4486753333333333,-0.4983974545454546,-0.564435696969697,0.4657220606060607,-0.34319669696969696,-0.21627363636363633,-0.03950839393939394,-0.06814321212121212,-0.038220757575757575,10.0,-10.848484848484848,46.0,-0.09912527272727273,0.05621536363636364,0.0,-12.927773121212121,-0.17172063636363638,217.8181818181818,8176.454545454545,7490.212121212121,8123.060606060606,7736.909090909091,8164.0,7533.484848484848,8173.787878787879,7658.636363636364,-3.207939545454545,1.9325617272727273,-2.116264424242424,0.4486753333333333,-0.4983974545454546,-0.564435696969697,-0.03950839393939394,-0.06814321212121212,-0.038220757575757575,-0.05878657575757575,0.10884321212121213,0.3800857878787879,0.036974,-0.01592718181818182,0.014518,-0.2505030303030303,0.16512787878787877,-9.66125115151515,0.22281160606060607,0.09263281818181818,0.02593809090909091,-3.249020606060606,1.9645880000000002,-2.0467198181818187,0.06696342424242424,6894.121212121212,57.60606060606061,-67.27272727272727,-808.6969696969697,1.416264424242424
0 days 00:01:34.823949,-7.382576636363637,1.9002679696969698,-1.4439351212121212,0.49202260606060605,-0.5197674242424243,-0.5561358787878788,1.1098583333333332,-0.2576787272727273,0.2029231212121212,-0.02910609090909091,-0.059192636363636364,-0.03853254545454545,10.0,-14.0,46.0,-0.006566,0.058647,0.0,-14.968501909090909,0.280306,232.0,7589.424242424242,7424.666666666667,8085.30303030303,7236.0,7606.939393939394,7186.878787878788,7980.212121212121,7342.787878787879,-3.1825766363636365,1.9002679696969698,-2.143935121212121,0.49202260606060605,-0.5197674242424243,-0.5561358787878788,-0.02910609090909091,-0.059192636363636364,-0.03853254545454545,-0.058679,0.108722,0.379957,0.036974,-0.015934,0.014518,0.4976325151515153,0.1368962727272727,-9.278704969696971,-0.2402639393939394,0.13257575757575757,0.06746412121212121,-3.217535,1.926213,-2.081913,0.054946,6395.333333333333,-108.48484848484848,-264.1818181818182,-746.4848484848485,1.4439351212121212
0 days 00:01:34.888949,-7.351667787878788,1.8663363636363637,-1.4717733333333334,0.5480981212121212,-0.5413473636363637,-0.5284000909090909,0.8340002121212121,-0.3631089090909091,0.27112363636363634,-0.051710424242424245,-0.05573569696969697,-0.038566030303030296,10.0,-15.969696969696969,45.60606060606061,0.03457581818181819,0.06390663636363636,0.0,-16.80077612121212,0.3214434545454546,242.24242424242425,7792.30303030303,7031.939393939394,7847.212121212121,7187.0,7767.757575757576,7168.0,7824.333333333333,7268.606060606061,-3.1516677878787878,1.8663363636363637,-2.1717733333333333,0.5480981212121212,-0.5413473636363637,-0.5284000909090909,-0.051710424242424245,-0.05573569696969697,-0.038566030303030296,-0.058426,0.10866903030303031,0.3798510606060606,0.036974,-0.015937484848484847,0.01451939393939394,0.24044151515151518,0.2481652121212121,-9.198182969696969,-0.18530272727272726,-0.006414242424242425,-0.03048060606060606,-3.183268484848485,1.8897433636363636,-2.114851090909091,0.036722333333333336,6364.242424242424,21.96969696969697,-78.51515151515152,-815.6666666666666,1.4717733333333334
0 days 00:01:34.953949,-7.315963411764706,1.8301749999999999,-1.5015177647058822,0.5851064705882353,-0.5699477352941176,-0.48065561764705883,0.24062611764705877,-0.5048187941176471,1.167601617647059,-0.05958214705882353,-0.05371567647058823,-0.038989764705882356,10.0,-20.5,44.5,0.06749352941176472,0.07527429411764706,0.0,-18.6973235,0.12026317647058825,254.0,7671.14705882353,7101.470588235294,7671.0,7268.764705882353,7705.323529411765,7218.029411764706,7740.176470588235,7294.529411764706,-3.115963411764706,1.8301749999999999,-2.201517764705882,0.5851064705882353,-0.5699477352941176,-0.48065561764705883,-0.05958214705882353,-0.05371567647058823,-0.038989764705882356,-0.05831214705882353,0.10864800000000001,0.3797999411764706,0.036974,-0.015939235294117643,0.01452,-0.3031077058823529,0.13355926470588234,-8.2778895,0.07482914705882353,0.017922764705882357,0.022690676470588235,-3.166853470588235,1.8721230588235296,-2.1303209705882353,0.028816147058823533,6339.294117647059,20.705882352941178,-55.705882352941174,-658.5882352941177,1.5015177647058822
0 days 00:01:35.018949,-7.283471666666667,1.792475696969697,-1.5192385757575757,0.595146303030303,-0.5997378181818181,-0.40921457575757575,0.5297782727272727,-0.4283493636363636,0.5537975454545454,-0.05485748484848485,-0.047530939393939396,-0.038432939393939394,10.0,-22.0,43.696969696969695,0.05276736363636363,0.07834590909090909,0.0,-20.53525124242424,-0.02624390909090908,255.45454545454547,7646.818181818182,7166.848484848485,7783.606060606061,7301.424242424242,7715.212121212121,7197.090909090909,7847.515151515152,7374.272727272727,-3.0834716666666666,1.792475696969697,-2.2192385757575757,0.595146303030303,-0.5997378181818181,-0.40921457575757575,-0.05485748484848485,-0.047530939393939396,-0.038432939393939394,-0.058185,0.108714,0.379633,0.036974,-0.015947,0.01452,-0.006895090909090937,0.1994259393939394,-8.902284454545455,0.11004830303030302,0.09707181818181818,0.03158287878787879,-3.116808,1.813913,-2.168237,0.029382,6401.424242424242,22.424242424242426,-154.4848484848485,-699.8484848484849,1.5192385757575757
0 days 00:01:35.083949,-7.245605352941177,1.7519195,-1.5404770588235295,0.6107224411764706,-0.6316447941176471,-0.3580614411764706,0.08099973529411757,-0.40785073529411764,0.8552098529411765,-0.04892011764705882,-0.040814147058823524,-0.038176705882352946,10.0,-22.0,43.0,0.130739,0.080047,0.0,-22.1408705,0.402583,268.0,7709.735294117647,7232.264705882353,7927.088235294118,7350.764705882353,7758.0,7276.088235294118,7949.294117647059,7393.176470588235,-3.045605352941177,1.7519195,-2.2404770588235294,0.6107224411764706,-0.6316447941176471,-0.3580614411764706,-0.04892011764705882,-0.040814147058823524,-0.038176705882352946,-0.05792476470588235,0.1088914705882353,0.37957494117647056,0.03697482352941177,-0.01594947058823529,0.01452,-0.378216794117647,0.13427735294117646,-8.580796205882352,0.11743167647058823,0.06114282352941176,0.02278405882352941,-3.0907881764705882,1.7860097647058826,-2.1835089411764708,0.03889994117647059,6487.0,-37.088235294117645,-154.0,-732.7352941176471,1.5404770588235295
0 days 00:01:35.148949,-7.20804703030303,1.709213212121212,-1.5566001212121214,0.619282696969697,-0.662111606060606,-0.3286442424242424,0.417858090909091,-0.4910825757575758,-0.07473439393939398,-0.04603872727272727,-0.036353727272727274,-0.03789839393939394,10.0,-22.818181818181817,43.0,0.17343887878787878,0.08218215151515151,0.0,-23.59801606060606,0.37711166666666673,279.45454545454544,7689.0,7268.030303030303,7955.181818181818,7289.878787878788,7690.333333333333,7273.30303030303,7975.060606060606,7323.939393939394,-3.0080470303030302,1.709213212121212,-2.2566001212121214,0.619282696969697,-0.662111606060606,-0.3286442424242424,-0.04603872727272727,-0.036353727272727274,-0.03789839393939394,-0.057553,0.109145,0.379492,0.036976,-0.015953,0.01452,-0.050781181818181816,0.06702760606060605,-9.527343757575757,0.011311818181818182,0.06289954545454546,0.026892454545454546,-3.053617,1.746148,-2.205326,0.052497,6446.727272727273,-116.84848484848484,-167.54545454545453,-753.969696969697,1.5566001212121214
0 days 00:01:35.213949,-7.170239393939394,1.6659434545454546,-1.57148796969697,0.6362658787878788,-0.6904788181818181,-0.3127332121212121,0.6007564545454546,-0.46833587878787875,0.07239475757575758,-0.05308539393939394,-0.03272796969696969,-0.03754039393939394,10.0,-25.424242424242426,41.78787878787879,0.1787001212121212,0.08461554545454546,0.0,-24.884493666666668,0.24518563636363638,287.45454545454544,7727.363636363636,7121.333333333333,7882.969696969697,7318.878787878788,7743.0,7085.0,7855.393939393939,7351.606060606061,-2.970239393939394,1.6659434545454546,-2.27148796969697,0.6362658787878788,-0.6904788181818181,-0.3127332121212121,-0.05308539393939394,-0.03272796969696969,-0.03754039393939394,-0.05717833333333333,0.109547,0.37940799999999997,0.036976,-0.015956333333333333,0.01452,0.18900924242424244,0.15728575757575758,-9.385268575757577,-0.04913148484848484,0.03882578787878788,0.011955454545454545,-3.008995,1.6982566666666667,-2.2266593333333335,0.036525,6366.454545454545,76.87878787878788,-189.21212121212122,-820.0,1.57148796969697
0 days 00:01:35.278949,-7.130130151515152,1.6206812424242425,-1.5873696363636365,0.6548239393939395,-0.7187708181818182,-0.28140251515151515,0.32584281818181815,-0.3620992424242424,0.47219487878787886,-0.04751093939393939,-0.03068048484848485,-0.03815263636363636,10.0,-27.393939393939394,41.0,0.153486,0.088481,0.0,-26.030518515151517,0.06955763636363636,289.8181818181818,7607.666666666667,7157.757575757576,7835.848484848485,7236.212121212121,7558.939393939394,7247.393939393939,7912.30303030303,7257.909090909091,-2.930130151515151,1.6206812424242425,-2.2873696363636364,0.6548239393939395,-0.7187708181818182,-0.28140251515151515,-0.04751093939393939,-0.03068048484848485,-0.03815263636363636,-0.0569770303030303,0.10976733333333333,0.379363,0.03697606060606061,-0.015958060606060604,0.014519969696969698,-0.030539878787878748,0.18714487878787878,-8.971827545454545,0.20462687878787877,0.003529030303030308,0.01724512121212121,-2.984532333333333,1.6719208484848487,-2.238208696969697,0.02848451515151515,6345.909090909091,-171.03030303030303,-181.63636363636363,-681.7878787878788,1.5873696363636365
0 days 00:01:35.343949,-7.0882803823529414,1.571722205882353,-1.5980068235294118,0.6774694705882353,-0.7490756470588235,-0.25527714705882354,0.43254482352941176,-0.40915141176470593,0.4122014705882353,-0.046518970588235294,-0.029544882352941178,-0.03699511764705882,10.0,-28.0,41.0,0.117401,0.092849,0.0,-27.04864911764706,-0.076519,288.0,7624.64705882353,7217.058823529412,7963.941176470588,7269.705882352941,7722.823529411765,7197.735294117647,7938.264705882353,7271.205882352941,-2.8882803823529413,1.571722205882353,-2.2980068235294118,0.6774694705882353,-0.7490756470588235,-0.25527714705882354,-0.046518970588235294,-0.029544882352941178,-0.03699511764705882,-0.05653,0.110386,0.379267,0.036978,-0.01596,0.014519,0.0978285882352941,0.12218520588235293,-9.036649882352942,-0.08058799999999999,-0.03604661764705882,0.027049323529411768,-2.915679,1.595436,-2.266455,0.026741,6400.0,-70.82352941176471,-144.26470588235293,-841.5,1.5980068235294118
0 days 00:01:35.408949,-7.0436602424242425,1.5215198181818184,-1.6113627272727273,0.6916729090909092,-0.7744411818181818,-0.22407466666666667,0.029990878787878806,-0.36115009090909095,0.21647190909090908,-0.05248751515151515,-0.029109272727272727,-0.03702712121212121,10.0,-29.818181818181817,39.18181818181818,0.06766775757575759,0.09541506060606061,0.0,-28.049538787878788,-0.08194024242424243,284.3636363636364,7737.121212121212,7074.151515151515,7862.181818181818,7318.060606060606,7727.363636363636,7074.242424242424,7854.757575757576,7336.545454545455,-2.8436602424242423,1.5215198181818184,-2.3113627272727273,0.6916729090909092,-0.7744411818181818,-0.22407466666666667,-0.05248751515151515,-0.029109272727272727,-0.03702712121212121,-0.056309787878787876,0.11074409090909092,0.37923430303030303,0.036978787878787875,-0.01596,0.01451860606060606,-0.30267509090909095,0.23514436363636362,-9.218424454545454,0.08454663636363637,0.01109736363636364,0.0040764848484848475,-2.885978727272727,1.5629052727272728,-2.2758165757575757,0.025751030303030303,6351.575757575758,67.36363636363636,-194.54545454545453,-826.7878787878788,1.6113627272727273
0 days 00:01:35.473949,-6.999269060606061,1.4702067575757576,-1.6208404545454542,0.6985654545454545,-0.796422393939394,-0.1828220909090909,0.22518878787878788,-0.19226530303030304,0.6043098181818182,-0.03918427272727273,-0.02707390909090909,-0.03746706060606061,10.0,-30.696969696969695,38.303030303030305,0.054831333333333336,0.09708766666666667,0.0,-28.97377318181818,-0.004633999999999999,285.3939393939394,7528.69696969697,7232.818181818182,7953.363636363636,7251.393939393939,7547.727272727273,7243.818181818182,7968.787878787879,7296.484848484848,-2.7992690606060604,1.4702067575757576,-2.320840454545454,0.6985654545454545,-0.796422393939394,-0.1828220909090909,-0.03918427272727273,-0.02707390909090909,-0.03746706060606061,-0.055971,0.111295,0.379184,0.03698,-0.01596,0.014518,-0.0784209393939394,0.2594697575757576,-8.830314818181819,0.19111024242424243,0.03157548484848485,0.03789348484848485,-2.840286,1.512858,-2.290219,0.024228,6374.151515151515,-183.8181818181818,-236.54545454545453,-689.1818181818181,1.6208404545454542
0 days 00:01:35.538949,-6.954267393939394,1.4176968181818181,-1.6283622121212125,0.6992276363636363,-0.8127544242424243,-0.15070563636363635,-0.0029139393939394027,-0.2716481818181818,0.5922060909090909,-0.037986181818181815,-0.025950636363636363,-0.03629742424242424,10.0,-31.484848484848484,37.515151515151516,0.07482799999999999,0.09736563636363636,0.0,-29.847761303030303,0.1439098181818182,291.3333333333333,7686.333333333333,7155.787878787879,7956.848484848485,7264.909090909091,7702.969696969697,7139.484848484848,7951.363636363636,7269.939393939394,-2.7542673939393936,1.4176968181818181,-2.3283622121212124,0.6992276363636363,-0.8127544242424243,-0.15070563636363635,-0.037986181818181815,-0.025950636363636363,-0.03629742424242424,-0.05583439393939394,0.11181354545454546,0.37913800000000003,0.03698069696969697,-0.01596,0.01451660606060606,-0.292317696969697,0.16101451515151513,-8.839399878787878,0.010224303030303031,-0.002093727272727274,0.004017333333333332,-2.786309878787879,1.4516717272727273,-2.304227393939394,0.017588666666666666,6376.636363636364,-58.90909090909091,-189.0909090909091,-878.6666666666666,1.6283622121212125
0 days 00:01:35.603949,-6.907986794117647,1.363518088235294,-1.6349415000000003,0.7074426470588235,-0.8289943529411765,-0.11416688235294117,-0.017190470588235255,-0.16584667647058823,0.4566320882352941,-0.040081970588235295,-0.022701117647058823,-0.03655394117647059,10.0,-32.0,37.0,0.10241,0.096908,0.0,-30.61195055882353,0.27533,297.0,7646.441176470588,7060.470588235294,7948.382352941177,7369.735294117647,7648.764705882353,7085.264705882353,7946.588235294118,7343.382352941177,-2.707986794117647,1.363518088235294,-2.3349415000000002,0.7074426470588235,-0.8289943529411765,-0.11416688235294117,-0.040081970588235295,-0.022701117647058823,-0.03655394117647059,-0.055766176470588236,0.11219358823529413,0.3791098823529412,0.03698135294117647,-0.015959470588235294,0.014515647058823529,-0.2666303235294118,0.28303076470588234,-8.97242638235294,0.03827979411764706,0.004911470588235293,0.01869826470588235,-2.7496658235294116,1.4103926470588235,-2.3128238823529412,0.015926529411764707,6362.617647058823,-19.794117647058822,-277.52941176470586,-823.5882352941177,1.6349415000000003
0 days 00:01:35.668949,-6.85996096969697,1.3077323939393939,-1.6395015757575757,0.7313788787878788,-0.8506851818181818,-0.10667148484848485,0.5156813030303031,-0.1704021818181818,-0.07946299999999995,-0.03753775757575757,-0.021815454545454548,-0.036551545454545455,10.0,-33.0,35.0,0.10241,0.096908,0.0,-31.282671484848482,0.27533,292.0,7611.060606060606,7096.272727272727,7945.333333333333,7344.060606060606,7586.272727272727,7077.0,7973.090909090909,7366.848484848485,-2.6599609696969697,1.3077323939393939,-2.3395015757575757,0.7313788787878788,-0.8506851818181818,-0.10667148484848485,-0.03753775757575757,-0.021815454545454548,-0.036551545454545455,-0.055725,0.112915,0.379072,0.036983,-0.015957,0.014514,0.2650330909090909,0.28870739393939393,-9.519501606060606,0.08969581818181818,0.0328110303030303,0.017030606060606062,-2.688177,1.341903,-2.324518,0.021641,6355.212121212121,-48.21212121212121,-337.72727272727275,-787.4545454545455,1.6395015757575757
0 days 00:01:35.733949,-6.811595454545454,1.2522584242424242,-1.6448753636363638,0.7470981818181819,-0.8582429090909091,-0.0913728787878788,0.04895666666666666,-0.12337542424242424,0.2400189696969697,-0.033905181818181813,-0.021266424242424243,-0.03632906060606061,10.0,-34.57575757575758,34.21212121212121,0.17438651515151515,0.10518830303030303,0.0,-31.940485333333335,0.39881636363636364,310.1212121212121,7658.393939393939,7014.878787878788,7845.757575757576,7365.181818181818,7652.060606060606,6999.606060606061,7823.545454545455,7342.757575757576,-2.6115954545454545,1.2522584242424242,-2.3448753636363637,0.7470981818181819,-0.8582429090909091,-0.0913728787878788,-0.033905181818181813,-0.021266424242424243,-0.03632906060606061,-0.05575272727272727,0.11327909090909091,0.3790560909090909,0.03698345454545455,-0.01595609090909091,0.014513545454545454,-0.20362806060606065,0.2923769393939394,-9.189601000000001,0.17680972727272729,-0.017112060606060603,0.009158969696969697,-2.650364727272727,1.298608,-2.330073909090909,0.020172818181818184,6289.848484848485,85.66666666666667,-256.75757575757575,-799.8181818181819,1.6448753636363638
0 days 00:01:35.798949,-6.761749764705883,1.1954508529411765,-1.6490904411764704,0.7522822352941176,-0.8605680882352942,-0.07424011764705882,0.04657920588235291,0.12513705882352943,0.5560140000000001,-0.016108294117647057,-0.01996570588235294,-0.03650223529411765,10.0,-35.588235294117645,32.8235294117647,0.21452123529411765,0.10903611764705883,0.0,-32.61919282352942,0.36416885294117646,325.0,7490.323529411765,7107.029411764706,7909.764705882353,7296.529411764706,7517.441176470588,7133.205882352941,7922.529411764706,7301.35294117647,-2.5617497647058824,1.1954508529411765,-2.3490904411764704,0.7522822352941176,-0.8605680882352942,-0.07424011764705882,-0.016108294117647057,-0.01996570588235294,-0.03650223529411765,-0.055786,0.113716,0.379037,0.036984,-0.015955,0.014513,-0.19088920588235297,0.3751722941176471,-8.871323588235294,0.2633272058823529,-0.0021326470588235273,0.034459823529411765,-2.60499,1.246654,-2.336741,0.018411,6309.794117647059,-118.38235294117646,-286.05882352941177,-709.7647058823529,1.6490904411764704
0 days 00:01:35.863949,-6.708955181818181,1.1365648484848485,-1.651454393939394,0.7659827878787879,-0.8580292727272727,-0.04790269696969697,0.22702427272727274,0.17667224242424245,0.022792424242424204,-0.009253060606060605,-0.01854751515151515,-0.03550930303030303,10.0,-36.0,32.0,0.2266968181818182,0.11027254545454546,0.0,-33.23458363636364,0.29505506060606057,332.54545454545456,7606.969696969697,7063.393939393939,7982.939393939394,7305.878787878788,7577.575757575758,7096.090909090909,8016.060606060606,7284.060606060606,-2.5089551818181817,1.1365648484848485,-2.351454393939394,0.7659827878787879,-0.8580292727272727,-0.04790269696969697,-0.009253060606060605,-0.01854751515151515,-0.03550930303030303,-0.05635545454545454,0.11469672727272727,0.37901063636363636,0.03698751515151515,-0.01595060606060606,0.014510363636363635,-0.002219454545454587,0.358872,-9.410896090909091,0.11391751515151516,0.016742151515151512,0.001561030303030303,-2.528910696969697,1.161493303030303,-2.343776575757576,0.03171760606060606,6344.787878787879,-125.03030303030303,-312.7878787878788,-856.6363636363636,1.651454393939394
0 days 00:01:35.928949,-6.657994878787879,1.0804531212121211,-1.6535037575757576,0.7778688484848484,-0.8543840606060605,-0.032024060606060605,-0.05500324242424244,0.06424163636363636,0.2709238484848485,-0.014400272727272727,-0.017435636363636365,-0.03533975757575758,10.0,-36.0,32.0,0.206141,0.114776,0.0,-33.77202424242424,0.131314,338.0,7562.030303030303,7155.030303030303,8037.909090909091,7301.030303030303,7614.515151515152,7106.424242424242,8034.909090909091,7340.151515151515,-2.457994878787879,1.0804531212121211,-2.3535037575757576,0.7778688484848484,-0.8543840606060605,-0.032024060606060605,-0.014400272727272727,-0.017435636363636365,-0.03533975757575758,-0.056554181818181816,0.1150689090909091,0.37900009090909087,0.03698890909090909,-0.01594890909090909,0.014509454545454546,-0.2653290909090909,0.28690224242424245,-9.157285696969696,-0.22575615151515152,0.020729727272727275,0.03165693939393939,-2.5025688181818184,1.1320797272727274,-2.344853181818182,0.03172318181818182,6388.0,-93.27272727272727,-326.42424242424244,-849.060606060606,1.6535037575757576
0 days 00:01:35.993949,-6.605171212121212,1.0225282424242423,-1.6530736060606064,0.7766686363636364,-0.8635940606060606,-0.011636848484848486,0.020222939393939373,-0.15410157575757574,0.2723294848484849,-0.030215939393939392,-0.015534393939393938,-0.03555263636363637,10.0,-37.75757575757576,28.484848484848484,0.1674611212121212,0.11493551515151515,0.0,-34.29833457575758,0.0808410303030303,342.3939393939394,7760.727272727273,6894.121212121212,7849.030303030303,7476.333333333333,7691.545454545455,6906.666666666667,7820.090909090909,7473.515151515152,-2.405171212121212,1.0225282424242423,-2.3530736060606063,0.7766686363636364,-0.8635940606060606,-0.011636848484848486,-0.030215939393939392,-0.015534393939393938,-0.03555263636363637,-0.057095,0.116135,0.378969,0.036993,-0.015944,0.014507,-0.1842447878787879,0.23109027272727273,-9.159150030303032,0.04984166666666667,0.020226727272727275,-0.015957969696969696,-2.431252,1.052577,-2.345331,0.023489,6315.878787878788,218.75757575757575,-347.09090909090907,-798.5151515151515,1.6530736060606064
0 days 00:01:36.058949,-6.553185727272727,0.9645379696969697,-1.6520823636363635,0.7825692121212121,-0.8730063939393939,0.010840757575757575,0.17599663636363644,-0.03224106060606061,0.22951945454545455,-0.012690030303030304,-0.013194666666666665,-0.03593921212121212,10.0,-38.96969696969697,27.03030303030303,0.10872857575757577,0.11682306060606061,0.0,-34.75627415151516,-0.02805869696969697,341.06060606060606,7347.0,7198.212121212121,8008.757575757576,7335.151515151515,7396.909090909091,7193.060606060606,7991.939393939394,7323.939393939394,-2.3531857272727272,0.9645379696969697,-2.3520823636363635,0.7825692121212121,-0.8730063939393939,0.010840757575757575,-0.012690030303030304,-0.013194666666666665,-0.03593921212121212,-0.05740433333333333,0.11687003030303031,0.37894960606060607,0.036995909090909086,-0.01594157575757576,0.014506030303030304,-0.008611515151515094,0.18131518181818185,-9.20457509090909,0.18593163636363635,0.00783472727272728,0.05788348484848485,-2.3880631515151514,1.0037988181818183,-2.3446764545454544,0.025601000000000002,6320.848484848485,-231.57575757575756,-362.3939393939394,-615.4242424242424,1.6520823636363635
0 days 00:01:36.123949,-6.500476823529412,0.905312,-1.6491221176470592,0.7662635294117647,-0.8701526176470589,0.04576229411764706,-0.5052774411764706,0.1630824705882353,0.7431451764705883,-0.015129029411764708,-0.013535117647058822,-0.03479379411764706,10.0,-39.0,26.647058823529413,0.10187823529411766,0.11688211764705882,0.0,-35.22297420588235,-0.0294290294117647,341.0,7632.323529411765,7035.264705882353,7962.941176470588,7326.735294117647,7524.529411764706,7097.176470588235,8006.441176470588,7297.176470588235,-2.3004768235294115,0.905312,-2.349122117647059,0.7662635294117647,-0.8701526176470589,0.04576229411764706,-0.015129029411764708,-0.013535117647058822,-0.03479379411764706,-0.057733,0.117651,0.378929,0.036999,-0.015939,0.014505,-0.6935605,0.3798253235294118,-8.677274735294118,0.08985094117647059,0.002412647058823524,-0.017728999999999998,-2.342175,0.9519720000000002,-2.343981,0.027845,6327.735294117647,-140.7058823529412,-340.5,-802.2941176470588,1.6491221176470592
0 days 00:01:36.188949,-6.447257696969697,0.8452177878787879,-1.6436781212121214,0.7612694545454545,-0.8767495151515151,0.07441,-0.2644812121212121,0.07899733333333335,0.5020592727272728,-0.01640866666666667,-0.010433363636363636,-0.03418645454545455,10.0,-39.0,25.0,0.081539,0.116529,0.0,-35.6353296969697,0.0,341.0,7641.727272727273,6948.121212121212,7911.121212121212,7521.969696969697,7656.333333333333,6946.090909090909,7966.030303030303,7451.121212121212,-2.247257696969697,0.8452177878787879,-2.3436781212121214,0.7612694545454545,-0.8767495151515151,0.07441,-0.01640866666666667,-0.010433363636363636,-0.03418645454545455,-0.05839166666666667,0.1188060303030303,0.3788998484848485,0.037002939393939394,-0.01593348484848485,0.014503424242424243,-0.4198923333333333,0.30732133333333334,-8.925396636363637,0.10719251515151516,0.01029818181818182,0.021003454545454547,-2.270303909090909,0.8730092121212122,-2.339540515151515,0.02208718181818182,6361.0,97.48484848484848,-406.7878787878788,-864.7575757575758,1.6436781212121214
0 days 00:01:36.253949,-6.395433970588236,0.7859908235294117,-1.6372298823529412,0.758970294117647,-0.8779983235294118,0.09970482352941176,0.010749117647058855,0.07164547058823528,0.16512438235294116,-0.004156794117647059,-0.010517882352941176,-0.034892852941176465,10.0,-39.970588235294116,23.058823529411764,0.10049523529411765,0.11743158823529412,0.0,-35.98333923529412,0.13259482352941176,350.70588235294116,7450.323529411765,7169.0,8003.764705882353,7340.735294117647,7514.470588235294,7077.970588235294,7917.382352941177,7403.0,-2.1954339705882355,0.7859908235294117,-2.337229882352941,0.758970294117647,-0.8779983235294118,0.09970482352941176,-0.004156794117647059,-0.010517882352941176,-0.034892852941176465,-0.0588834705882353,0.1193910588235294,0.37888582352941175,0.037005411764705884,-0.015930058823529412,0.014503,-0.15162570588235294,0.1827895588235294,-9.265452647058824,0.024098176470588234,-0.01371491176470588,0.0466380294117647,-2.234345823529412,0.8337348235294118,-2.336877117647059,0.019543117647058822,6323.35294117647,-38.88235294117647,-363.3235294117647,-671.2352941176471,1.6372298823529412
0 days 00:01:36.318949,-6.339171393939394,0.7236174545454546,-1.6286777272727273,0.778781909090909,-0.8860872727272727,0.13122360606060604,0.37317515151515146,0.03765906060606061,0.532768696969697,-0.0036006666666666665,-0.010964303030303029,-0.034504878787878786,10.0,-40.78787878787879,21.424242424242426,0.17813757575757577,0.12007133333333334,0.0,-36.31785336363636,0.3815024545454545,373.8484848484849,7508.545454545455,7028.090909090909,7987.454545454545,7345.272727272727,7468.666666666667,7091.363636363636,7977.060606060606,7339.121212121212,-2.139171393939394,0.7236174545454546,-2.3286777272727273,0.778781909090909,-0.8860872727272727,0.13122360606060604,-0.0036006666666666665,-0.010964303030303029,-0.034504878787878786,-0.060351,0.12067,0.378857,0.037012,-0.015921,0.014503,0.22821966666666665,0.14154236363636363,-8.902254969696969,0.11394715151515152,-0.011356242424242421,0.0041947575757575765,-2.156841,0.749664,-2.330027,0.014905,6310.393939393939,-130.21212121212122,-377.45454545454544,-716.5454545454545,1.6286777272727273
0 days 00:01:36.383949,-6.2834923636363635,0.6630866363636363,-1.6188349393939394,0.7920606363636363,-0.887365303030303,0.1570098484848485,-0.15227803030303028,0.1501000909090909,0.36995560606060607,-0.0035805757575757577,-0.010801969696969697,-0.033744727272727267,10.0,-41.27272727272727,20.181818181818183,0.19570945454545455,0.122098,0.0,-36.61232287878788,0.3659940909090909,381.09090909090907,7540.060606060606,6967.575757575758,7937.454545454545,7406.151515151515,7568.69696969697,6954.424242424242,7936.060606060606,7400.575757575758,-2.0834923636363634,0.6630866363636363,-2.3188349393939394,0.7920606363636363,-0.887365303030303,0.1570098484848485,-0.0035805757575757577,-0.010801969696969697,-0.033744727272727267,-0.06144366666666667,0.12166066666666668,0.3788396666666667,0.03701666666666667,-0.015913666666666666,0.014502333333333332,-0.2986505757575758,0.2529000606060606,-9.059688757575756,0.0780509696969697,-0.002352575757575755,0.01407878787878788,-2.1000629999999996,0.6889026666666667,-2.321845,0.023488333333333333,6304.575757575758,39.36363636363637,-406.1515151515151,-811.6666666666666,1.6188349393939394
0 days 00:01:36.448949,-6.229594757575757,0.6042604545454545,-1.607592484848485,0.800994,-0.8805436363636363,0.18507833333333334,0.28086412121212123,0.24914636363636367,0.49778424242424246,0.007529363636363636,-0.00988639393939394,-0.034151939393939394,10.0,-42.0,17.87878787878788,0.17210796969696973,0.12599027272727273,0.0,-36.89497981818182,0.07380184848484848,383.8787878787879,7524.424242424242,6954.060606060606,7914.212121212121,7429.545454545455,7439.242424242424,7032.575757575758,7974.757575757576,7395.30303030303,-2.0295947575757576,0.6042604545454545,-2.307592484848485,0.800994,-0.8805436363636363,0.18507833333333334,0.007529363636363636,-0.00988639393939394,-0.034151939393939394,-0.06199000000000001,0.122156,0.378831,0.037019,-0.01591,0.014502,0.14485681818181814,0.2569247272727273,-8.937736666666666,0.3813181515151515,0.0197309696969697,0.0015018181818181819,-2.071674,0.658522,-2.317754,0.02778,6298.30303030303,-86.21212121212122,-448.5151515151515,-696.1515151515151,1.607592484848485
0 days 00:01:36.513949,-6.170121764705883,0.5434018235294118,-1.5950280294117645,0.8117861764705881,-0.8631837058823529,0.1984019705882353,-0.23913341176470587,0.4654195882352941,0.05107911764705882,0.02087014705882353,-0.010919529411764705,-0.03359935294117647,10.0,-42.1764705882353,15.647058823529411,0.09930882352941177,0.13061329411764705,0.0,-37.126235470588234,-0.031033411764705886,381.29411764705884,7430.64705882353,7125.088235294118,8005.705882352941,7350.558823529412,7494.5,7054.411764705882,8001.088235294118,7391.470588235294,-1.9701217647058822,0.5434018235294118,-2.2950280294117644,0.8117861764705881,-0.8631837058823529,0.1984019705882353,0.02087014705882353,-0.010919529411764705,-0.03359935294117647,-0.06353258823529412,0.12295035294117647,0.3788187647058823,0.03702464705882353,-0.01589964705882353,0.014502941176470588,-0.3682501764705883,0.3373737352941177,-9.388126235294118,0.013147676470588237,-0.008652588235294119,0.04081452941176471,-1.982910705882353,0.564789294117647,-2.3018810588235294,0.031225647058823528,6333.382352941177,-84.55882352941177,-421.1470588235294,-740.9705882352941,1.5950280294117645
0 days 00:01:36.578949,-6.113927363636364,0.4856870303030303,-1.5818189090909092,0.8092776666666667,-0.8483870606060606,0.21261618181818184,-0.42112330303030304,0.2687230606060606,0.38695366666666664,0.015106424242424242,-0.00972178787878788,-0.0333740303030303,10.0,-43.0,14.0,0.058673,0.131021,0.0,-37.291006787878786,-0.062204999999999996,378.0,7513.454545454545,6907.272727272727,7982.121212121212,7433.69696969697,7524.69696969697,6974.151515151515,7939.484848484848,7394.121212121212,-1.9139273636363636,0.4856870303030303,-2.281818909090909,0.8092776666666667,-0.8483870606060606,0.21261618181818184,0.015106424242424242,-0.00972178787878788,-0.0333740303030303,-0.064178,0.12334566666666667,0.378814,0.037027000000000004,-0.015895,0.014504,-0.5377900606060606,0.20007696969696967,-9.045188272727273,-0.01758548484848485,-0.05224609090909091,0.0033291818181818184,-1.9453363333333336,0.5267436666666666,-2.2940373333333333,0.032938,6295.0,2.6666666666666665,-416.75757575757575,-773.3636363636364,1.5818189090909092
0 days 00:01:36.643949,-6.0565072727272735,0.4280018181818182,-1.5675434848484848,0.8032555151515152,-0.8433039696969697,0.22989572727272728,-0.12254530303030305,0.19774421212121213,0.21725890909090903,0.013619787878787879,-0.011745121212121212,-0.033581484848484854,10.0,-43.0,12.666666666666666,0.058673,0.131021,0.0,-37.547488757575756,-0.062204999999999996,406.0,7500.30303030303,7009.333333333333,7908.666666666667,7394.060606060606,7494.69696969697,6996.666666666667,7923.121212121212,7418.0,-1.856507272727273,0.4280018181818182,-2.267543484848485,0.8032555151515152,-0.8433039696969697,0.22989572727272728,0.013619787878787879,-0.011745121212121212,-0.033581484848484854,-0.065276,0.124037,0.378806,0.037031,-0.015887,0.014506,-0.27509463636363635,0.1520773939393939,-9.214015151515152,0.032374515151515154,0.005348969696969696,0.018946757575757575,-1.881283,0.462369,-2.280334,0.035932,6295.0,-3.515151515151515,-424.2121212121212,-708.1212121212121,1.5675434848484848
0 days 00:01:36.708949,-5.998847147058823,0.370972,-1.5519086764705883,0.7993879411764705,-0.8253329117647059,0.2630146176470588,-0.27647279411764697,0.45296097058823526,0.6320790294117647,0.014249676470588236,-0.0096355,-0.03359520588235294,10.0,-43.0,10.588235294117647,0.07044976470588235,0.13244379411764706,0.0,-37.81245429411765,0.02582161764705882,425.6470588235294,7482.029411764706,6947.35294117647,7921.411764705882,7498.264705882353,7554.35294117647,6935.588235294118,7870.558823529412,7538.294117647059,-1.7988471470588236,0.370972,-2.2519086764705882,0.7993879411764705,-0.8253329117647059,0.2630146176470588,0.014249676470588236,-0.0096355,-0.03359520588235294,-0.06621294117647059,0.12452941176470589,0.37880082352941175,0.037034235294117646,-0.015879235294117645,0.014508588235294119,-0.4073989117647058,0.4061063529411765,-8.803883264705881,0.06833064705882352,0.001701941176470589,0.019057382352941174,-1.8191989999999998,0.40184376470588234,-2.2644383529411765,0.03412282352941176,6318.382352941177,143.0,-458.7647058823529,-671.4411764705883,1.5519086764705883
0 days 00:01:36.773949,-5.943677212121212,0.3163177878787879,-1.5335704242424242,0.7967372424242424,-0.8026164242424243,0.29531366666666664,0.021841454545454535,0.4288529090909091,0.08261509090909093,0.031618575757575755,-0.009621454545454546,-0.03413736363636364,8.45455806060606,-43.0,8.454545454545455,0.07309912121212121,0.13399727272727274,0.03800757575757576,-38.03218957575757,0.07050672727272728,429.8181818181818,7473.515151515152,7077.333333333333,7940.272727272727,7485.484848484848,7327.393939393939,7172.787878787879,8030.363636363636,7446.606060606061,-1.743677212121212,0.3163177878787879,-2.233570424242424,0.7967372424242424,-0.8026164242424243,0.29531366666666664,0.031618575757575755,-0.009621454545454546,-0.03413736363636364,-0.066724,0.12479799999999999,0.378798,0.037036,-0.015875,0.01451,-0.11141678787878792,0.20265148484848483,-9.357629000000001,0.48111236363636367,0.007849484848484849,0.008870545454545454,-1.785335,0.36883,-2.255768,0.033136,6346.030303030303,-214.24242424242425,-487.42424242424244,-521.2727272727273,1.5335704242424242
0 days 00:01:36.838949,-5.882970666666667,0.2620303333333333,-1.516839272727273,0.8301550606060606,-0.777109696969697,0.25898763636363636,0.27786669696969696,0.5794753636363636,-0.2864690606060605,0.04168893939393939,-0.01205121212121212,-0.032599666666666666,4.31115703030303,-43.0,7.0,0.034762,0.13322,0.125425,-38.25459945454545,-0.138291,424.0,7424.090909090909,7000.969696969697,8021.818181818182,7543.575757575758,7559.515151515152,6909.848484848485,7982.909090909091,7507.575757575758,-1.6829706666666666,0.2620303333333333,-2.216839272727273,0.8301550606060606,-0.777109696969697,0.25898763636363636,0.04168893939393939,-0.01205121212121212,-0.032599666666666666,-0.06811260606060605,0.12506660606060604,0.3788057575757575,0.03703987878787879,-0.015861424242424243,0.014515818181818182,0.1264796060606061,0.25062148484848484,-9.736920030303029,-0.02678890909090909,-0.12753754545454543,0.0378639696969697,-1.6910736666666666,0.28010951515151516,-2.2296637575757576,0.04262060606060606,6340.0,87.0,-509.75757575757575,-794.030303030303,1.516839272727273
0 days 00:01:36.903949,-5.826202575757576,0.2119272424242424,-1.4999811212121215,0.8437349090909091,-0.7462127272727272,0.27158948484848483,-0.036008727272727276,0.5834035454545454,-0.09849860606060605,0.04274078787878788,-0.019823212121212123,-0.03421181818181818,4.276424333333334,-43.0,5.484848484848484,0.07208272727272727,0.14057418181818182,0.125425,-38.65280387878788,0.11951554545454546,436.1212121212121,7438.848484848485,7101.363636363636,8001.212121212121,7405.30303030303,7415.848484848485,7118.575757575758,7957.545454545455,7461.727272727273,-1.6262025757575758,0.2119272424242424,-2.1999811212121214,0.8437349090909091,-0.7462127272727272,0.27158948484848483,0.04274078787878788,-0.019823212121212123,-0.03421181818181818,-0.0685950909090909,0.12519621212121212,0.37880448484848483,0.03704121212121212,-0.015857363636363638,0.014518424242424242,-0.2597065151515151,0.2580196666666667,-9.544034030303031,-0.00011836363636363195,-0.07079345454545453,0.018236545454545453,-1.6583667878787878,0.2517012424242424,-2.2195152727272727,0.04670881818181818,6337.818181818182,-99.12121212121212,-441.6363636363636,-559.8181818181819,1.4999811212121215
0 days 00:01:36.968949,-5.764549529411765,0.1620784705882353,-1.4824991470588238,0.8587001764705883,-0.7173904999999999,0.27493864705882354,-0.02242944117647056,0.3384640882352941,0.23182255882352934,0.03422938235294118,-0.019619294117647058,-0.03350802941176471,4.241500441176471,-42.44117647058823,3.323529411764706,0.07659517647058824,0.1466376470588235,0.125425,-39.176126970588236,0.11936782352941175,441.6764705882353,7545.558823529412,6929.676470588235,7964.176470588235,7540.35294117647,7538.823529411765,6934.676470588235,8009.941176470588,7534.088235294118,-1.5645495294117648,0.1620784705882353,-2.1824991470588238,0.8587001764705883,-0.7173904999999999,0.27493864705882354,0.03422938235294118,-0.019619294117647058,-0.03350802941176471,-0.069605,0.125475,0.378801,0.037044,-0.015849,0.014524,-0.2328526764705882,0.11991620588235294,-9.204934470588237,-0.007266794117647059,0.024148441176470595,-0.0037842352941176473,-1.589916,0.192739,-2.19805,0.05543,6360.294117647059,63.94117647058823,-534.5588235294117,-762.4705882352941,1.4824991470588238
0 days 00:01:37.033949,-5.703255333333333,0.11452972727272727,-1.4642289090909093,0.8658711818181818,-0.6811393939393939,0.274829606060606,-0.12582545454545455,0.7468370606060606,0.03453230303030298,0.03642669696969697,-0.01883572727272727,-0.03417751515151515,4.206796818181818,-41.63636363636363,1.6363636363636365,0.08728000000000001,0.15088266666666664,0.125425,-39.64844793939394,0.12939833333333334,450.27272727272725,7474.757575757576,7027.363636363636,8004.272727272727,7548.272727272727,7494.787878787879,7060.333333333333,8019.212121212121,7518.0,-1.5032553333333332,0.11452972727272727,-2.1642289090909093,0.8658711818181818,-0.6811393939393939,0.274829606060606,0.03642669696969697,-0.01883572727272727,-0.03417751515151515,-0.07036863636363637,0.12581736363636364,0.3787908181818182,0.037045909090909095,-0.015841363636363636,0.014528454545454546,-0.3354935757575757,0.5046164242424243,-9.415216606060607,0.09477827272727274,-0.0004069090909090916,0.029555848484848483,-1.5267658181818182,0.14214045454545454,-2.177328727272727,0.05417127272727273,6386.666666666667,-33.333333333333336,-490.24242424242425,-660.4242424242424,1.4642289090909093
0 days 00:01:37.098949,-5.643088303030304,0.07023257575757576,-1.4465888484848486,0.8809863939393939,-0.654834090909091,0.26675233333333337,0.05951948484848486,0.273524696969697,-0.2438322121212121,0.0357469696969697,-0.015669333333333334,-0.03405754545454545,4.172958909090909,-41.0,1.0,0.125508,0.153496,0.125425,-40.065296878787876,0.321593,463.0,7501.818181818182,7083.545454545455,8055.727272727273,7519.484848484848,7526.727272727273,6993.606060606061,8033.878787878788,7570.272727272727,-1.4430883030303032,0.07023257575757576,-2.1465888484848485,0.8809863939393939,-0.654834090909091,0.26675233333333337,0.0357469696969697,-0.015669333333333334,-0.03405754545454545,-0.07097845454545455,0.12608293939393936,0.3787805151515151,0.037047727272727274,-0.015835424242424245,0.014531848484848484,-0.12026515151515155,0.03219696969696969,-9.679687515151516,-0.08647018181818182,0.09820378787878788,0.017859333333333335,-1.4791454545454545,0.10452675757575756,-2.1616401212121215,0.04977672727272727,6398.0,34.75757575757576,-540.8787878787879,-703.5454545454545,1.4465888484848486
0 days 00:01:37.163949,-5.578812212121212,0.02495927272727273,-1.4282031515151516,0.8902284545454545,-0.6401568181818181,0.2666461212121212,-0.25573942424242424,0.40585166666666667,0.346793606060606,0.030264757575757577,-0.010559515151515151,-0.03454436363636364,4.139351212121213,-41.0,-0.696969696969697,0.14238463636363635,0.15843045454545454,0.125425,-40.326587454545454,0.22082654545454547,476.57575757575756,7538.848484848485,7016.757575757576,7976.878787878788,7548.151515151515,7527.666666666667,6988.636363636364,7958.848484848485,7542.424242424242,-1.378812212121212,0.02495927272727273,-2.1282031515151516,0.8902284545454545,-0.6401568181818181,0.2666461212121212,0.030264757575757577,-0.010559515151515151,-0.03454436363636364,-0.072236,0.12659,0.378748,0.037053,-0.015824,0.014538,-0.38426248484848485,0.24192115151515153,-9.091234575757575,0.019745787878787877,0.07666742424242425,0.005363606060606061,-1.39552,0.04145,-2.133743,0.023131,6360.363636363636,61.27272727272727,-491.6666666666667,-674.3939393939394,1.4282031515151516
0 days 00:01:37.228949,-5.520253147058824,-0.016023029411764707,-1.4100647647058822,0.8829838823529412,-0.6192424705882353,0.27719823529411763,-0.06995579411764703,0.31080838235294117,-0.059783205882352954,0.03297808823529412,-0.0028371470588235293,-0.034696823529411766,4.105524794117647,-41.64705882352941,-2.2941176470588234,0.11845391176470589,0.15986794117647057,0.125425,-40.384417794117645,0.06826426470588234,478.3529411764706,7415.382352941177,6922.735294117647,8010.088235294118,7615.294117647059,7403.205882352941,6950.85294117647,7985.882352941177,7575.235294117647,-1.3202531470588235,-0.016023029411764707,-2.110064764705882,0.8829838823529412,-0.6192424705882353,0.27719823529411763,0.03297808823529412,-0.0028371470588235293,-0.034696823529411766,-0.07238217647058823,0.12663714705882353,0.3787414117647059,0.03705258823529412,-0.015823176470588236,0.014538617647058823,-0.13772400000000004,0.11239082352941177,-9.497558617647059,0.1481359117647059,0.024564911764705884,0.008480323529411764,-1.3746758529411764,0.027504558823529413,-2.1263547058823526,0.024707235294117644,6324.205882352941,20.823529411764707,-602.5882352941177,-609.2058823529412,1.4100647647058822
0 days 00:01:37.293949,-5.4603494545454545,-0.055004060606060605,-1.390105212121212,0.8812385151515152,-0.5909907272727272,0.2938698181818182,-0.020232606060606066,0.4173775757575758,0.23827463636363636,0.040075424242424246,-0.004133454545454545,-0.03461690909090909,4.071976545454546,-42.45454545454545,-3.909090909090909,0.13556921212121212,0.16082057575757575,0.125425,-40.39548218181818,0.15699560606060603,493.0,7400.727272727273,7000.333333333333,7920.30303030303,7524.424242424242,7436.848484848485,6986.575757575758,7920.030303030303,7517.030303030303,-1.2603494545454546,-0.055004060606060605,-2.090105212121212,0.8812385151515152,-0.5909907272727272,0.2938698181818182,0.040075424242424246,-0.004133454545454545,-0.03461690909090909,-0.072946,0.126819,0.378716,0.037051,-0.01582,0.014541,-0.107925,0.16719933333333334,-9.202799545454546,0.12599869696969695,-0.02634509090909091,0.023171242424242424,-1.294277,-0.026285,-2.097857,0.030787,6304.878787878788,23.606060606060606,-505.969696969697,-602.2727272727273,1.390105212121212
0 days 00:01:37.358949,-5.397782333333334,-0.09391427272727274,-1.368307303030303,0.8891141515151515,-0.5625175454545455,0.30989,-0.11223524242424245,0.548860606060606,0.1358631515151515,0.04487627272727273,-0.0011576666666666667,-0.03492427272727273,4.039176575757575,-43.0,-5.0,0.182053,0.161827,0.125425,-40.41961824242424,0.386777,511.0,7444.30303030303,6977.636363636364,7909.242424242424,7508.151515151515,7397.181818181818,6965.606060606061,7957.0,7532.666666666667,-1.1977823333333333,-0.09391427272727274,-2.068307303030303,0.8891141515151515,-0.5625175454545455,0.30989,0.04487627272727273,-0.0011576666666666667,-0.03492427272727273,-0.07381581818181819,0.1273651818181818,0.37867018181818185,0.03705318181818181,-0.015812,0.014547545454545455,-0.18104875757575756,0.2590258181818182,-9.310694818181817,0.1298309696969697,0.11879287878787878,0.007146636363636364,-1.2193235454545455,-0.07421081818181818,-2.0709922727272727,0.038217545454545455,6302.0,3.6666666666666665,-562.4242424242424,-604.2121212121212,1.368307303030303
0 days 00:01:37.423949,-5.33722305882353,-0.1303019117647059,-1.346832794117647,0.8874483823529412,-0.5245469411764706,0.3131758823529412,-0.20287661764705886,0.5976885294117648,-0.17192270588235292,0.04873555882352941,0.004843735294117647,-0.03486614705882353,4.006160176470588,-42.05882352941177,-6.882352941176471,0.10509458823529412,0.16741338235294118,0.125425,-40.279035470588234,-0.13999232352941177,498.7647058823529,7398.676470588235,6933.617647058823,8001.470588235294,7698.558823529412,7458.176470588235,6942.382352941177,7995.35294117647,7714.735294117647,-1.1372230588235295,-0.1303019117647059,-2.046832794117647,0.8874483823529412,-0.5245469411764706,0.3131758823529412,0.04873555882352941,0.004843735294117647,-0.03486614705882353,-0.07418067647058824,0.12758791176470585,0.3786508823529412,0.037054058823529405,-0.01580870588235294,0.014550235294117649,-0.22101914705882356,0.2522115882352941,-9.621668117647058,0.08537017647058823,-0.015610617647058825,0.020809470588235294,-1.188197294117647,-0.0939484705882353,-2.0597334411764705,0.040821235294117644,6393.176470588235,117.32352941176471,-653.6176470588235,-562.1764705882352,1.346832794117647
0 days 00:01:37.488949,-5.27269296969697,-0.16501136363636365,-1.322984727272727,0.8950009999999999,-0.48951327272727274,0.3057118181818182,-0.09330433333333332,0.4933383939393939,0.0834128484848485,0.056199424242424245,-0.0005615757575757576,-0.035368757575757574,3.973442484848485,-42.75757575757576,-8.515151515151516,0.1207880909090909,0.17050236363636365,0.125425,-40.168730878787876,0.08711436363636364,513.1515151515151,7401.969696969697,7079.787878787879,7969.969696969697,7552.727272727273,7424.333333333333,7067.030303030303,7921.666666666667,7528.878787878788,-1.0726929696969698,-0.16501136363636365,-2.022984727272727,0.8950009999999999,-0.48951327272727274,0.3057118181818182,0.056199424242424245,-0.0005615757575757576,-0.035368757575757574,-0.075457,0.128179,0.378581,0.037056,-0.015799,0.014558,-0.17196372727272727,0.09854393939393939,-9.361446454545455,0.08999172727272728,-0.12021339393939394,0.024399333333333335,-1.08858,-0.152209,-2.020643,0.03479,6333.636363636364,-17.757575757575758,-478.7878787878788,-529.6060606060606,1.322984727272727
0 days 00:01:37.553949,-5.2114812424242425,-0.19698130303030303,-1.3003454545454545,0.8901932121212122,-0.46098890909090906,0.3283082121212121,-0.0973068484848485,0.4303803333333333,0.24684296969696964,0.05529539393939394,-0.0010575454545454545,-0.035340696969696966,3.941447030303031,-43.0,-10.090909090909092,0.13174451515151514,0.17075584848484848,0.125425,-40.21775575757576,0.16754860606060606,525.0909090909091,7416.272727272727,6946.151515151515,7949.272727272727,7589.848484848485,7380.151515151515,6947.939393939394,7976.636363636364,7617.030303030303,-1.0114812424242423,-0.19698130303030303,-2.0003454545454544,0.8901932121212122,-0.46098890909090906,0.3283082121212121,0.05529539393939394,-0.0010575454545454545,-0.035340696969696966,-0.07623518181818181,0.12852445454545455,0.3785364545454546,0.037057818181818185,-0.015793545454545452,0.014562545454545455,-0.19424709090909098,0.05350369696969697,-9.194217606060606,0.0551979696969697,0.041030424242424236,0.007649757575757575,-1.041665909090909,-0.17722445454545455,-2.001876181818182,0.03565454545454546,6326.545454545455,36.21212121212121,-631.6060606060606,-559.0,1.3003454545454545
0 days 00:01:37.618949,-5.149464757575758,-0.22739345454545454,-1.276057515151515,0.8922596060606061,-0.4283309090909091,0.33203427272727276,-0.16027939393939397,0.5994885454545454,0.04032672727272732,0.05692445454545454,0.00032678787878787877,-0.035615545454545455,3.909697272727273,-42.93939393939394,-11.06060606060606,0.133889,0.170095,0.125425,-40.2803453939394,0.145104,531.6363636363636,7388.393939393939,7004.484848484848,7946.515151515152,7617.969696969697,7397.181818181818,6976.424242424242,7953.727272727273,7644.0,-0.9494647575757575,-0.22739345454545454,-1.976057515151515,0.8922596060606061,-0.4283309090909091,0.33203427272727276,0.05692445454545454,0.00032678787878787877,-0.035615545454545455,-0.077169,0.128939,0.378483,0.03706,-0.015787,0.014568,-0.25585936363636363,0.20679451515151515,-9.409653151515151,0.05620418181818182,0.018695393939393942,0.01877672727272727,-0.9853690000000002,-0.207243,-1.979356,0.036692,6344.0,55.42424242424242,-611.0,-515.7878787878788,1.276057515151515
0 days 00:01:37.683949,-5.0853365,-0.2558031764705882,-1.2501091176470587,0.8941979411764707,-0.3881175294117647,0.3491639705882353,-0.12522420588235295,0.6119345294117647,0.1143965,0.058049764705882356,0.001328470588235294,-0.03592567647058824,3.8777390588235296,-41.0,-13.0,0.133889,0.170095,0.125425,-40.33315023529411,0.145104,552.0,7459.058823529412,6977.5,7910.85294117647,7650.764705882353,7414.676470588235,7005.882352941177,7947.941176470588,7645.294117647059,-0.8853365000000001,-0.2558031764705882,-1.9501091176470586,0.8941979411764707,-0.3881175294117647,0.3491639705882353,0.058049764705882356,0.001328470588235294,-0.03592567647058824,-0.07826482352941178,0.1294735294117647,0.3784118823529412,0.03706152941176471,-0.015777823529411764,0.014574882352941175,-0.22288602941176472,0.22147867647058822,-9.336483176470589,0.12548838235294119,0.023516558823529415,0.002384029411764706,-0.906511,-0.24372864705882352,-1.9478982941176468,0.039399058823529405,6359.0,53.029411764705884,-585.4117647058823,-502.1764705882353,1.2501091176470587
0 days 00:01:37.748949,-5.024636363636364,-0.280693,-1.2253520303030303,0.8927992424242425,-0.3527135454545455,0.36019978787878787,0.0037530303030303305,0.49382145454545456,0.09857354545454539,0.06372315151515151,0.0039524242424242425,-0.03566648484848485,3.8460664545454546,-40.15151515151515,-14.696969696969697,0.1306359090909091,0.17752736363636365,0.125425,-40.33407012121212,0.1263439090909091,563.8787878787879,7458.424242424242,7005.969696969697,7963.090909090909,7798.636363636364,7542.363636363636,6988.545454545455,7958.060606060606,7800.606060606061,-0.8246363636363636,-0.280693,-1.9253520303030303,0.8927992424242425,-0.3527135454545455,0.36019978787878787,0.06372315151515151,0.0039524242424242425,-0.03566648484848485,-0.07869854545454547,0.12967139393939395,0.3783840606060606,0.03706212121212121,-0.015774454545454546,0.014577484848484848,-0.06374287878787875,0.05320784848484849,-9.34599903030303,0.1313031515151515,-0.016224303030303033,0.03088754545454546,-0.8759531818181818,-0.2574513636363636,-1.9354408787878787,0.0403540606060606,6456.363636363636,197.9090909090909,-612.939393939394,-502.1515151515151,1.2253520303030303
