time,pos_x,pos_y,pos_z,vel_x,vel_y,vel_z,acc_x,acc_y,acc_z,att_phi,att_theta,att_psi,distance_est,centroid_x,centroid_y,divergence,true_divergence,divergence_sp,dt,raw_divergence,color_count,mu_x,p_output,i_output,mu_y, mu_z,rpm_obs_1,rpm_obs_2,rpm_obs_3,rpm_obs_4,rpm_ref_1,rpm_ref_2,rpm_ref_3,rpm_ref_4,ekf_X1,ekf_X2,ekf_X3,ekf_X4,ekf_X5,ekf_X6,ekf_X7,ekf_X8,ekf_X9,ekf_X10,ekf_X11,ekf_X12,ekf_X13,ekf_X14,ekf_X15,ekf_U1,ekf_U2,ekf_U3,ekf_U4,ekf_U5,ekf_U6,ekf_Z1,ekf_Z2,ekf_Z3,ekf_Z4,cmd_thrust,cmd_roll,cmd_pitch,cmd_yaw,pos_z_inverted
0 days 00:03:11.025925,-6.8800060882352945,-2.826740411764706,-0.2885146470588237,0.07314811764705882,0.023916176470588236,-0.06261499999999999,0.0005532352941176795,0.09599164705882357,-0.08438894117647056,0.009842911764705881,-0.010430529411764707,0.46588467647058823,0.578476,-7.0,-7.0,0.900436,0.180879,0.558489,0.0,0.900436,283.52941176470586,0.23860499999999998,0.48981699999999995,-0.251212,0.281778,10.043557,7554.735294117647,7563.794117647059,7385.029411764706,7416.823529411765,7544.176470588235,7610.058823529412,7364.264705882353,7407.794117647059,-1.880006088235294,-0.8267404117647059,-0.9885146470588236,0.07314811764705882,0.023916176470588236,-0.06261499999999999,0.009842911764705881,-0.010430529411764707,0.46588467647058823,-0.26903529411764704,0.13148735294117647,0.0035761764705882354,-0.0009782058823529414,-0.014964558823529412,-0.011945,-0.5903032941176471,0.24474367647058823,-9.89171644117647,0.020428852941176474,-0.05052267647058824,-0.03674311764705882,-1.8859562058823531,-0.8125081176470588,-0.9773669705882353,0.012508205882352942,6328.117647058823,-11.117647058823529,190.85294117647058,77.1470588235294,0.2885146470588237
0 days 00:03:11.090925,-6.8767392727272725,-2.8207583636363633,-0.2908067575757577,0.055406333333333335,0.03279872727272727,-0.05782545454545454,0.3689260606060606,0.14357336363636364,0.15183703030303033,0.01082251515151515,-0.01033030303030303,0.46529466666666663,0.578476,-7.0,-7.0,0.900436,0.180879,0.558489,0.0,0.900436,286.0,0.238605,0.489817,-0.251212,0.281778,10.043557,7478.848484848485,7633.878787878788,7351.393939393939,7442.757575757576,7465.666666666667,7622.545454545455,7360.030303030303,7481.727272727273,-1.8767392727272727,-0.8207583636363636,-0.9908067575757576,0.055406333333333335,0.03279872727272727,-0.05782545454545454,0.01082251515151515,-0.01033030303030303,0.46529466666666663,-0.269137,0.13156,0.003565,-0.000981,-0.014964,-0.011945,-0.23845878787878788,0.11425787878787876,-9.663056333333333,-0.026559545454545457,0.03878136363636364,-0.003469757575757576,-1.882995,-0.806104,-0.977448,0.01234,6329.393939393939,-17.606060606060606,123.03030303030303,196.72727272727272,0.2908067575757577
0 days 00:03:11.155925,-6.874154,-2.813077121212121,-0.2916218181818182,0.05981,0.04825187878787879,-0.05016751515151515,0.4373871818181818,0.006891393939393884,-0.05936193939393939,0.00800060606060606,-0.00799990909090909,0.4664253333333333,0.578476,-7.878787878787879,-7.0,0.900436,0.180879,0.558489,0.0,0.900436,293.030303030303,0.238605,0.489817,-0.251212,0.281778,10.043557,7487.545454545455,7602.272727272727,7355.454545454545,7477.484848484848,7497.848484848485,7598.242424242424,7370.969696969697,7471.30303030303,-1.874154,-0.8130771212121212,-0.9916218181818182,0.05981,0.04825187878787879,-0.05016751515151515,0.00800060606060606,-0.00799990909090909,0.4664253333333333,-0.2692816666666667,0.13166933333333336,0.0035470000000000002,-0.0009843333333333334,-0.014963333333333334,-0.011944333333333333,-0.21167733333333333,-0.012961666666666666,-9.875325545454546,-0.0586750909090909,0.007087545454545455,0.008115757575757577,-1.8802256666666666,-0.798114,-0.9771953333333332,0.011227333333333334,6332.333333333333,-0.06060606060606061,126.6969696969697,141.63636363636363,0.2916218181818182
0 days 00:03:11.220925,-6.870683294117647,-2.807091323529412,-0.29359497058823536,0.06137961764705883,0.04787229411764706,-0.04705855882352941,0.26330973529411766,-0.2071404117647059,0.07956364705882356,0.004485470588235294,-0.007279058823529412,0.46730538235294117,0.34028,-7.764705882352941,-6.794117647058823,0.5296682352941177,0.1063994117647059,0.3696994117647059,-0.00033241176470588234,0.5296682352941177,276.29411764705884,-0.3890558823529412,0.28812764705882354,-0.14777176470588235,0.2151635294117647,9.960327647058824,7515.264705882353,7557.411764705882,7415.411764705882,7500.0,7469.411764705882,7476.441176470588,7541.794117647059,7619.058823529412,-1.870683294117647,-0.8070913235294118,-0.9935949705882353,0.06137961764705883,0.04787229411764706,-0.04705855882352941,0.004485470588235294,-0.007279058823529412,0.46730538235294117,-0.269354,0.131724,0.003538,-0.000986,-0.014963,-0.011944,-0.4527516764705882,-0.09446802941176471,-9.727682735294119,-0.03476844117647058,-0.012838911764705882,-0.0057157647058823525,-1.878841,-0.794119,-0.977069,0.010671,6391.823529411765,35.11764705882353,-107.3529411764706,59.55882352941177,0.29359497058823536
0 days 00:03:11.285925,-6.8687143636363635,-2.797664363636364,-0.2929576363636365,0.0650629696969697,0.06404739393939393,-0.05036745454545455,0.3142330909090909,0.6026276363636364,-0.4271352727272727,0.009277818181818182,-0.029347818181818183,0.4671513333333333,0.0,-7.212121212121212,-6.212121212121212,0.0037659090909090906,0.008141666666666667,0.1,0.002571212121212121,0.03171818181818182,281.57575757575756,-1.5,0.0,0.0,0.9271931818181818,9.52508106060606,7471.333333333333,7283.727272727273,7567.181818181818,7856.757575757576,7546.272727272727,7306.333333333333,7325.212121212121,7726.636363636364,-1.8687143636363637,-0.7976643636363636,-0.9929576363636364,0.0650629696969697,0.06404739393939393,-0.05036745454545455,0.009277818181818182,-0.029347818181818183,0.4671513333333333,-0.26953757575757575,0.13187684848484849,0.003512,-0.0009899393939393937,-0.014962212121212121,-0.011943212121212122,-0.27109960606060607,0.5589488787878788,-10.248490787878788,0.2353515757575758,-0.8205641212121212,-0.015824696969696968,-1.8766948181818182,-0.7838781515151515,-0.9760400303030304,0.009437181818181819,6320.393939393939,320.1515151515151,-99.54545454545455,113.96969696969697,0.2929576363636365
0 days 00:03:11.350925,-6.865819757575758,-2.7887282727272726,-0.29406727272727284,0.06988336363636363,0.10175848484848485,-0.056323333333333336,0.4069346666666667,0.3702546363636363,0.36219857575757575,0.05417339393939394,-0.0939209090909091,0.46496333333333334,10.0,-7.2727272727272725,-6.0,0.00963330303030303,0.011023121212121212,0.0,0.002056969696969697,0.08132278787878788,284.1818181818182,-1.5,0.0,0.0,0.9235568181818182,9.507224333333333,7575.848484848485,7623.363636363636,7084.939393939394,7512.0,7530.818181818182,7833.818181818182,7132.212121212121,7374.666666666667,-1.8658197575757576,-0.7887282727272728,-0.9940672727272728,0.06988336363636363,0.10175848484848485,-0.056323333333333336,0.05417339393939394,-0.0939209090909091,0.46496333333333334,-0.26977954545454547,0.1319769090909091,0.003496,-0.0009923636363636363,-0.014962,-0.011942727272727273,-0.8911873030303029,-0.11600375757575758,-9.44513487878788,1.0464977272727272,-0.9745131212121212,-0.005326636363636362,-1.8752573636363636,-0.7773159090909091,-0.9750945454545454,0.029407363636363634,6308.757575757576,-30.21212121212121,428.1818181818182,385.0,0.29406727272727284
0 days 00:03:11.415925,-6.862441909090909,-2.7753599696969697,-0.2931205757575758,0.10924957575757577,0.17017769696969698,-0.04383239393939394,1.2977905454545455,1.5967726363636363,-0.30309515151515154,0.11042606060606061,-0.1316979696969697,0.46437257575757573,10.0,-7.03030303030303,-5.9393939393939394,0.024203,0.011886,0.0,-0.02721742424242424,0.204619,290.72727272727275,-1.5,0.0,0.0,0.11954545454545454,9.761189484848485,7379.666666666667,8146.0,7469.333333333333,7228.333333333333,7385.121212121212,8051.363636363636,7537.393939393939,7258.454545454545,-1.862441909090909,-0.7753599696969697,-0.9931205757575757,0.10924957575757577,0.17017769696969698,-0.04383239393939394,0.11042606060606061,-0.1316979696969697,0.46437257575757573,-0.270293,0.132134,0.003472,-0.000996,-0.014962,-0.011942,-0.008996212121212094,-0.03926969696969698,-10.310783696969697,0.31239636363636364,-0.21595348484848487,0.05416972727272727,-1.872965,-0.767169,-0.973312,0.083547,6436.121212121212,-471.8181818181818,319.72727272727275,273.3939393939394,0.2931205757575758
0 days 00:03:11.480925,-6.856327264705882,-2.753863470588235,-0.29189535294117663,0.15357320588235293,0.2817423529411765,-0.08120844117647058,1.0179265882352941,1.1871598823529412,-0.6894304705882354,0.08488264705882353,-0.12956032352941177,0.4677541176470588,10.0,8.0,-5.0,0.024203,0.011886,0.0,0.0,0.204619,302.0,-1.5,0.0,0.0,0.105,9.916341,7592.470588235294,7799.411764705882,7677.558823529412,7413.088235294118,7663.64705882353,7682.529411764706,7659.794117647059,7509.441176470588,-1.8563272647058824,-0.7538634705882352,-0.9918953529411766,0.15357320588235293,0.2817423529411765,-0.08120844117647058,0.08488264705882353,-0.12956032352941177,0.4677541176470588,-0.27128105882352943,0.13233782352941173,0.0034428823529411767,-0.0010008529411764705,-0.014961999999999998,-0.011942,-0.4640682941176471,-0.027774588235294138,-10.607967588235296,-0.8693415882352942,0.14066808823529411,0.007051294117647059,-1.866926,-0.7463159117647059,-0.9708729117647058,0.1299304411764706,6536.0,-84.44117647058823,88.3529411764706,-92.79411764705883,0.29189535294117663
0 days 00:03:11.545925,-6.846404424242424,-2.7307831818181816,-0.2958546666666668,0.192102303030303,0.3465961212121212,-0.14806730303030302,1.126108515151515,0.560863,-2.119980787878788,0.022618515151515153,-0.11939881818181818,0.46734569696969697,10.0,15.909090909090908,-3.242424242424242,0.007884090909090908,0.027777272727272727,0.0,0.0020569090909090906,-0.1164349393939394,295.8484848484849,-1.5,0.0,0.0,-0.48296096969696967,11.61772112121212,8310.363636363636,8132.272727272727,8137.575757575758,8111.757575757576,8511.727272727272,8399.181818181818,8343.121212121212,8396.09090909091,-1.8464044242424242,-0.7307831818181818,-0.9958546666666668,0.192102303030303,0.3465961212121212,-0.14806730303030302,0.022618515151515153,-0.11939881818181818,0.46734569696969697,-0.2715871818181818,0.13256163636363635,0.003422909090909091,-0.0010026969696969696,-0.014962,-0.011942424242424242,-0.6962594848484848,0.022845666666666695,-11.988547575757575,-0.8741418484848484,0.12691606060606062,-0.051483999999999995,-1.861311,-0.731974606060606,-0.9709733636363637,0.12624127272727273,7642.424242424242,82.60606060606061,85.6969696969697,-42.0,0.2958546666666668
0 days 00:03:11.610925,-6.833955515151516,-2.704337818181818,-0.3082477878787879,0.25773942424242424,0.36514860606060606,-0.36713036363636364,1.6740971212121212,-0.2708472727272727,-3.743356878787879,-0.024093606060606062,-0.11008578787878788,0.4649402424242424,10.0,16.636363636363637,-2.6363636363636362,-0.0017420000000000005,0.036012666666666665,0.0,0.0025714848484848485,-0.17021433333333336,292.09090909090907,-1.5,0.0,0.0,-0.43089066666666664,11.284718999999999,8642.121212121212,8530.333333333334,8402.939393939394,8640.242424242424,8313.333333333334,8196.939393939394,8078.424242424242,8447.454545454546,-1.8339555151515152,-0.7043378181818182,-1.0082477878787879,0.25773942424242424,0.36514860606060606,-0.36713036363636364,-0.024093606060606062,-0.11008578787878788,0.4649402424242424,-0.271962,0.132857,0.003397,-0.001005,-0.014962,-0.011943,-0.6993962424242425,-0.368045696969697,-13.640743363636364,-0.5431980909090909,0.1253550606060606,-0.05201672727272728,-1.853939,-0.713369,-0.9712100000000001,0.119327,7425.666666666667,242.36363636363637,-7.757575757575758,178.33333333333334,0.3082477878787879
0 days 00:03:11.675925,-6.816461852941177,-2.6773416470588236,-0.3305227352941178,0.3491609705882353,0.3550567352941177,-0.4703264411764706,1.4065975,-0.09213935294117652,-0.0003228235294118263,-0.0355575294117647,-0.10703288235294117,0.46234326470588233,10.0,15.294117647058824,-2.7058823529411766,-0.009834382352941177,0.049324617647058824,0.0,0.0029945294117647058,-0.10513379411764706,289.47058823529414,-1.5,0.0,0.0,0.004717470588235288,9.984973852941177,7679.823529411765,7713.382352941177,7528.794117647059,8049.470588235294,7598.676470588235,7682.705882352941,7413.470588235294,7952.64705882353,-1.8164618529411765,-0.6773416470588236,-1.0305227352941178,0.3491609705882353,0.3550567352941177,-0.4703264411764706,-0.0355575294117647,-0.10703288235294117,0.46234326470588233,-0.2723076470588235,0.133494,0.003345,-0.0010080588235294118,-0.014961999999999998,-0.011943764705882353,-0.3232996764705882,-0.12520102941176464,-9.904612794117648,0.15713323529411766,-0.10533229411764705,-0.04696829411764706,-1.8357084117647058,-0.6816283529411764,-0.9872604117647059,0.11038223529411764,6582.588235294118,227.1764705882353,-42.26470588235294,439.7647058823529,0.3305227352941178
0 days 00:03:11.740925,-6.793109818181819,-2.6518201515151514,-0.3576528181818184,0.40809654545454543,0.3707947878787879,-0.4672328787878788,1.2085864848484849,0.5665080909090908,0.19340572727272728,-0.002127757575757576,-0.11821657575757576,0.46101084848484847,10.0,12.0,-6.0,0.021089,0.063921,0.0,0.0,0.231134,301.0,-1.0942184848484848,0.0,0.0,0.70931,9.833564,7561.818181818182,7790.393939393939,7161.69696969697,7803.666666666667,7586.454545454545,7880.939393939394,7143.545454545455,7709.606060606061,-1.7931098181818181,-0.6518201515151515,-1.0576528181818183,0.40809654545454543,0.3707947878787879,-0.4672328787878788,-0.002127757575757576,-0.11821657575757576,0.46101084848484847,-0.272542,0.1338410909090909,0.0033157272727272727,-0.0010097272727272726,-0.014962181818181817,-0.011944363636363637,-0.2938861212121212,0.23239230303030303,-9.705551636363637,0.8206824242424242,-0.1412982424242424,-0.03313648484848485,-1.8237506363636364,-0.6640945454545454,-0.9985979090909093,0.1102150909090909,6467.181818181818,135.6060606060606,306.6969696969697,607.5454545454545,0.3576528181818184
0 days 00:03:11.805925,-6.768487878787878,-2.622250090909091,-0.37940696969696974,0.4461819393939394,0.42656027272727276,-0.4494669393939394,0.6619995151515152,0.9820674545454545,0.38672896969696974,0.05874318181818182,-0.10842921212121212,0.4606161212121212,10.0,10.06060606060606,-6.96969696969697,0.005559878787878788,0.07231636363636365,0.0,0.002057060606060606,-0.12601324242424242,295.1818181818182,-0.8448486363636364,0.0,0.0,0.37738266666666664,9.86092290909091,7310.545454545455,8037.787878787879,7264.454545454545,7558.151515151515,7266.030303030303,8039.242424242424,7403.909090909091,7576.060606060606,-1.7684878787878788,-0.6222500909090909,-1.0794069696969697,0.4461819393939394,0.42656027272727276,-0.4494669393939394,0.05874318181818182,-0.10842921212121212,0.4606161212121212,-0.273118,0.134521,0.003256,-0.001013,-0.014963,-0.011946,-0.4821556363636364,0.2884706363636364,-9.494998818181818,0.8228723636363636,0.393318,-0.01163730303030303,-1.795183,-0.629141,-1.027393,0.12184800000000001,6454.757575757576,-300.06060606060606,162.45454545454547,667.3030303030303,0.37940696969696974
0 days 00:03:11.870925,-6.740422787878788,-2.592554212121212,-0.40552860606060603,0.4614844848484848,0.49503009090909084,-0.431162303030303,0.5551155757575758,0.9230010909090909,-0.27218763636363646,0.08269348484848485,-0.07634445454545455,0.46461766666666665,10.0,11.363636363636363,-6.090909090909091,0.003293333333333334,0.07594436363636364,0.0,0.002571181818181818,-0.09431542424242424,294.54545454545456,-0.7920849090909091,0.0,0.0,0.09949775757575757,10.012910545454547,7211.606060606061,7909.969696969697,7572.393939393939,7602.909090909091,7294.424242424242,7897.818181818182,7705.757575757576,7653.939393939394,-1.740422787878788,-0.5925542121212122,-1.105528606060606,0.4614844848484848,0.49503009090909084,-0.431162303030303,0.08269348484848485,-0.07634445454545455,0.46461766666666665,-0.2733381818181818,0.13462136363636362,0.003240727272727273,-0.0010133636363636362,-0.01496390909090909,-0.011946363636363637,-0.35987806060606065,0.012695333333333362,-10.136541181818181,-0.03414266666666666,0.4761630606060606,0.012325454545454546,-1.7874459090909092,-0.6204140909090908,-1.0340904545454546,0.11448381818181819,6548.969696969697,-327.06060606060606,-83.60606060606061,389.24242424242425,0.40552860606060603
0 days 00:03:11.935925,-6.717126352941177,-2.558738794117647,-0.42350158823529416,0.44179276470588236,0.5181361176470588,-0.43885058823529416,-0.12402038235294119,-0.13862514705882345,-0.35974802941176476,0.053100794117647065,-0.053465382352941175,0.4676180882352941,10.0,10.882352941176471,-4.205882352941177,0.004935823529411765,0.07870194117647059,0.0,0.002994764705882353,0.007911176470588237,295.5882352941176,-0.7419271176470588,0.0,0.0,-0.27995229411764705,10.063930823529413,7456.588235294118,7867.676470588235,7819.823529411765,7737.705882352941,7478.470588235294,7740.882352941177,7709.117647058823,7708.794117647059,-1.7171263529411767,-0.5587387941176472,-1.1235015882352941,0.44179276470588236,0.5181361176470588,-0.43885058823529416,0.053100794117647065,-0.053465382352941175,0.4676180882352941,-0.274329,0.135073,0.003172,-0.001015,-0.014968,-0.011948,-1.197409294117647,-0.3369714705882353,-10.114717411764707,-0.8214902647058823,0.1644000294117647,-0.0018167058823529416,-1.752629,-0.581143,-1.064229,0.081345,6579.088235294118,-131.14705882352942,-99.1470588235294,185.02941176470588,0.42350158823529416
0 days 00:03:12.000925,-6.690499515151515,-2.5204369393939396,-0.44456648484848493,0.4387689393939394,0.5270759090909092,-0.44593160606060606,0.35518278787878793,-0.1721972121212121,0.26229606060606064,-0.0029196666666666668,-0.050585333333333336,0.46768045454545454,10.0,4.575757575757576,-1.9393939393939394,0.015804939393939395,0.074139,0.0,0.002057030303030303,0.0957158787878788,300.0,-0.6949509393939394,0.0,0.0,-0.37570630303030306,9.561316818181817,7404.424242424242,7469.969696969697,7396.030303030303,7554.181818181818,7440.0,7449.212121212121,7298.121212121212,7524.121212121212,-1.6904995151515152,-0.5204369393939394,-1.1445664848484849,0.4387689393939394,0.5270759090909092,-0.44593160606060606,-0.0029196666666666668,-0.050585333333333336,0.46768045454545454,-0.2747451515151515,0.13562160606060608,0.003110939393939394,-0.0010187575757575756,-0.014967060606060605,-0.01195081818181818,-0.7213542121212121,-0.029356121212121222,-9.542998363636364,-0.8052053939393939,-0.06666512121212122,-0.03875178787878787,-1.7104727575757577,-0.5286318181818183,-1.0995098181818181,0.054270727272727276,6252.30303030303,108.06060606060606,33.39393939393939,166.0,0.44456648484848493
0 days 00:03:12.065925,-6.662045090909091,-2.4865934242424244,-0.47202872727272727,0.4516800303030303,0.5148861212121212,-0.4213260606060606,0.6105771818181818,-0.22325012121212123,0.4962184848484848,-0.038305181818181815,-0.05286054545454545,0.4656161818181818,10.0,-2.0,-1.0,0.014299,0.076955,0.0,0.0,0.0,300.0,-0.6515726666666667,0.0,0.0,-0.175972,9.374399,7377.636363636364,7339.939393939394,7087.424242424242,7558.878787878788,7354.666666666667,7370.090909090909,7073.060606060606,7552.969696969697,-1.662045090909091,-0.4865934242424243,-1.1720287272727272,0.4516800303030303,0.5148861212121212,-0.4213260606060606,-0.038305181818181815,-0.05286054545454545,0.4656161818181818,-0.274772,0.135657,0.003107,-0.001019,-0.014967,-0.011951,-0.515358696969697,0.12946854545454548,-9.329249484848484,-0.21373406060606062,-0.02026369696969697,-0.04996748484848485,-1.707753,-0.525244,-1.101786,0.052524,6125.030303030303,231.9090909090909,49.18181818181818,349.6363636363636,0.47202872727272727
0 days 00:03:12.130925,-6.635326794117647,-2.455692088235294,-0.4935257941176472,0.4742911470588235,0.4894539411764706,-0.3810415,0.5388939117647058,-0.17225279411764705,0.0847871764705883,-0.02824355882352941,-0.051157588235294114,0.4632035882352941,10.0,-2.8529411764705883,-1.0,0.0071927647058823525,0.08344358823529412,0.0,0.0019965,-0.06111905882352941,297.44117647058823,-0.6102746470588236,0.0,0.0,0.006004941176470589,9.730116764705883,7338.794117647059,7579.029411764706,7120.14705882353,7662.411764705882,7355.294117647059,7705.176470588235,7213.823529411765,7724.911764705882,-1.6353267941176473,-0.45569208823529417,-1.1935257941176471,0.4742911470588235,0.4894539411764706,-0.3810415,-0.02824355882352941,-0.051157588235294114,0.4632035882352941,-0.2751949411764706,0.135847,0.003073764705882353,-0.001018705882352941,-0.014969647058823529,-0.011951294117647058,-0.5650275588235294,0.1301126176470588,-9.736960058823529,0.41194408823529416,0.044045852941176473,-0.04340679411764706,-1.6939291764705882,-0.5079207647058823,-1.112560705882353,0.054300764705882354,6353.794117647059,80.44117647058823,60.76470588235294,607.8235294117648,0.4935257941176472
0 days 00:03:12.195925,-6.612117575757576,-2.4237735757575756,-0.5007889999999999,0.45774115151515155,0.4853790303030303,-0.35271509090909087,0.15449442424242427,-0.255946,0.1812635454545455,0.006589848484848485,-0.04505245454545455,0.46299430303030303,10.0,-3.6666666666666665,-3.0,0.036882363636363644,0.08231018181818181,0.0,0.0030854848484848482,0.18289845454545453,311.0,-0.5716390909090909,0.0,0.0,0.35487854545454545,9.815602363636364,7304.030303030303,7811.181818181818,7241.757575757576,7778.181818181818,7320.242424242424,7807.363636363636,7278.090909090909,7762.545454545455,-1.6121175757575759,-0.4237735757575758,-1.2007889999999999,0.45774115151515155,0.4853790303030303,-0.35271509090909087,0.006589848484848485,-0.04505245454545455,0.46299430303030303,-0.276232303030303,0.13666751515151515,0.0029563636363636363,-0.0010207878787878788,-0.014973212121212122,-0.011953393939393939,-0.8879320606060606,-0.08939987878787888,-9.602154303030302,0.5556049090909091,0.08177969696969696,0.00021451515151515164,-1.6253508181818181,-0.4271341818181818,-1.1606582121212121,0.05394130303030303,6413.515151515152,-1.4242424242424243,43.39393939393939,685.8787878787879,0.5007889999999999
0 days 00:03:12.260925,-6.581304393939394,-2.389869696969697,-0.5210878484848485,0.4685908181818182,0.4830581212121212,-0.36087284848484846,0.31083054545454547,-0.10526127272727273,-0.229244393939394,0.04088666666666666,-0.038902151515151515,0.46410260606060605,10.0,-4.454545454545454,-4.454545454545454,0.06798363636363636,0.08220733333333333,0.0,0.002057,0.34142996969696965,325.27272727272725,-0.5359669393939394,0.0,0.0,0.4445678181818182,9.806235575757576,7306.606060606061,7782.181818181818,7310.939393939394,7740.787878787879,7308.484848484848,7788.787878787879,7352.272727272727,7700.484848484848,-1.581304393939394,-0.389869696969697,-1.2210878484848484,0.4685908181818182,0.4830581212121212,-0.36087284848484846,0.04088666666666666,-0.038902151515151515,0.46410260606060605,-0.276262,0.13684048484848485,0.002937272727272727,-0.0010221818181818181,-0.01497181818181818,-0.011954121212121213,-0.6473721515151515,-0.3284504848484848,-10.022283393939393,0.4572902121212121,0.0779770606060606,0.00048827272727272673,-1.6067619696969697,-0.406694303030303,-1.1722097878787878,0.05113724242424242,6407.030303030303,-65.96969696969697,22.181818181818183,584.8484848484849,0.5210878484848485
0 days 00:03:12.325925,-6.548197181818182,-2.3521738181818184,-0.5376603636363637,0.462119,0.4930370606060607,-0.3546472727272727,0.22347784848484847,0.08223887878787882,-0.3076721515151514,0.06047324242424242,-0.03463248484848485,0.4654789090909091,10.0,-5.0,-5.0,0.085987,0.084025,0.0,0.0,0.357185,334.0,-0.5025115454545455,0.0,0.0,0.325975,9.786342,7294.090909090909,7753.060606060606,7385.484848484848,7640.393939393939,7313.878787878788,7747.393939393939,7413.757575757576,7625.575757575758,-1.5481971818181819,-0.3521738181818182,-1.2376603636363637,0.462119,0.4930370606060607,-0.3546472727272727,0.06047324242424242,-0.03463248484848485,0.4654789090909091,-0.276572,0.137065,0.002895,-0.001025,-0.014969,-0.011956,-0.5917673636363636,-0.34795215151515146,-10.097833787878788,0.1394339393939394,0.05444330303030303,-0.0018198787878787892,-1.557208,-0.354123,-1.201393,0.038834,6389.606060606061,-110.75757575757575,10.93939393939394,455.42424242424244,0.5376603636363637
0 days 00:03:12.390925,-6.516084529411765,-2.3161712647058823,-0.5578480294117647,0.476149,0.5109704705882353,-0.36748761764705884,0.21290023529411758,0.044065676470588226,0.12425673529411764,0.052218058823529416,-0.031011411764705885,0.46667923529411764,10.0,-7.823529411764706,-0.29411764705882354,0.08408505882352942,0.0861740294117647,0.0,0.002495735294117647,0.09528514705882353,337.7647058823529,-0.47068782352941174,0.0,0.0,-0.7497578235294117,9.664973352941177,7214.35294117647,7752.264705882353,7505.117647058823,7488.176470588235,7223.823529411765,7740.588235294118,7516.529411764706,7447.088235294118,-1.5160845294117649,-0.3161712647058823,-1.2578480294117647,0.476149,0.5109704705882353,-0.36748761764705884,0.052218058823529416,-0.031011411764705885,0.46667923529411764,-0.276823,0.13714749999999998,0.0028725,-0.001026,-0.014966999999999998,-0.011957,-0.5570427647058823,-0.2696462352941177,-9.667250617647058,-0.5202995588235294,0.02463670588235294,0.009765676470588236,-1.532438,-0.3258705,-1.2152135,0.037913,6328.764705882353,-292.6764705882353,0.35294117647058826,315.7647058823529,0.5578480294117647
0 days 00:03:12.455925,-6.483539242424243,-2.2794022121212123,-0.5773547575757576,0.47471124242424245,0.5081035454545454,-0.34412745454545457,0.07261960606060607,-0.6235943939393939,0.4029415151515152,-0.01172460606060606,-0.02906890909090909,0.4681459696969697,10.0,-10.272727272727273,-2.272727272727273,0.083901,0.086382,0.0,-0.027217636363636364,0.06994,344.06060606060606,-0.4408746363636364,0.0,0.0,-0.8211337272727273,9.631409818181819,7447.69696969697,7508.909090909091,7394.30303030303,7524.151515151515,7516.333333333333,7416.727272727273,7330.757575757576,7599.787878787879,-1.4835392424242424,-0.27940221212121213,-1.2773547575757576,0.47471124242424245,0.5081035454545454,-0.34412745454545457,-0.01172460606060606,-0.02906890909090909,0.4681459696969697,-0.277074,0.13723,0.00285,-0.001027,-0.014965,-0.011958,-0.9535985151515152,-0.17649148484848487,-9.403882545454545,-1.248143,0.02635993939393939,-0.011822363636363636,-1.507668,-0.297618,-1.229034,0.036992,6306.0,183.8181818181818,1.2727272727272727,119.54545454545455,0.5773547575757576
0 days 00:03:12.520925,-6.450554060606061,-2.2417385757575756,-0.5918022121212121,0.47247557575757576,0.46713860606060603,-0.3137478484848485,0.5669890000000001,-0.9769336969696969,0.403138303030303,-0.07756254545454545,-0.027675454545454548,0.4662851515151515,10.0,-12.090909090909092,-2.4545454545454546,0.0782049696969697,0.08593433333333333,0.0,0.002057030303030303,0.022919030303030302,345.45454545454544,-0.4133326666666666,0.0,0.0,-0.13359833333333335,9.514266242424242,7631.060606060606,7240.090909090909,7119.575757575758,7750.636363636364,7624.424242424242,7189.909090909091,6981.393939393939,7828.272727272727,-1.4505540606060607,-0.24173857575757576,-1.291802212121212,0.47247557575757576,0.46713860606060603,-0.3137478484848485,-0.07756254545454545,-0.027675454545454548,0.4662851515151515,-0.2772849090909091,0.1375918181818182,0.002801818181818182,-0.0010297272727272729,-0.014961363636363637,-0.011958909090909091,-0.6394412727272728,-0.11393221212121214,-9.462979484848486,-0.6121493939393939,0.02419948484848485,-0.07056409090909091,-1.4601589090909093,-0.24322436363636363,-1.2551003636363636,0.033122,6221.393939393939,639.6666666666666,2.484848484848485,291.0,0.5918022121212121
0 days 00:03:12.585925,-6.419129878787879,-2.2131402121212123,-0.6102776363636364,0.49436390909090905,0.3990752121212121,-0.27888333333333337,0.3838918181818182,-0.9708831818181818,0.4073614545454546,-0.06403930303030303,-0.026560484848484847,0.461437,10.0,-13.0,-1.9393939393939394,0.072844,0.085513,0.0,0.0,-0.021336,345.42424242424244,-0.3875502121212121,0.0,0.0,0.501943,9.411714,7469.666666666667,7233.272727272727,6760.878787878788,7914.424242424242,7327.727272727273,7414.545454545455,6809.666666666667,7862.30303030303,-1.4191298787878788,-0.21314021212121212,-1.3102776363636364,0.49436390909090905,0.3990752121212121,-0.27888333333333337,-0.06403930303030303,-0.026560484848484847,0.461437,-0.277306,0.137628,0.002797,-0.00103,-0.014961,-0.011959,-0.7864879393939395,-0.15764087878787877,-9.446673818181818,1.0308504848484847,0.0048532424242424274,-0.08220893939393939,-1.455408,-0.237785,-1.257707,0.032735,6147.393939393939,482.1515151515151,35.03030303030303,804.2727272727273,0.6102776363636364
0 days 00:03:12.650925,-6.386294647058824,-2.183329823529412,-0.6190878529411765,0.5135502647058824,0.3731379411764706,-0.2557318823529412,0.5955388529411765,-0.1332224705882353,0.02491844117647058,0.024597176470588233,-0.02431005882352941,0.460891,10.0,-13.0,0.0,0.094178,0.090674,0.0,0.0024956470588235295,0.232082,359.0,-0.3629945,0.0,0.0,-0.323557,9.78,7044.058823529412,7924.941176470588,7183.470588235294,7761.617647058823,7044.264705882353,8012.088235294118,7334.029411764706,7686.882352941177,-1.3862946470588235,-0.18332982352941177,-1.3190878529411765,0.5135502647058824,0.3731379411764706,-0.2557318823529412,0.024597176470588233,-0.02431005882352941,0.460891,-0.27781047058823527,0.13778517647058822,0.0027424117647058825,-0.0010328235294117648,-0.01496005882352941,-0.011959941176470588,-0.21429791176470592,-0.3092256470588235,-9.798770676470589,1.1763988235294118,0.04682476470588235,0.04776538235294118,-1.4044188235294117,-0.18620476470588238,-1.280396882352941,0.030719,6381.35294117647,-306.94117647058823,17.705882352941178,932.3529411764706,0.6190878529411765
0 days 00:03:12.715925,-6.349895393939394,-2.152262818181818,-0.6305342121212121,0.5179494242424243,0.40032775757575756,-0.24790942424242424,0.054806393939393926,0.34467142424242425,0.16029057575757574,0.05510863636363636,-0.019920575757575755,0.4671632121212121,10.0,-13.848484848484848,2.5454545454545454,0.08919772727272728,0.09369390909090909,0.0,0.0025712424242424242,0.08223527272727274,361.54545454545456,-0.34001742424242426,0.0,0.0,-0.5050166363636364,9.723605181818183,7130.727272727273,7856.272727272727,7524.333333333333,7538.0,7228.090909090909,7716.060606060606,7547.757575757576,7494.575757575758,-1.349895393939394,-0.1522628181818182,-1.330534212121212,0.5179494242424243,0.40032775757575756,-0.24790942424242424,0.05510863636363636,-0.019920575757575755,0.4671632121212121,-0.27842733333333336,0.13763366666666665,0.002719,-0.0010356666666666667,-0.014956666666666667,-0.011960666666666666,-0.4233546363636364,0.0726503636363636,-9.652225363636363,-0.22721348484848483,0.07056415151515151,0.06950618181818181,-1.3638919999999999,-0.14984433333333333,-1.2953716666666666,0.022997666666666663,6349.333333333333,-270.1818181818182,-49.09090909090909,306.8181818181818,0.6305342121212121
0 days 00:03:12.780925,-6.31529303030303,-2.122404606060606,-0.6439683030303032,0.5126324545454546,0.42686290909090907,-0.23968684848484847,0.09810087878787878,-0.18151327272727275,0.06813021212121217,0.01213421212121212,-0.017322939393939394,0.4698891818181818,10.0,-15.878787878787879,-0.7575757575757576,0.12620463636363638,0.09525590909090909,0.0,0.002057090909090909,0.42745509090909095,384.54545454545456,-0.3187838484848485,0.0,0.0,0.7948426363636364,9.612543,7654.757575757576,7272.545454545455,7321.575757575758,7644.939393939394,7765.121212121212,7138.363636363636,7183.424242424242,7746.818181818182,-1.3152930303030304,-0.12240460606060606,-1.3439683030303031,0.5126324545454546,0.42686290909090907,-0.23968684848484847,0.01213421212121212,-0.017322939393939394,0.4698891818181818,-0.27872,0.137553,0.002709,-0.001037,-0.014955,-0.011961,-0.6016216969696969,0.0149739393939394,-9.739376272727272,-0.6901708484848486,-0.010305757575757577,-0.029970090909090908,-1.345222,-0.133276,-1.30215,0.0192,6295.424242424242,594.2424242424242,-13.393939393939394,-44.696969696969695,0.6439683030303032
0 days 00:03:12.845925,-6.282070382352941,-2.094713823529412,-0.659162705882353,0.5059828235294118,0.4192212941176471,-0.22418511764705884,0.17931397058823528,-0.17141185294117647,0.29444970588235303,0.01609,-0.017600676470588238,0.46525,10.0,-16.58823529411765,-1.4411764705882353,0.13058635294117646,0.09520429411764707,0.0,0.002495529411764706,0.42990911764705886,387.61764705882354,-0.2986089411764706,0.0,0.0,0.8925667647058824,9.587583411764706,7657.676470588235,7252.705882352941,7100.235294117647,7783.558823529412,7521.0,7395.029411764706,7112.088235294118,7756.764705882353,-1.2820703823529411,-0.09471382352941177,-1.359162705882353,0.5059828235294118,0.4192212941176471,-0.22418511764705884,0.01609,-0.017600676470588238,0.46525,-0.27872,0.137553,0.002709,-0.001037,-0.014955,-0.011961,-0.5262810294117647,-0.04150399999999996,-9.512494205882353,0.737276,-0.021369470588235295,-0.09337658823529411,-1.345222,-0.133276,-1.30215,0.0192,6278.235294117647,384.6470588235294,23.5,366.20588235294116,0.659162705882353
0 days 00:03:12.910925,-6.248403848484848,-2.064075818181818,-0.6701298787878789,0.5082748181818182,0.43661733333333336,-0.1988689393939394,0.3171470909090908,0.47473478787878787,0.4983790303030303,0.08279051515151514,-0.01747927272727273,0.4627517575757576,9.422152909090908,-20.242424242424242,-4.7272727272727275,0.13133748484848484,0.09477454545454544,0.021498,0.0030855151515151516,0.13737403030303028,397.72727272727275,-0.3293661212121212,0.0,-0.09090909090909091,0.611151393939394,9.51174693939394,7180.090909090909,7629.363636363636,7160.575757575758,7599.121212121212,7108.636363636364,7687.454545454545,7250.878787878788,7560.060606060606,-1.2484038484848485,-0.06407581818181818,-1.3701298787878788,0.5082748181818182,0.43661733333333336,-0.1988689393939394,0.08279051515151514,-0.01747927272727273,0.4627517575757576,-0.2791418181818182,0.13737451515151514,0.002697181818181818,-0.0010385151515151514,-0.014953787878787879,-0.01196130303030303,-0.09218178787878785,-0.15912051515151518,-9.326497333333332,1.0103278484848486,0.014204545454545454,-0.008241545454545455,-1.3126450303030301,-0.10369872727272728,-1.313310909090909,0.017257878787878787,6215.484848484848,-134.4848484848485,-7.484848484848484,626.8181818181819,0.6701298787878789
0 days 00:03:12.975925,-6.21449803030303,-2.0268580606060604,-0.6744904848484847,0.49945845454545457,0.5022701818181818,-0.16855054545454545,-0.05738587878787877,0.8679587272727272,-0.06209236363636366,0.12018851515151516,-0.01949127272727273,0.46529427272727275,6.159130272727272,-20.96969696969697,-6.696969696969697,0.118239,0.097098,0.118239,0.0,0.036899,399.8787878787879,-0.6,0.0,-0.6,0.576948,9.650895,7119.757575757576,7696.060606060606,7460.484848484848,7597.090909090909,7206.181818181818,7645.787878787879,7445.242424242424,7586.181818181818,-1.2144980303030302,-0.026858060606060608,-1.3744904848484847,0.49945845454545457,0.5022701818181818,-0.16855054545454545,0.12018851515151516,-0.01949127272727273,0.46529427272727275,-0.280112,0.136964,0.00267,-0.001042,-0.014951,-0.011962,-0.29205133333333333,-0.03864824242424242,-9.90675312121212,0.1018731212121212,-0.14468660606060607,0.0557010303030303,-1.237718,-0.035671,-1.338981,0.012791,6313.0,-149.0909090909091,-89.54545454545455,409.7878787878788,0.6744904848484847
0 days 00:03:13.040925,-6.183296090909091,-1.9892360303030303,-0.6802808787878789,0.4759201212121212,0.5662973636363636,-0.1692869090909091,-0.19875666666666664,0.5539189393939394,0.12306699999999995,0.09214987878787878,-0.03436951515151515,0.4673426363636364,6.11239690909091,-20.0,3.0,0.096575,0.093489,0.118239,0.002056969696969697,-0.074217,396.0,-0.746903,-0.146578,-0.600325,-2.224781,9.783659,7267.69696969697,7891.666666666667,7880.030303030303,7395.212121212121,7341.151515151515,7921.060606060606,7938.454545454545,7374.212121212121,-1.183296090909091,0.010763969696969697,-1.3802808787878789,0.4759201212121212,0.5662973636363636,-0.1692869090909091,0.09214987878787878,-0.03436951515151515,0.4673426363636364,-0.2808813636363636,0.13664836363636362,0.0026502727272727272,-0.0010432727272727273,-0.014950363636363637,-0.011961363636363636,-0.6888317272727273,0.04311663636363637,-9.698271696969696,-1.175862606060606,-0.3003447878787879,0.04558018181818182,-1.2062135454545455,-0.0021371818181818198,-1.347802909090909,0.018755636363636363,6557.0,-571.2121212121212,-25.151515151515152,11.181818181818182,0.6802808787878789
0 days 00:03:13.105925,-6.152862029411764,-1.9493597058823529,-0.6879662941176472,0.4734704117647059,0.5852660294117648,-0.16822920588235293,0.6926959705882352,-0.4504025,-0.21082311764705886,-0.03701055882352941,-0.05343441176470588,0.46893552941176475,6.065289823529412,-20.529411764705884,2.4705882352941178,0.0753875,0.0920795,0.11823900000000001,0.0019965588235294116,-0.180701,388.05882352941177,-0.890735,-0.28993,-0.6008055,-1.0019065,9.7050015,7894.323529411765,7429.0,7638.882352941177,7576.323529411765,8002.5,7103.205882352941,7381.088235294118,7739.411764705882,-1.1528620294117646,0.05064029411764706,-1.3879662941176472,0.4734704117647059,0.5852660294117648,-0.16822920588235293,-0.03701055882352941,-0.05343441176470588,0.46893552941176475,-0.281321,0.136468,0.002639,-0.001044,-0.01495,-0.011961,-0.5448930882352941,0.01826747058823527,-10.056698058823528,-2.239954411764706,-0.2664508529411765,-0.027178588235294118,-1.188211,0.017025,-1.352844,0.022164,6434.0,627.7352941176471,-7.382352941176471,-381.94117647058823,0.6879662941176472
0 days 00:03:13.170925,-6.122849969696969,-1.9117892424242424,-0.6927623939393941,0.5167921818181818,0.5485802727272727,-0.1758328787878788,1.2760253636363637,-1.005399303030303,-0.281584,-0.11645754545454545,-0.06911239393939393,0.46319493939393935,6.018505787878788,-19.0,4.333333333333333,0.06355363636363637,0.09391848484848485,0.118239,0.0030854848484848482,-0.12861651515151518,387.3333333333333,-0.9714312424242425,-0.36999533333333334,-0.601436606060606,-0.19030169696969698,9.75612915151515,8019.060606060606,6893.545454545455,7033.787878787879,7985.272727272727,7846.181818181818,7239.787878787879,7084.030303030303,7969.848484848485,-1.1228499696969696,0.08821075757575758,-1.392762393939394,0.5167921818181818,0.5485802727272727,-0.1758328787878788,-0.11645754545454545,-0.06911239393939393,0.46319493939393935,-0.2816255454545455,0.136838,0.0025926363636363634,-0.001044909090909091,-0.014950909090909093,-0.01196009090909091,-0.4319069090909092,0.09517051515151516,-10.21839490909091,0.11042551515151516,-0.2680589696969697,-0.17925851515151514,-1.1448664545454545,0.06894954545454546,-1.3653612727272728,0.055503090909090905,6403.424242424242,744.8484848484849,15.848484848484848,197.27272727272728,0.6927623939393941
0 days 00:03:13.235925,-6.088346969696969,-1.8781537272727273,-0.7010928484848484,0.5695848484848485,0.49322451515151516,-0.1901260909090909,0.6343197575757575,-0.5808305757575757,-0.07658381818181813,-0.057631636363636364,-0.08359996969696969,0.458574,5.972776939393939,-13.303030303030303,6.454545454545454,0.10373657575757575,0.10567369696969697,0.118239,0.002056969696969697,0.3361287575757576,411.8787878787879,-0.6998180303030302,-0.0981189393939394,-0.6016990909090909,-0.17221645454545456,10.070393757575758,7568.818181818182,8027.363636363636,7230.090909090909,7923.333333333333,7608.727272727273,8041.969696969697,7159.515151515152,7960.909090909091,-1.0883469696969696,0.12184627272727273,-1.4010928484848484,0.5695848484848485,0.49322451515151516,-0.1901260909090909,-0.057631636363636364,-0.08359996969696969,0.458574,-0.28183578787878794,0.13704448484848486,0.0025684242424242423,-0.0010455151515151515,-0.014951515151515151,-0.01196,-0.9435664545454545,0.16160630303030304,-9.903882545454545,1.0944972121212122,-0.09844778787878788,-0.008833454545454544,-1.1148475757575758,0.09923657575757576,-1.3741558484848486,0.07172712121212121,6626.242424242424,183.84848484848484,264.72727272727275,871.5454545454545,0.7010928484848484
0 days 00:03:13.300925,-6.050388147058824,-1.8461186176470588,-0.7112423823529412,0.6040901470588236,0.4877877352941177,-0.21192273529411765,0.5274232352941176,0.2480320882352941,-0.5756242352941177,0.021263205882352944,-0.07114026470588236,0.46022385294117646,5.926825794117647,-11.0,3.0,0.132459,0.112264,0.11823900000000001,0.0,0.49003299999999994,428.0,-0.505355,0.096215,-0.60157,1.310869,10.094638,7706.85294117647,7902.382352941177,7209.911764705882,8047.235294117647,7581.64705882353,7896.941176470588,7343.176470588235,7994.0,-1.0503881470588237,0.1538813823529412,-1.4112423823529412,0.6040901470588236,0.4877877352941177,-0.21192273529411765,0.021263205882352944,-0.07114026470588236,0.46022385294117646,-0.282005,0.137204,0.00255,-0.001046,-0.014952000000000002,-0.01196,-0.5968807647058822,0.16989305882352942,-10.417365676470588,1.4951745588235295,0.37742697058823527,-0.005320823529411763,-1.090674,0.12285500000000002,-1.381255,0.083859,6642.0,167.41176470588235,70.67647058823529,682.0,0.7112423823529412
0 days 00:03:13.365925,-6.013059999999999,-1.8152818181818182,-0.7221904545454545,0.5934391818181819,0.5435161212121212,-0.2454098787878788,0.022083606060606054,1.0533243030303032,-0.5814905151515152,0.1138740303030303,-0.04512357575757575,0.46308218181818184,5.881121212121212,-8.181818181818182,3.9393939393939394,0.10744172727272727,0.11837672727272726,0.118239,0.002057,-0.050321545454545466,422.3636363636364,-0.6748031818181819,-0.07305227272727273,-0.6017509090909091,-0.10898918181818182,10.054944363636363,7157.909090909091,8059.727272727273,7793.69696969697,7726.515151515152,7080.606060606061,8059.69696969697,7887.939393939394,7596.909090909091,-1.0130599999999998,0.1847181818181818,-1.4221904545454545,0.5934391818181819,0.5435161212121212,-0.2454098787878788,0.1138740303030303,-0.04512357575757575,0.46308218181818184,-0.28244148484848486,0.13716381818181816,0.0025287272727272728,-0.0010444242424242425,-0.014953575757575758,-0.01195921212121212,-0.4212535757575758,0.11286699999999998,-10.448981999999999,0.9276233939393939,0.27866806060606064,0.04002424242424242,-1.0427599393939393,0.15819530303030302,-1.396365727272727,0.06382403030303031,6574.727272727273,-633.969696969697,-171.96969696969697,485.72727272727275,0.7221904545454545
0 days 00:03:13.430925,-5.975918424242424,-1.7797884242424242,-0.7361620606060608,0.5712955454545454,0.620304393939394,-0.25578639393939395,0.018463969696969673,0.8450696363636363,-0.02525666666666669,0.10607909090909091,-0.03907942424242424,0.4682529696969697,5.836493363636364,-10.909090909090908,7.636363636363637,0.10494,0.118988,0.118239,-0.02721748484848485,-0.104357,416.1818181818182,-0.691748,-0.089979,-0.601769,-0.30324772727272725,10.023096212121212,7319.121212121212,7847.212121212121,7927.363636363636,7505.818181818182,7474.515151515152,7706.909090909091,7840.515151515152,7534.878787878788,-0.9759184242424244,0.22021157575757574,-1.4361620606060608,0.5712955454545454,0.620304393939394,-0.25578639393939395,0.10607909090909091,-0.03907942424242424,0.4682529696969697,-0.2828088181818182,0.13712281818181818,0.002518272727272727,-0.0010432727272727273,-0.014954363636363635,-0.011959363636363636,-0.4300722424242424,0.055841636363636336,-9.877367272727273,-0.9867424242424242,-0.0664950909090909,0.03969857575757575,-1.0073403636363636,0.1852390909090909,-1.4094125454545454,0.04995981818181818,6550.575757575758,-268.54545454545456,-96.75757575757575,-51.666666666666664,0.7361620606060608
0 days 00:03:13.495925,-5.938610090909091,-1.741100515151515,-0.7504162121212121,0.5717829393939393,0.635305606060606,-0.2506608484848485,0.23883803030303033,-0.4772275151515152,0.3022936666666667,0.019472272727272727,-0.04745233333333333,0.46807930303030304,5.792190909090909,-15.606060606060606,9.515151515151516,0.09314751515151515,0.11653175757575758,0.118239,0.002057,-0.10608790909090908,410.90909090909093,-0.7718105454545454,-0.16976760606060606,-0.6020429393939394,-0.868944696969697,9.47705209090909,7674.757575757576,7411.939393939394,7624.575757575758,7502.030303030303,7482.878787878788,7283.272727272727,7484.545454545455,7413.545454545455,-0.938610090909091,0.25889948484848485,-1.450416212121212,0.5717829393939393,0.635305606060606,-0.2506608484848485,0.019472272727272727,-0.04745233333333333,0.46807930303030304,-0.283246,0.13707,0.00251,-0.001042,-0.014955,-0.01196,-0.8814808484848484,-0.3869259393939394,-9.487097484848483,-1.397801303030303,-0.17107599999999998,-0.052283030303030296,-0.967931,0.215915,-1.425125,0.035137,6235.606060606061,64.06060606060606,-65.93939393939394,-191.12121212121212,0.7504162121212121
0 days 00:03:13.560925,-5.901663588235294,-1.702523794117647,-0.7648424117647059,0.5901206764705882,0.5932555,-0.19711211764705883,0.8975575294117647,-0.8399773529411765,1.194838617647059,-0.06593917647058824,-0.05879811764705883,0.4651503823529412,5.747556705882353,-18.970588235294116,10.058823529411764,0.080618,0.113922,0.11823900000000001,0.0,-0.107927,409.05882352941177,-0.856877,-0.254543,-0.602334,-1.44585,8.909759,7194.441176470588,7012.705882352941,7191.764705882353,7226.411764705882,7248.911764705882,7035.941176470588,7145.35294117647,7308.617647058823,-0.9016635882352941,0.29747620588235296,-1.4648424117647059,0.5901206764705882,0.5932555,-0.19711211764705883,-0.06593917647058824,-0.05879811764705883,0.4651503823529412,-0.28323564705882354,0.13717000000000001,0.002504,-0.0010412941176470587,-0.014956058823529413,-0.011960235294117647,-0.4985351176470588,-0.25896141176470583,-8.690860588235294,-1.2551915588235294,-0.21685435294117647,-0.06158085294117647,-0.9607486470588235,0.22224229411764704,-1.4281248823529413,0.03734558823529412,5909.0,187.91176470588235,-84.32352941176471,-35.23529411764706,0.7648424117647059
0 days 00:03:13.625925,-5.86799293939394,-1.680625484848485,-0.7709256060606062,0.6326879999999999,0.49307012121212124,-0.1338067878787879,1.333183,-1.4696590606060604,0.04179812121212115,-0.1277792727272727,-0.0681889393939394,0.4624502121212121,5.703242666666667,-17.87878787878788,11.393939393939394,0.14254927272727275,0.12204881818181819,0.118239,0.005142575757575757,0.4646045454545455,446.1818181818182,-0.43745454545454543,0.16448227272727273,-0.6019377272727272,-0.3842444545454546,9.789835,7740.545454545455,7260.515151515152,6954.727272727273,7683.727272727273,7861.69696969697,7415.575757575758,6951.212121212121,7889.151515151515,-0.8679929393939394,0.31937451515151516,-1.4709256060606062,0.6326879999999999,0.49307012121212124,-0.1338067878787879,-0.1277792727272727,-0.0681889393939394,0.4624502121212121,-0.28313848484848486,0.1380092121212121,0.002456090909090909,-0.0010356363636363636,-0.014963878787878788,-0.011962,-0.5804924242424242,-0.31273672727272733,-9.94498690909091,-0.37048715151515155,-0.02864581818181818,-0.07816936363636363,-0.8989761515151516,0.2756064545454545,-1.4528432727272726,0.056222606060606056,6395.636363636364,690.8484848484849,218.15151515151516,347.030303030303,0.7709256060606062
0 days 00:03:13.690925,-5.82186906060606,-1.6550747272727273,-0.7786398484848487,0.7158888484848485,0.4111340909090909,-0.13866548484848487,1.1210826666666667,-1.0081646666666666,0.2517667575757576,-0.09205730303030303,-0.05331381818181818,0.4572831818181818,5.659936515151515,-17.0,7.0,0.155062,0.133947,0.118239,0.0,0.23186,462.0,-0.35229,0.249145,-0.601435,0.808881,9.798925,7653.0,7494.363636363636,6886.757575757576,8123.333333333333,7500.69696969697,7571.969696969697,6974.272727272727,8117.181818181818,-0.8218690606060606,0.3449252727272727,-1.4786398484848486,0.7158888484848485,0.4111340909090909,-0.13866548484848487,-0.09205730303030303,-0.05331381818181818,0.4572831818181818,-0.282997,0.138656,0.002435,-0.001033,-0.014963,-0.011962,-0.3861564242424242,-0.22351448484848485,-9.680871212121213,1.4435221212121212,0.38492099999999996,-0.05863815151515152,-0.841666,0.31845,-1.468933,0.072989,6412.0,534.969696969697,-9.363636363636363,856.969696969697,0.7786398484848487
0 days 00:03:13.755925,-5.7733777058823526,-1.6315503235294118,-0.787629617647059,0.7313353823529412,0.3805860294117647,-0.13974817647058824,-0.10189091176470591,0.07834294117647059,-0.003986970588235318,0.03411444117647059,-0.02810279411764706,0.45549073529411765,5.616338441176471,-14.264705882352942,4.264705882352941,0.14436347058823532,0.15046729411764706,0.11823900000000001,0.0024955588235294115,0.09415470588235295,467.47058823529414,-0.42435,0.17675852941176473,-0.6011085294117647,0.536651294117647,9.929389705882352,7018.558823529412,7966.088235294118,7345.588235294118,7994.764705882353,6945.205882352941,8043.411764705882,7494.35294117647,7893.676470588235,-0.7733777058823529,0.36844967647058824,-1.487629617647059,0.7313353823529412,0.3805860294117647,-0.13974817647058824,0.03411444117647059,-0.02810279411764706,0.45549073529411765,-0.2830685,0.1387165,0.0024335000000000003,-0.0010315,-0.0149635,-0.011962,-0.7748162647058824,0.053021588235294174,-9.806899147058823,1.9498219705882354,0.29352888235294117,0.030452999999999997,-0.805353,0.33767199999999997,-1.4777765,0.0528765,6487.0,-349.0,-199.41176470588235,1056.9705882352941,0.787629617647059
0 days 00:03:13.820925,-5.726062818181818,-1.6081995151515152,-0.7964007575757577,0.689272696969697,0.40996954545454545,-0.13714045454545457,-0.705006393939394,0.6465247878787879,-0.10299518181818179,0.11423748484848484,-0.018210242424242424,0.461862,5.573063303030303,-14.848484848484848,7.393939393939394,0.13303415151515152,0.1488101818181818,0.118239,0.002057,0.020974575757575758,466.3030303030303,-0.5009623636363636,0.10010539393939394,-0.6010673636363636,-0.4522517272727273,9.811229666666666,6917.424242424242,8054.727272727273,7777.272727272727,7667.878787878788,6916.181818181818,8004.848484848485,7887.787878787879,7481.090909090909,-0.7260628181818182,0.39180048484848484,-1.4964007575757576,0.689272696969697,0.40996954545454545,-0.13714045454545457,0.11423748484848484,-0.018210242424242424,0.461862,-0.28314,0.138777,0.002432,-0.00103,-0.014964,-0.011962,-0.9820963636363637,0.04314624242424244,-9.931729424242425,0.4082178181818182,0.014049272727272726,0.08957739393939394,-0.76904,0.356894,-1.48662,0.032764,6456.424242424242,-746.4545454545455,-223.5151515151515,481.3939393939394,0.7964007575757577
0 days 00:03:13.885925,-5.683201363636364,-1.5850163333333334,-0.8056440000000002,0.6467819393939394,0.42204230303030305,-0.1305859393939394,-0.06165742424242425,-0.12953636363636364,0.044613999999999994,0.06262357575757575,-0.026121575757575757,0.4673960909090909,5.530724545454546,-18.333333333333332,12.0,0.1166520909090909,0.14132836363636364,0.118239,0.0030855757575757575,-0.036645363636363636,465.6969696969697,-0.6118238181818182,-0.010733454545454544,-0.6010895454545455,-1.596381,9.511259363636363,7068.757575757576,7816.151515151515,8052.181818181818,7211.757575757576,7348.515151515152,7472.818181818182,7795.090909090909,7265.727272727273,-0.6832013636363636,0.4149836666666667,-1.5056440000000002,0.6467819393939394,0.42204230303030305,-0.1305859393939394,0.06262357575757575,-0.026121575757575757,0.4673960909090909,-0.28340218181818183,0.13867093939393937,0.002440484848484849,-0.0010274545454545454,-0.014964848484848485,-0.011962848484848486,-0.812115303030303,-0.40802557575757575,-9.73248106060606,-2.0472449090909093,-0.2583378787878788,0.07540245454545455,-0.7078328484848485,0.389120303030303,-1.5024196363636364,0.020198787878787875,6312.545454545455,-326.3030303030303,-119.45454545454545,-285.8181818181818,0.8056440000000002
0 days 00:03:13.950925,-5.641113818181818,-1.5601542727272728,-0.8143698787878788,0.6691928787878788,0.38789084848484845,-0.12017857575757575,1.1077291515151515,-0.9196025757575756,0.5912297272727273,-0.08641645454545455,-0.04080369696969697,0.4673119393939394,5.488714696969697,-27.0,12.606060606060606,0.11137454545454545,0.137379,0.118239,0.002056939393939394,0.09025436363636365,474.1212121212121,-0.6476413636363636,-0.04643918181818182,-0.6012021818181819,-0.27871718181818184,9.247165818181818,7788.69696969697,6688.242424242424,7177.69696969697,7429.939393939394,7819.575757575758,6630.939393939394,7084.757575757576,7589.818181818182,-0.6411138181818182,0.43984572727272725,-1.5143698787878788,0.6691928787878788,0.38789084848484845,-0.12017857575757575,-0.08641645454545455,-0.04080369696969697,0.4673119393939394,-0.28334951515151513,0.1387841515151515,0.0024403030303030305,-0.0010265757575757574,-0.01496521212121212,-0.011962787878787878,-0.2324810606060606,-0.2473071212121212,-9.318300242424243,-1.797925606060606,-0.18818060606060605,-0.12237357575757575,-0.6819289393939395,0.4034398181818182,-1.5090099696969699,0.023962272727272728,6045.272727272727,845.4545454545455,-111.84848484848484,-482.5151515151515,0.8143698787878788
0 days 00:03:14.015925,-5.595057029411764,-1.5399983529411765,-0.8222874705882353,0.7236235588235294,0.31967091176470586,-0.09072605882352941,0.8946257941176471,-1.100957794117647,0.22505047058823527,-0.1230515,-0.05189438235294117,0.458644,5.446467088235294,-27.0,14.0,0.111064,0.145371,0.11823900000000001,0.0,0.108042,479.0,-0.649821,-0.048541,-0.60128,-0.621963,9.64,7683.35294117647,7139.588235294118,7069.235294117647,7831.235294117647,7515.882352941177,7413.205882352941,7083.823529411765,7861.941176470588,-0.5950570294117647,0.4600016470588235,-1.5222874705882352,0.7236235588235294,0.31967091176470586,-0.09072605882352941,-0.1230515,-0.05189438235294117,0.458644,-0.28298,0.139275,0.002434,-0.001025,-0.014965999999999998,-0.011962,-0.6322668529411765,0.07915897058823533,-9.681295882352941,0.4448027352941177,-0.13912429411764707,-0.1348015588235294,-0.626311,0.435252,-1.523009,0.046275,6310.0,439.70588235294116,-8.264705882352942,476.79411764705884,0.8222874705882353
0 days 00:03:14.080925,-5.548297848484848,-1.5226015757575757,-0.8285892727272728,0.7637558484848485,0.2716351212121212,-0.08608318181818182,0.5399999393939394,-0.26138033333333327,0.007157181818181823,-0.06235578787878788,-0.05444963636363636,0.455824,5.404484909090909,-22.09090909090909,15.636363636363637,0.1194541212121212,0.15844269696969696,0.118239,0.002056969696969697,0.1772878787878788,489.6363636363636,-0.5930165151515151,0.008223303030303029,-0.6012390303030303,-0.6455938484848485,10.035480484848485,7278.272727272727,7875.212121212121,7265.939393939394,7894.151515151515,7263.515151515152,8016.878787878788,7415.030303030303,7902.848484848485,-0.5482978484848484,0.4773984242424243,-1.5285892727272727,0.7637558484848485,0.2716351212121212,-0.08608318181818182,-0.06235578787878788,-0.05444963636363636,0.455824,-0.28274954545454545,0.13945936363636366,0.002432030303030303,-0.0010246060606060607,-0.01496757575757576,-0.011961606060606061,-0.6097005454545454,0.3985263333333333,-9.816731787878789,1.066162121212121,0.037775363636363635,0.00030327272727272776,-0.5986871818181818,0.44796087878787877,-1.5279017272727273,0.051747606060606056,6565.272727272727,-132.54545454545453,-18.78787878787879,876.3030303030303,0.8285892727272728
0 days 00:03:14.145925,-5.501608515151515,-1.5083476363636363,-0.8365706363636365,0.7812064848484849,0.2592419696969697,-0.13308936363636364,0.7537877272727272,-0.16430863636363638,-1.0647849999999999,-0.01822321212121212,-0.04596384848484848,0.45924045454545454,5.363449545454545,-19.181818181818183,14.181818181818182,0.12547730303030302,0.1663711515151515,0.118239,0.0030854848484848482,0.17288342424242426,501.6969696969697,-0.5521656969696969,0.04897636363636364,-0.6011416363636364,-0.11713018181818183,9.989588090909091,7290.666666666667,7948.606060606061,7528.515151515152,7896.545454545455,7348.545454545455,7775.606060606061,7505.848484848485,7861.121212121212,-0.5016085151515152,0.4916523636363636,-1.5365706363636364,0.7812064848484849,0.2592419696969697,-0.13308936363636364,-0.01822321212121212,-0.04596384848484848,0.45924045454545454,-0.2823842121212121,0.13975742424242424,0.002429545454545455,-0.0010239393939393939,-0.01497,-0.011960939393939394,-0.3593750303030303,-0.024591545454545453,-10.896750696969695,0.3044802727272727,0.14143875757575758,0.07386354545454546,-0.5513562121212121,0.4690431212121213,-1.5363742727272727,0.059360030303030296,6527.484848484848,-35.75757575757576,-121.36363636363636,552.2121212121212,0.8365706363636365
0 days 00:03:14.210925,-5.449921939393939,-1.4939459090909093,-0.8484994545454545,0.8055684242424243,0.24342330303030302,-0.16123069696969697,0.5168119393939394,-0.10366542424242425,0.05631481818181823,-0.0024234848484848484,-0.0374289696969697,0.4618528484848485,5.322741545454546,-18.78787878787879,13.393939393939394,0.12695354545454546,0.17324072727272727,0.118239,0.002057030303030303,0.13574027272727274,510.75757575757575,-0.5420765454545454,0.05896618181818181,-0.6010427272727272,0.030434181818181808,9.762905727272727,7395.424242424242,7557.575757575758,7513.909090909091,7760.151515151515,7329.636363636364,7541.424242424242,7535.787878787879,7654.939393939394,-0.4499219393939394,0.5060540909090908,-1.5484994545454545,0.8055684242424243,0.24342330303030302,-0.16123069696969697,-0.0024234848484848484,-0.0374289696969697,0.4618528484848485,-0.282217,0.139981,0.002438,-0.001023,-0.01497,-0.01196,-0.40187024242424235,-0.06445312121212124,-9.763642303030304,0.2985913636363636,0.07502518181818181,-0.011348848484848484,-0.476448,0.49276,-1.551026,0.046852,6375.909090909091,-46.303030303030305,-159.66666666666666,233.6060606060606,0.8484994545454545
0 days 00:03:14.275925,-5.3983035294117645,-1.479156617647059,-0.8588864705882353,0.7873870588235293,0.22963720588235295,-0.14285258823529412,-0.525158294117647,-0.3569117647058824,0.40269032352941175,0.006477882352941176,-0.03671188235294118,0.4618374411764706,5.281709470588235,-20.61764705882353,14.205882352941176,0.12664288235294116,0.17798241176470586,0.11823900000000001,0.0019965,0.11978323529411765,518.0882352941177,-0.5440692352941177,0.05686535294117647,-0.6009345882352941,-0.4036195882352941,9.54439288235294,7210.382352941177,7498.970588235294,7502.235294117647,7484.794117647059,7261.794117647059,7490.323529411765,7451.558823529412,7460.588235294118,-0.3983035294117647,0.5208433823529411,-1.5588864705882353,0.7873870588235293,0.22963720588235295,-0.14285258823529412,0.006477882352941176,-0.03671188235294118,0.4618374411764706,-0.28216697058823526,0.14002423529411764,0.0024392352941176474,-0.0010227941176470588,-0.014970823529411766,-0.011959588235294118,-1.4280791176470589,0.07835470588235295,-9.361356794117647,-0.12627088235294118,-0.07115258823529412,-0.0022259705882352937,-0.4595992058823529,0.49727808823529407,-1.5548912352941178,0.045760823529411764,6235.64705882353,-109.52941176470588,-79.91176470588235,167.76470588235293,0.8588864705882353
0 days 00:03:14.340925,-5.351276545454546,-1.4672747878787877,-0.8691582121212122,0.7583526363636364,0.22841357575757576,-0.11690884848484848,0.15470084848484847,0.2070812121212121,0.6463723636363636,-0.013841878787878788,-0.03800836363636363,0.46173275757575755,5.241016848484848,-23.0,15.0,0.135789,0.170541,0.118239,0.0,0.209963,530.0,-0.481971,0.118747,-0.600718,-0.415975,9.459025,7293.272727272727,7366.636363636364,7363.242424242424,7426.636363636364,7309.393939393939,7338.727272727273,7375.878787878788,7477.121212121212,-0.35127654545454545,0.5327252121212122,-1.5691582121212122,0.7583526363636364,0.22841357575757576,-0.11690884848484848,-0.013841878787878788,-0.03800836363636363,0.46173275757575755,-0.281974,0.140191,0.002444,-0.001022,-0.014974,-0.011958,-0.5620265757575759,0.4492778181818182,-9.163204393939393,-0.41868642424242425,0.03169387878787879,-0.01168909090909091,-0.394611,0.514705,-1.5698,0.041552,6178.0,35.90909090909091,-102.33333333333333,92.18181818181819,0.8691582121212122
