time,pos_x,pos_y,pos_z,vel_x,vel_y,vel_z,acc_x,acc_y,acc_z,att_phi,att_theta,att_psi,distance_est,centroid_x,centroid_y,divergence,true_divergence,divergence_sp,dt,raw_divergence,color_count,mu_x,p_output,i_output,mu_y, mu_z,rpm_obs_1,rpm_obs_2,rpm_obs_3,rpm_obs_4,rpm_ref_1,rpm_ref_2,rpm_ref_3,rpm_ref_4,ekf_X1,ekf_X2,ekf_X3,ekf_X4,ekf_X5,ekf_X6,ekf_X7,ekf_X8,ekf_X9,ekf_X10,ekf_X11,ekf_X12,ekf_X13,ekf_X14,ekf_X15,ekf_U1,ekf_U2,ekf_U3,ekf_U4,ekf_U5,ekf_U6,ekf_Z1,ekf_Z2,ekf_Z3,ekf_Z4,cmd_thrust,cmd_roll,cmd_pitch,cmd_yaw
0 days 00:00:49.217091,-4.988757848484848,-0.6578066666666667,-0.37574918181818195,0.07944881818181819,0.06272318181818182,-0.020633060606060606,0.04512693939393938,-0.027289909090909108,0.000333878787878787,0.026771848484848485,-0.021456636363636365,-0.1685128484848485,10.0,-4.0,-60.0,0.0,0.0,0.0,0.065,0.0,639.0,0.0,0.0,0.0,0.0,0.0,7591.363636363636,7625.030303030303,7363.757575757576,7458.575757575758,7582.636363636364,7624.727272727273,7368.636363636364,7453.575757575758,-1.0887578484848486,-1.1578066666666667,-1.075749181818182,0.07944881818181819,0.06272318181818182,-0.020633060606060606,0.026771848484848485,-0.021456636363636365,-0.1685128484848485,-0.17972,0.175612,0.024889,-0.003802,-0.024459,0.004209,-0.6280184242424243,0.21386721212121218,-9.776219090909091,0.0483620303030303,0.03632512121212121,0.007457393939393939,-1.078635,-1.169676,-1.066709,0.024808,6364.575757575758,21.363636363636363,192.21212121212122,89.63636363636364
0 days 00:00:49.282091,-4.9771715,-0.6573233823529412,-0.37488785294117655,0.09100217647058824,0.06539988235294118,-0.028137617647058827,0.3534320882352941,-0.2628569117647059,-0.3047979411764706,0.027825617647058824,-0.018762617647058822,-0.16728358823529413,10.0,-4.764705882352941,-60.0,0.0,0.0,0.0,0.065,0.0,632.1176470588235,0.0,0.0,0.0,0.0,0.0,7566.411764705882,7627.676470588235,7365.205882352941,7449.558823529412,7579.264705882353,7609.5,7387.588235294118,7436.5,-1.0771715000000002,-1.1573233823529412,-1.0748878529411765,0.09100217647058824,0.06539988235294118,-0.028137617647058827,0.027825617647058824,-0.018762617647058822,-0.16728358823529413,-0.1801661176470588,0.17620305882352943,0.024805235294117645,-0.0037935294117647056,-0.02443735294117647,0.0042024117647058825,-0.26760688235294117,0.0009766764705882594,-10.102740117647059,-0.019035794117647057,0.01474185294117647,0.025843117647058822,-1.065934764705882,-1.1684091764705882,-1.0650685294117648,0.021109176470588235,6358.705882352941,9.294117647058824,182.02941176470588,55.88235294117647
0 days 00:00:49.347091,-4.968419121212121,-0.6549086666666668,-0.37506790909090904,0.08668545454545454,0.07121721212121213,-0.020755545454545454,0.23583236363636362,-0.23004863636363632,0.1260639696969697,0.024792939393939395,-0.01848590909090909,-0.1661109696969697,10.0,-4.090909090909091,-49.484848484848484,0.0,0.0028292727272727276,0.0,0.06926333333333333,0.0,518.6060606060606,0.0,0.0,0.0,0.005454545454545454,1.8018181818181818,7607.727272727273,7577.30303030303,7376.787878787879,7380.909090909091,6901.060606060606,6846.060606060606,6594.606060606061,6611.69696969697,-1.0684191212121212,-1.1549086666666668,-1.075067909090909,0.08668545454545454,0.07121721212121213,-0.020755545454545454,0.024792939393939395,-0.01848590909090909,-0.1661109696969697,-0.18044036363636365,0.17657727272727272,0.02475409090909091,-0.0037884545454545454,-0.024426454545454543,0.004197,-0.3800307878787879,0.0527639696969697,-9.665423848484847,-0.07690427272727272,-0.027047818181818183,0.008722484848484847,-1.059116,-1.1674836363636365,-1.0641946363636363,0.019527545454545454,5206.545454545455,35.96969696969697,270.09090909090907,-34.93939393939394
0 days 00:00:49.412091,-4.959416212121212,-0.6526717272727274,-0.3716918181818183,0.09510239393939394,0.06672924242424243,0.1328029393939394,-0.044309666666666685,-0.10392681818181816,3.9856512424242423,0.022467878787878787,-0.016215272727272727,-0.1655492424242424,10.0,-5.515151515151516,-58.484848484848484,-0.0021012727272727272,0.017201545454545455,0.0,0.002057060606060606,-0.014728,617.3333333333334,-1.5,-0.0004716666666666667,0.0,9.316974636363637,9.57543403030303,5932.848484848485,5928.69696969697,5506.484848484848,5612.0,7023.121212121212,6538.545454545455,6719.484848484848,7145.121212121212,-1.059416212121212,-1.1526717272727274,-1.0716918181818182,0.09510239393939394,0.06672924242424243,0.1328029393939394,0.022467878787878787,-0.016215272727272727,-0.1655492424242424,-0.180736,0.176982,0.024699,-0.003783,-0.024415,0.004191,-0.462239606060606,0.11322206060606059,-5.803651696969697,-0.019272303030303032,0.1627012121212121,0.016239090909090908,-1.051886,-1.166468,-1.063269,0.017907,5818.181818181818,483.6969696969697,-180.15151515151516,-1.9696969696969697
0 days 00:00:49.477091,-4.949402029411765,-0.6514715588235294,-0.3581372352941177,0.08995147058823529,0.07769232352941176,0.11702658823529412,0.0654139117647059,-0.5743416764705882,-4.227355882352941,0.032487117647058826,-0.011422176470588234,-0.1684021470588235,10.0,-6.0,-60.1764705882353,-0.0015361176470588234,0.017969882352941176,0.0,0.001996441176470588,-0.007915470588235296,637.2352941176471,-1.5,0.0,0.0,12.273085205882353,9.473053735294117,8968.411764705883,8139.941176470588,8822.735294117647,9145.411764705883,8887.441176470587,8128.264705882353,8762.441176470587,9600.441176470587,-1.0494020294117645,-1.1514715588235294,-1.0581372352941176,0.08995147058823529,0.07769232352941176,0.11702658823529412,0.033435,-0.010554029411764707,-0.16916979411764707,-0.18118388235294117,0.1775736176470588,0.024629117647058822,-0.003774264705882353,-0.02440070588235294,0.0041775,-0.5838407941176471,-0.45668664705882356,-14.014705794117647,0.6665541470588235,-0.48773558823529417,-0.13237435294117647,-1.0418737647058822,-1.1640062352941176,-1.053830911764706,0.011559617647058823,9149.558823529413,931.2058823529412,-806.4117647058823,919.0
0 days 00:00:49.542091,-4.940509757575757,-0.6479711515151516,-0.35699939393939406,0.11730812121212121,0.11268972727272726,-0.1220400606060606,1.1484070606060606,1.0700633333333334,-1.7698124545454545,0.1389119393939394,-0.09132215151515152,-0.18072545454545455,10.0,-6.0,-61.0,0.008706,0.016989,0.0,0.0,0.08041,643.0,-1.5,0.0,0.0,1.165982,9.85,7995.060606060606,8782.90909090909,7674.636363636364,8407.484848484848,7037.151515151515,8844.787878787878,6728.30303030303,7907.909090909091,-1.0405097575757576,-1.1479711515151516,-1.056999393939394,0.11730812121212121,0.11268972727272726,-0.1220400606060606,0.1389119393939394,-0.09132215151515152,-0.18072545454545455,-0.18286109090909092,0.1781499090909091,0.02458336363636364,-0.0037683636363636365,-0.024391545454545454,0.0041667272727272725,-0.5687144848484849,0.17545575757575757,-11.675455757575756,2.0059999090909093,-1.5168160606060606,0.1350838181818182,-1.0345936363636363,-1.1615985454545454,-1.047449090909091,0.06085509090909091,6537.0,-313.4848484848485,621.9090909090909,2108.6363636363635
0 days 00:00:49.607091,-4.927295848484849,-0.6401459999999999,-0.3635316666666666,0.21085248484848484,0.2134520303030303,-0.14764724242424243,1.8236664545454546,1.5004235454545454,0.22797415151515152,0.21371642424242424,-0.15242390909090908,-0.16921063636363637,10.0,-7.454545454545454,-61.06060606060606,0.028038151515151512,0.031479757575757585,0.0,0.005142575757575757,0.10237330303030302,657.1818181818181,-1.5,0.0,0.0,0.9655433939393938,9.748735363636365,7216.878787878788,8450.969696969696,7086.848484848485,7220.212121212121,7592.878787878788,8088.181818181818,7478.969696969697,7137.666666666667,-1.0272958484848485,-1.1401459999999999,-1.0635316666666665,0.21085248484848484,0.2134520303030303,-0.14764724242424243,0.21371642424242424,-0.15242390909090908,-0.16921063636363637,-0.185593,0.17889,0.024535,-0.003762,-0.024382,0.004154,-0.3309954545454545,0.1186080303030303,-9.841116272727273,0.2760046666666666,-0.3171608484848485,0.30630766666666664,-1.026396,-1.158502,-1.040563,0.150002,6459.151515151515,-417.75757575757575,531.3939393939394,108.75757575757575
0 days 00:00:49.672091,-4.90817106060606,-0.6261919090909092,-0.36910863636363644,0.30189645454545455,0.31221103030303027,-0.17774878787878787,1.3362966363636364,0.7946354848484849,-2.191011818181818,0.18070399999999998,-0.14546166666666666,-0.1607131818181818,10.0,15.0,-62.0,0.065807,0.050194,0.0,0.0,0.283529,682.0,-1.5,0.0,0.0,1.180968,11.827747,8679.424242424242,8259.636363636364,8370.121212121212,7684.272727272727,9045.848484848484,8306.30303030303,8691.727272727272,8075.454545454545,-1.0081710606060605,-1.1261919090909092,-1.0691086363636364,0.30189645454545455,0.31221103030303027,-0.17774878787878787,0.18070399999999998,-0.14546166666666666,-0.1607131818181818,-0.189909,0.1803672727272727,0.024461727272727274,-0.0037541212121212125,-0.024372545454545452,0.004140606060606061,-1.008138090909091,-0.6537050606060605,-12.023319151515153,-0.977450303030303,0.3995250606060606,-0.036954,-1.0095338181818183,-1.1451939393939392,-1.046082090909091,0.21105157575757574,7808.0,61.484848484848484,292.2121212121212,-956.939393939394
0 days 00:00:49.737091,-4.884594,-0.604905794117647,-0.3840110294117647,0.3761907058823529,0.3848884117647059,-0.34692764705882356,1.4714894411764707,0.5519527352941177,-2.480343235294118,0.11916985294117648,-0.1129304705882353,-0.1629410882352941,10.0,24.5,-57.529411764705884,0.032171882352941175,0.062342941176470594,0.0,0.002495735294117647,-0.018305058823529435,664.1176470588235,-1.5,0.0,0.0,0.25177305882352946,11.512197470588236,8849.058823529413,8151.235294117647,8576.029411764706,8233.264705882353,8650.35294117647,8123.441176470588,8527.617647058823,8196.79411764706,-0.9845940000000001,-1.104905794117647,-1.0840110294117646,0.3761907058823529,0.3848884117647059,-0.34692764705882356,0.11916985294117648,-0.1129304705882353,-0.1629410882352941,-0.19166847058823527,0.1811049117647059,0.024413588235294117,-0.003750352941176471,-0.024367529411764705,0.004135558823529412,-0.5126666470588236,-0.12051929411764707,-12.360581352941177,-0.7443417647058823,0.40174779411764705,-0.13407620588235294,-0.9970973823529412,-1.1346902647058823,-1.0522139411764706,0.2092604117647059,7588.823529411765,97.8529411764706,24.61764705882353,-605.5588235294117
0 days 00:00:49.802091,-4.855024393939394,-0.5814170303030304,-0.40692357575757576,0.4431528181818182,0.41493199999999997,-0.46889309090909087,0.6396090606060606,0.11715533333333332,-1.2051113333333332,0.06806130303030303,-0.09686024242424242,-0.16676560606060606,10.0,28.363636363636363,-54.72727272727273,0.002274,0.073142,0.0,-0.027731878787878788,-0.286602,656.5454545454545,-1.5,0.0,0.0,-0.5641780000000001,11.198375666666667,8274.121212121212,8163.454545454545,8249.545454545454,8149.242424242424,8333.484848484848,8134.666666666667,8199.969696969696,8216.757575757576,-0.955024393939394,-1.0814170303030304,-1.1069235757575757,0.4431528181818182,0.41493199999999997,-0.46889309090909087,0.06806130303030303,-0.09686024242424242,-0.16676560606060606,-0.193973,0.182416,0.024304,-0.003744,-0.024358,0.00413,-0.915660393939394,0.01790369696969704,-10.984197454545455,-0.9454086666666667,0.03715372727272727,-0.03446069696969697,-0.966639,-1.107996,-1.070134,0.138954,7372.333333333333,107.66666666666667,25.575757575757574,-128.45454545454547
0 days 00:00:49.867091,-4.823135575757576,-0.5555577272727272,-0.4363042121212122,0.46623236363636367,0.4346931212121212,-0.5418251515151515,0.417536606060606,-0.49269578787878787,-1.2525197272727273,0.009823848484848486,-0.1015099696969697,-0.16867893939393938,10.0,20.636363636363637,-56.303030303030305,0.002233757575757576,0.07577169696969696,0.0,0.002056969696969697,-0.25186236363636366,668.0,-1.5,0.0,0.0,-0.26198515151515156,10.82974075757576,8319.151515151516,8127.484848484848,7969.787878787879,8267.212121212122,8286.636363636364,7938.424242424242,7794.424242424242,8228.60606060606,-0.9231355757575758,-1.0555577272727272,-1.1363042121212121,0.46623236363636367,0.4346931212121212,-0.5418251515151515,0.009823848484848486,-0.1015099696969697,-0.16867893939393938,-0.19446033333333332,0.18384466666666668,0.024178666666666664,-0.0037406666666666664,-0.024348666666666668,0.004132666666666666,-1.0848425757575757,0.02450278787878785,-11.027136545454546,-0.7844756363636363,-0.16060748484848486,-0.012073939393939394,-0.9342376666666666,-1.080484,-1.0983306666666666,0.104374,7147.545454545455,390.57575757575756,100.84848484848484,60.75757575757576
0 days 00:00:49.932091,-4.790192636363637,-0.5294372424242424,-0.470802696969697,0.5018683333333332,0.4040372424242424,-0.57586,0.8991165757575759,-0.9805234242424242,0.3959421515151515,-0.016566818181818183,-0.11111121212121211,-0.1707570606060606,10.0,13.0,-58.0,0.0019420000000000001,0.094837,0.0,0.0,0.0,668.0,-0.9404570606060606,0.0,0.0,1.783913,8.640471,7850.515151515152,7171.818181818182,6893.939393939394,7737.30303030303,7786.606060606061,6763.878787878788,6195.939393939394,7636.545454545455,-0.8901926363636363,-1.0294372424242424,-1.170802696969697,0.5018683333333332,0.4040372424242424,-0.57586,-0.016566818181818183,-0.11111121212121211,-0.1707570606060606,-0.19460824242424243,0.18481863636363635,0.024092727272727273,-0.003738515151515152,-0.024341818181818183,0.004135333333333334,-0.4143583636363636,-0.1797762727272727,-9.469963363636364,0.13020830303030304,-0.13459551515151516,-0.059303939393939395,-0.9111922727272727,-1.0619272727272726,-1.1191138484848484,0.08631430303030303,5783.363636363636,1229.7878787878788,358.3333333333333,294.8181818181818
0 days 00:00:49.997091,-4.7511930882352935,-0.5061578529411765,-0.5026177058823529,0.5514117941176471,0.3815065294117647,-0.4999041176470588,0.781652,0.004254176470588266,1.1976383823529413,0.07178405882352941,-0.10764138235294117,-0.1754370882352941,10.0,9.117647058823529,-58.0,0.01854064705882353,0.10415111764705882,0.0,0.0024967352941176473,0.09085279411764706,679.0,-0.8309599705882352,0.0,0.0,1.2379667352941177,9.249548823529413,7390.382352941177,7252.176470588235,6330.088235294118,7513.85294117647,7306.0,7697.617647058823,6825.0,7491.794117647059,-0.851193088235294,-1.0061578529411765,-1.2026177058823528,0.5514117941176471,0.3815065294117647,-0.4999041176470588,0.07178405882352941,-0.10764138235294117,-0.1754370882352941,-0.193914,0.186701,0.023924,-0.0037349999999999996,-0.024326,0.004145,-0.5451517352941176,-0.04319847058823528,-8.626550970588236,2.3094698235294118,0.24676870588235295,-0.048426000000000004,-0.861568,-1.027122,-1.167579,0.080734,6114.264705882353,137.41176470588235,342.94117647058823,747.1764705882352
0 days 00:00:50.062091,-4.712778484848485,-0.4810147272727273,-0.5315199393939394,0.5882224242424242,0.43687654545454546,-0.4394274848484848,-0.012277090909090908,1.0349039090909091,1.0044893636363634,0.2025730303030303,-0.07825515151515151,-0.16986469696969697,10.0,6.242424242424242,-58.0,0.04673381818181818,0.11554827272727272,0.0,0.0025701818181818182,0.15661863636363638,699.3939393939394,-0.7782944848484848,0.0,0.0,0.9,9.833471181818181,6969.909090909091,8026.30303030303,7413.666666666667,7448.69696969697,7093.606060606061,8046.454545454545,7685.878787878788,7460.212121212121,-0.8127784848484848,-0.9810147272727273,-1.2315199393939393,0.5882224242424242,0.43687654545454546,-0.4394274848484848,0.2025730303030303,-0.07825515151515151,-0.16986469696969697,-0.19511654545454546,0.18626936363636362,0.023899636363636366,-0.003731727272727273,-0.024322000000000003,0.004147909090909091,-1.2238991212121213,-0.2696791818181818,-8.777462090909092,1.241299787878788,0.48839224242424245,0.07935315151515152,-0.8388116363636363,-1.0121947272727272,-1.1851953636363637,0.1099270909090909,6455.151515151515,-588.3636363636364,-3.0303030303030303,513.2424242424242
0 days 00:00:50.127091,-4.672448909090909,-0.45177812121212124,-0.5550873636363638,0.6062677878787879,0.541695090909091,-0.4050469696969697,0.8886046666666667,1.3805625454545454,-0.29382833333333336,0.21313224242424242,-0.05336051515151515,-0.15934242424242426,10.0,7.636363636363637,-56.90909090909091,0.06532827272727272,0.12045212121212122,0.0,0.002056939393939394,0.18322551515151514,714.9090909090909,-0.7297335757575758,0.0,0.0,0.6568675454545455,10.070711454545455,7296.787878787879,7772.030303030303,7852.090909090909,7435.606060606061,7510.272727272727,7720.363636363636,7945.212121212121,7509.848484848485,-0.7724489090909091,-0.9517781212121212,-1.2550873636363638,0.6062677878787879,0.541695090909091,-0.4050469696969697,0.21313224242424242,-0.05336051515151515,-0.15934242424242426,-0.19725430303030303,0.1855068181818182,0.02385630303030303,-0.0037261212121212123,-0.024314363636363637,0.00415330303030303,-0.24449569696969703,-0.12582857575757575,-10.210700848484848,-0.7393169696969697,0.25924772727272727,0.06392042424242424,-0.7969180606060606,-0.9845045454545455,-1.2173450909090908,0.15994121212121212,6596.090909090909,-322.3333333333333,-112.0909090909091,-158.93939393939394
0 days 00:00:50.192091,-4.624485617647059,-0.4129790588235295,-0.5805112352941177,0.6488609705882353,0.6397633529411765,-0.4306574117647059,0.13345673529411767,0.7433598823529411,-0.37309005882352936,0.13000017647058823,-0.048015117647058826,-0.15700279411764706,10.0,8.705882352941176,-55.76470588235294,0.07684167647058825,0.12342291176470586,0.0,0.0024956470588235295,0.20287855882352943,725.0,-0.6835010294117647,0.0,0.0,0.41847373529411763,10.204346352941176,7918.823529411765,7503.588235294118,7801.941176470588,7630.0,8010.823529411765,7458.85294117647,7734.470588235294,7692.705882352941,-0.7244856176470589,-0.9129790588235295,-1.2805112352941177,0.6488609705882353,0.6397633529411765,-0.4306574117647059,0.13000017647058823,-0.048015117647058826,-0.15700279411764706,-0.19832,0.185277,0.023834,-0.00373,-0.024294,0.004163,-0.8422564117647058,-0.03550091176470588,-10.176642852941177,-1.5102037352941178,-0.03740376470588235,-0.016537,-0.73068,-0.934346,-1.25962,0.12558,6670.676470588235,254.76470588235293,21.176470588235293,-419.29411764705884
0 days 00:00:50.257091,-4.579287545454545,-0.3701420303030304,-0.6084285757575758,0.6524903939393939,0.6666592424242425,-0.4362592121212121,0.2003622727272727,-0.40379578787878784,0.16393436363636363,0.052509545454545455,-0.04965175757575758,-0.16077457575757576,10.0,2.6363636363636362,-51.54545454545455,0.08901272727272727,0.135007,0.0,0.0025712424242424242,0.13560136363636363,743.5757575757576,-0.640227606060606,0.0,0.0,0.11885848484848485,9.615889878787879,7839.545454545455,7206.181818181818,7327.454545454545,7617.424242424242,7731.090909090909,7214.333333333333,7255.939393939394,7591.242424242424,-0.6792875454545454,-0.8701420303030304,-1.3084285757575758,0.6524903939393939,0.6666592424242425,-0.4362592121212121,0.052509545454545455,-0.04965175757575758,-0.16077457575757576,-0.19801351515151516,0.1855188787878788,0.023804454545454545,-0.003730393939393939,-0.024285333333333332,0.004170090909090909,-0.6018880606060605,-0.329338303030303,-9.603663515151515,-0.7917924545454545,-0.03668024242424242,-0.059045,-0.7009241818181818,-0.9078622424242424,-1.2776628181818181,0.09758627272727272,6280.939393939394,425.3030303030303,49.0,-127.96969696969697
0 days 00:00:50.322091,-4.5324998787878785,-0.3279979393939394,-0.6345591515151516,0.6721100303030303,0.6530381515151515,-0.4014089696969697,0.4235421212121212,-0.9087040909090909,0.6863114242424242,0.030564272727272728,-0.050118636363636365,-0.16451881818181818,10.0,-5.0,-49.0,0.096703,0.13695,0.0,0.0,0.132907,758.0,-0.6002547878787878,0.0,0.0,0.234659,9.329659,7499.545454545455,7154.787878787879,6973.272727272727,7572.121212121212,7452.515151515152,7237.30303030303,7007.666666666667,7566.969696969697,-0.6324998787878787,-0.8279979393939394,-1.3345591515151516,0.6721100303030303,0.6530381515151515,-0.4014089696969697,0.030564272727272728,-0.050118636363636365,-0.16451881818181818,-0.197542,0.185891,0.023759,-0.003731,-0.024272,0.004181,-0.2677260909090909,-0.569572606060606,-9.117246606060606,0.04631266666666667,-0.011304454545454548,-0.03149415151515152,-0.655146,-0.867118,-1.305421,0.054519,6094.515151515152,386.57575757575756,57.515151515151516,242.96969696969697
0 days 00:00:50.387091,-4.483248363636363,-0.2861379090909092,-0.6580868484848486,0.686114696969697,0.6414903030303031,-0.3531469393939394,-0.18407242424242423,-0.1845518484848485,0.7012985757575757,0.05096506060606061,-0.04964487878787879,-0.16580721212121213,10.0,-9.696969696969697,-48.06060606060606,0.13564754545454547,0.14295272727272726,0.0,0.002057,0.3438615454545454,794.6363636363636,-0.5627948181818182,0.0,0.0,0.5022644545454545,9.431522636363635,7374.363636363636,7322.272727272727,6966.121212121212,7579.212121212121,7399.060606060606,7419.666666666667,7059.060606060606,7590.0,-0.5832483636363636,-0.7861379090909092,-1.3580868484848485,0.686114696969697,0.6414903030303031,-0.3531469393939394,0.05096506060606061,-0.04964487878787879,-0.16580721212121213,-0.19703381818181817,0.18642518181818182,0.023720393939393937,-0.003734939393939394,-0.02425545454545455,0.0041920303030303025,-0.9389204545454546,-0.15435600000000002,-9.049124151515151,0.48779300000000003,-0.002981545454545452,-0.0004734848484848483,-0.5950213939393939,-0.8116229696969697,-1.3394376666666665,0.04859809090909091,6166.30303030303,254.72727272727272,84.66666666666667,389.45454545454544
0 days 00:00:50.452091,-4.435659,-0.24329411764705877,-0.6795420000000001,0.6765307647058824,0.6614210882352941,-0.31347679411764706,0.14546035294117643,0.07658035294117647,0.4322125882352942,0.0845410294117647,-0.046223441176470585,-0.16467070588235294,10.0,-11.764705882352942,-47.11764705882353,0.1322665294117647,0.14360735294117646,0.0,0.0024956470588235295,0.23585229411764702,800.0882352941177,-0.5271602058823529,0.0,0.0,0.4620794705882353,9.479832647058823,7303.558823529412,7440.735294117647,7115.558823529412,7525.411764705882,7337.294117647059,7479.117647058823,7219.823529411765,7512.64705882353,-0.535659,-0.7432941176470588,-1.379542,0.6765307647058824,0.6614210882352941,-0.31347679411764706,0.0845410294117647,-0.046223441176470585,-0.16467070588235294,-0.19711564705882353,0.1865883235294118,0.023712382352941177,-0.003737852941176471,-0.024246235294117652,0.004197117647058823,-0.6436983235294117,-0.1459673823529412,-9.339326794117646,0.4544606176470588,0.06954426470588236,0.03229117647058824,-0.5595681764705882,-0.7786748529411766,-1.3576174411764705,0.05293976470588235,6194.970588235294,75.5,41.970588235294116,306.8529411764706
0 days 00:00:50.517091,-4.386533363636364,-0.19804360606060611,-0.6986605151515153,0.6864258484848484,0.6957237272727272,-0.2863100303030303,0.12652012121212128,0.1792208484848485,0.3262712424242424,0.09958966666666666,-0.04050372727272727,-0.1623217878787879,10.0,-14.0,-45.515151515151516,0.12343060606060605,0.14478739393939394,0.0,0.002571272727272727,0.07402657575757576,809.3333333333334,-0.493767,0.0,0.0,0.3600793636363636,9.58429303030303,7367.181818181818,7421.484848484848,7301.393939393939,7468.090909090909,7442.69696969697,7423.666666666667,7363.242424242424,7499.848484848485,-0.4865333636363636,-0.6980436060606061,-1.3986605151515152,0.6864258484848484,0.6957237272727272,-0.2863100303030303,0.09958966666666666,-0.04050372727272727,-0.1623217878787879,-0.197723,0.186642,0.023719,-0.003743,-0.024233,0.004203,-0.6241714242424243,-0.18818066666666664,-9.445845181818182,-0.026441151515151518,0.07066763636363638,0.03211557575757576,-0.506052,-0.728655,-1.382677,0.069428,6258.69696969697,77.6969696969697,1.5757575757575757,83.12121212121212
0 days 00:00:50.582091,-4.338002121212121,-0.15174778787878795,-0.7167724545454546,0.708747606060606,0.7137809696969697,-0.2891112727272728,0.29221757575757573,-0.2532475757575758,-0.18804684848484857,0.08772081818181818,-0.03613960606060606,-0.16114127272727274,10.0,-14.666666666666666,-43.333333333333336,0.1396378181818182,0.1514932121212121,0.0,0.002056969696969697,0.21192378787878788,839.0,-0.46293454545454543,0.0,0.0,0.3005642121212121,9.719297272727273,7584.818181818182,7399.0,7429.848484848485,7560.0,7603.333333333333,7390.515151515152,7413.666666666667,7564.515151515152,-0.43800212121212123,-0.651747787878788,-1.4167724545454545,0.708747606060606,0.7137809696969697,-0.2891112727272728,0.08772081818181818,-0.03613960606060606,-0.16114127272727274,-0.1987370909090909,0.18640363636363635,0.02374339393939394,-0.0037471818181818183,-0.024222545454545455,0.004206484848484848,-0.3750592121212121,-0.5239405454545455,-9.950402424242423,-0.3049909090909091,0.01671257575757576,0.005356242424242423,-0.4549285757575757,-0.6788850909090909,-1.4033163636363637,0.06535909090909091,6344.242424242424,181.36363636363637,7.787878787878788,-43.72727272727273
0 days 00:00:50.647091,-4.288947264705882,-0.10370673529411767,-0.7354288823529411,0.7085605294117647,0.7330268823529411,-0.2816681764705882,-0.07745802941176469,-0.17602279411764707,0.2932459117647059,0.0683265294117647,-0.03467817647058823,-0.16182420588235294,10.0,-16.0,-42.0,0.163608,0.157499,0.0,0.0,0.335937,865.0,-0.43362408823529414,0.0,0.0,0.218043,9.602681,7589.205882352941,7308.14705882353,7296.441176470588,7529.117647058823,7576.411764705882,7327.14705882353,7296.882352941177,7549.823529411765,-0.38894726470588237,-0.6037067352941177,-1.435428882352941,0.7085605294117647,0.7330268823529411,-0.2816681764705882,0.0683265294117647,-0.03467817647058823,-0.16182420588235294,-0.1994709705882353,0.18621147058823528,0.023761823529411766,-0.003750852941176471,-0.024215323529411765,0.004207794117647059,-0.7223690294117648,-0.2648493823529412,-9.470559529411766,-0.24355902941176472,0.010024176470588234,-0.014856705882352939,-0.41772120588235295,-0.6417916470588235,-1.4179896470588236,0.05956520588235293,6266.0,250.61764705882354,28.38235294117647,2.5
0 days 00:00:50.712091,-4.239026818181818,-0.05360681818181812,-0.7527430909090911,0.7023010000000001,0.7456978181818182,-0.25529187878787873,-0.09761272727272724,-0.3898552727272728,0.37101866666666666,0.05738415151515152,-0.03147433333333333,-0.16257624242424243,10.0,-18.545454545454547,-38.60606060606061,0.17201481818181819,0.157778,0.0,0.0025712424242424242,0.2346379090909091,892.1515151515151,-0.40616139393939393,0.0,0.0,-0.04800109090909091,9.554031090909092,7499.545454545455,7317.545454545455,7262.757575757576,7549.242424242424,7477.151515151515,7354.515151515152,7282.636363636364,7540.636363636364,-0.3390268181818182,-0.5536068181818181,-1.452743090909091,0.7023010000000001,0.7456978181818182,-0.25529187878787873,0.05738415151515152,-0.03147433333333333,-0.16257624242424243,-0.200601,0.18587,0.023792,-0.003758,-0.024205,0.004207,-0.6813150909090909,-0.357244303030303,-9.395596545454545,-0.12565839393939396,0.03101333333333333,-0.007072818181818182,-0.359942,-0.582182,-1.439974,0.044041,6232.363636363636,190.03030303030303,4.151515151515151,95.54545454545455
0 days 00:00:50.777091,-4.191906757575757,-0.00409063636363638,-0.7682391212121213,0.686918909090909,0.7538713636363636,-0.23586496969696968,-0.4977845151515151,-0.28450681818181817,0.2547466666666666,0.04735866666666667,-0.02845821212121212,-0.16283654545454546,10.0,-19.636363636363637,-36.09090909090909,0.16644360606060607,0.1593309090909091,0.0,0.002571272727272727,0.15416881818181818,908.4545454545455,-0.38080481818181816,0.0,0.0,-0.027251090909090905,9.608585454545455,7457.666666666667,7362.969696969697,7269.484848484848,7572.818181818182,7486.090909090909,7377.242424242424,7280.030303030303,7609.212121212121,-0.29190675757575757,-0.5040906363636364,-1.4682391212121213,0.686918909090909,0.7538713636363636,-0.23586496969696968,0.04735866666666667,-0.02845821212121212,-0.16283654545454546,-0.2014849090909091,0.18545127272727274,0.023815545454545454,-0.003762454545454546,-0.024198636363636363,0.0042057272727272724,-1.043057484848485,-0.2852450909090909,-9.501331636363636,-0.20122369696969697,0.022061454545454547,-0.0011614242424242429,-0.3140939090909091,-0.5330031818181818,-1.4558194545454546,0.03689972727272728,6266.818181818182,218.63636363636363,-12.909090909090908,155.57575757575756
0 days 00:00:50.842091,-4.147364151515151,0.04523896969696972,-0.7826842727272727,0.6567413939393939,0.7549137878787878,-0.21519642424242424,-0.14650042424242432,-0.37235330303030306,0.35551327272727273,0.03959236363636364,-0.026253454545454545,-0.16300642424242423,10.0,-22.90909090909091,-33.54545454545455,0.161608,0.1603,0.0,-0.028246,0.116496,921.5454545454545,-0.3570372424242424,0.0,0.0,0.0037559090909090906,9.623194212121211,7481.363636363636,7405.060606060606,7271.666666666667,7628.0,7476.424242424242,7418.727272727273,7270.242424242424,7613.060606060606,-0.2473641515151515,-0.4547610303030303,-1.4826842727272727,0.6567413939393939,0.7549137878787878,-0.21519642424242424,0.03959236363636364,-0.026253454545454545,-0.16300642424242423,-0.20199,0.185212,0.023829,-0.003765,-0.024195,0.004205,-0.6851622424242425,-0.19729521212121215,-9.41947806060606,-0.030391727272727275,0.0030850303030303065,0.001864363636363636,-0.287895,-0.504901,-1.464874,0.032819,6275.878787878788,199.93939393939394,5.878787878787879,201.33333333333334
0 days 00:00:50.907091,-4.10141944117647,0.0968735,-0.7956829411764705,0.6401508529411766,0.7596318529411765,-0.19554911764705882,-0.3140758235294118,-0.18717179411764706,0.2877512058823529,0.039723764705882354,-0.024303911764705883,-0.1628280294117647,10.0,-24.705882352941178,-32.05882352941177,0.1632875882352941,0.15738491176470587,0.0,0.002495676470588235,0.13346544117647058,931.5294117647059,-0.33442285294117646,0.0,0.0,-0.1268720882352941,9.532106617647058,7439.794117647059,7427.617647058823,7264.676470588235,7591.676470588235,7394.205882352941,7420.705882352941,7261.235294117647,7538.794117647059,-0.2014194411764706,-0.4031265,-1.4956829411764705,0.6401508529411766,0.7596318529411765,-0.19554911764705882,0.039723764705882354,-0.024303911764705883,-0.1628280294117647,-0.203478,0.184278,0.023876,-0.0037740000000000004,-0.024186,0.004201,-0.868681,-0.07335711764705877,-9.487649323529412,0.001594117647058821,0.013420558823529414,0.005593764705882353,-0.214108,-0.422568,-1.488134,0.024008,6218.205882352941,125.3529411764706,7.411764705882353,214.58823529411765
0 days 00:00:50.972091,-4.0583940606060604,0.14776899999999998,-0.8072878484848485,0.6284609393939394,0.7714659393939395,-0.16007563636363636,-0.03858466666666667,-0.43429348484848485,0.7247367272727273,0.03421587878787879,-0.022243939393939392,-0.16232654545454545,10.0,-27.03030303030303,-28.87878787878788,0.169766,0.146141,0.0,0.0,0.198919,957.6363636363636,-0.313242303030303,0.0,0.0,-0.595658,9.227522,7191.878787878788,7385.333333333333,7211.454545454545,7335.212121212121,7214.212121212121,7339.30303030303,7190.272727272727,7336.090909090909,-0.1583940606060606,-0.352231,-1.5072878484848484,0.6284609393939394,0.7714659393939395,-0.16007563636363636,0.03421587878787879,-0.022243939393939392,-0.16232654545454545,-0.20427936363636365,0.18385481818181817,0.023897818181818183,-0.0037771818181818184,-0.024180999999999998,0.004199181818181818,-0.5300959696969697,-0.21732963636363636,-9.058534606060606,-0.2976962424242424,0.02053,0.022231545454545455,-0.18302754545454544,-0.3871316363636364,-1.4963962727272726,0.024037545454545454,6029.393939393939,10.515151515151516,13.515151515151516,191.15151515151516
0 days 00:00:51.037091,-4.015555090909091,0.1980679090909091,-0.8163580000000001,0.6360001515151515,0.7564146363636364,-0.13090048484848485,-0.04032115151515154,-0.8616545454545455,0.5318884848484849,0.005383181818181818,-0.01792166666666667,-0.1611338787878788,10.0,-28.12121212121212,-24.757575757575758,0.19698781818181818,0.14964354545454545,0.0,0.004628272727272727,0.2727804545454545,1006.8484848484849,-0.2936917878787879,0.0,0.0,-0.2807630909090909,9.568823272727272,7444.727272727273,7290.363636363636,7247.030303030303,7527.060606060606,7513.060606060606,7292.939393939394,7268.393939393939,7606.848484848485,-0.1155550909090909,-0.3019320909090909,-1.516358,0.6360001515151515,0.7564146363636364,-0.13090048484848485,0.005383181818181818,-0.01792166666666667,-0.1611338787878788,-0.205241,0.183347,0.023924,-0.003781,-0.024175,0.004197,-0.44655530303030305,-0.3662700606060606,-9.280687727272728,-0.4345480909090909,0.05058139393939394,0.002411878787878788,-0.145731,-0.344608,-1.506311,0.024073,6241.575757575758,278.8181818181818,-34.57575757575758,83.54545454545455
0 days 00:00:51.102091,-3.9711298529411763,0.24848552941176472,-0.8231483235294117,0.6137570588235295,0.736428,-0.08810114705882353,-0.23890350000000005,-0.7224696176470587,0.4650455,-0.007742588235294117,-0.015030970588235293,-0.16204729411764707,8.128868147058823,-29.0,-23.0,0.132986,0.150029,0.05867029411764706,0.0,-0.193345,984.0,-0.4110822647058823,0.0,-0.24705882352941178,-0.066924,9.546346,7502.617647058823,7255.470588235294,7210.058823529412,7668.794117647059,7460.617647058823,7270.735294117647,7222.441176470588,7689.176470588235,-0.07112985294117646,-0.2515144705882353,-1.5231483235294117,0.6137570588235295,0.736428,-0.08810114705882353,-0.007742588235294117,-0.015030970588235293,-0.16204729411764707,-0.20635629411764705,0.1825620588235294,0.023959764705882354,-0.0037875882352941177,-0.024165588235294116,0.00419229411764706,-0.6452206176470587,-0.12238626470588233,-9.342256411764705,0.05822761764705882,-0.014203176470588233,-0.019890323529411762,-0.08371782352941176,-0.27293270588235297,-1.5187260588235294,-0.002462529411764706,6228.117647058823,327.7647058823529,-90.02941176470588,195.41176470588235
0 days 00:00:51.167091,-3.930691090909091,0.29614436363636365,-0.8281499696969699,0.5939883333333333,0.7161359090909091,-0.06469045454545454,-0.07234833333333326,-0.8204366363636364,0.5060512424242425,0.012123242424242425,-0.021446727272727274,-0.1632090303030303,5.422618878787879,-30.90909090909091,-19.818181818181817,0.14400842424242422,0.14723748484848487,0.132986,0.002056969696969697,0.06556348484848486,1004.3636363636364,-0.5335272727272727,0.06630727272727273,-0.5998345454545455,-0.5141767272727273,9.438876303030302,7279.272727272727,7401.969696969697,7283.393939393939,7584.30303030303,7229.424242424242,7495.030303030303,7296.060606060606,7472.575757575758,-0.03069109090909091,-0.20385563636363638,-1.5281499696969698,0.5939883333333333,0.7161359090909091,-0.06469045454545454,0.012123242424242425,-0.021446727272727274,-0.1632090303030303,-0.20680666666666667,0.18240066666666666,0.023971000000000003,-0.003788333333333333,-0.024162666666666666,0.004188,-0.5199455151515151,-0.3887310606060606,-9.287346242424242,0.418072303030303,-0.2295809696969697,-5.172727272727189e-05,-0.05886633333333333,-0.24402033333333334,-1.522442,0.0005863333333333333,6175.212121212121,-44.42424242424242,-22.060606060606062,312.24242424242425
0 days 00:00:51.232091,-3.8910747575757574,0.34141903030303034,-0.8312657878787879,0.5864220909090908,0.6859884242424242,-0.03522236363636364,-0.02244693939393937,-0.7133718787878789,0.371747,0.017067151515151518,-0.03343160606060606,-0.1616678787878788,5.376344727272727,-32.72727272727273,-15.090909090909092,0.16128951515151516,0.14324566666666666,0.132986,0.002571212121212121,0.22029724242424242,1043.6363636363637,-0.42912048484848486,0.17026430303030304,-0.5993854848484849,-0.5694818181818182,9.47499593939394,7293.272727272727,7503.727272727273,7286.636363636364,7369.060606060606,7402.242424242424,7443.606060606061,7273.454545454545,7425.454545454545,0.008925242424242424,-0.1585809696969697,-1.5312657878787879,0.5864220909090908,0.6859884242424242,-0.03522236363636364,0.017067151515151518,-0.03343160606060606,-0.1616678787878788,-0.207568,0.182176,0.023989,-0.0037889999999999994,-0.024158,0.00418,-0.6131628484848486,-0.3021424848484848,-9.421845484848486,-0.30850493939393936,-0.13444751515151515,0.039595151515151514,-0.016915,-0.195155,-1.528322,0.010001,6193.454545454545,55.15151515151515,73.33333333333333,136.6060606060606
0 days 00:00:51.297091,-3.8509047575757576,0.3863751515151515,-0.8326693636363636,0.5624294545454546,0.6600827575757575,-0.003841818181818182,-0.5643186363636363,-0.9839508787878788,0.6710861212121212,-0.0068639999999999994,-0.035607181818181816,-0.16102933333333333,5.330430212121213,-32.484848484848484,-12.969696969696969,0.16683418181818183,0.14094384848484848,0.132986,0.002057,0.1969499090909091,1067.3939393939395,-0.3953609696969697,0.20362,-0.5989819696969697,-0.3531033333333333,9.590204606060606,7529.181818181818,7380.060606060606,7257.969696969697,7497.030303030303,7547.393939393939,7365.484848484848,7257.848484848485,7563.151515151515,0.04909524242424243,-0.1136248484848485,-1.5326693636363635,0.5624294545454546,0.6600827575757575,-0.003841818181818182,-0.0068639999999999994,-0.035607181818181816,-0.16102933333333333,-0.2087930303030303,0.18159160606060606,0.02403381818181818,-0.003795151515151515,-0.02414921212121212,0.004172090909090909,-1.0993134242424243,-0.45368709090909093,-9.118785424242423,-0.34609524242424244,0.031042787878787875,-0.0025300606060606064,0.03666733333333333,-0.133501,-1.5324786666666665,0.01684851515151515,6260.181818181818,243.24242424242425,45.878787878787875,87.12121212121212
0 days 00:00:51.362091,-3.8145242352941175,0.42911564705882355,-0.8320987352941178,0.5185465588235294,0.6345451470588236,0.02512294117647059,-0.38335011764705884,-0.8920183529411765,0.1990191470588235,-0.015912941176470588,-0.028649529411764706,-0.16174735294117648,5.2842879117647055,-31.352941176470587,-11.029411764705882,0.15886376470588234,0.13657664705882352,0.132986,0.001996470588235294,0.1259336470588235,1080.0,-0.4430203529411765,0.1556728823529412,-0.5986939411764706,-0.3101808823529412,9.69120505882353,7550.676470588235,7367.0,7289.441176470588,7679.205882352941,7500.705882352941,7401.470588235294,7333.558823529412,7686.0,0.08547576470588235,-0.07088435294117647,-1.5320987352941178,0.5185465588235294,0.6345451470588236,0.02512294117647059,-0.015912941176470588,-0.028649529411764706,-0.16174735294117648,-0.2091143529411765,0.18153220588235297,0.024049676470588234,-0.0037968235294117644,-0.02414573529411765,0.004167088235294118,-0.8895909411764706,-0.23064105882352942,-9.601332764705882,0.1076660294117647,0.08205282352941176,-0.009557352941176472,0.057003882352941175,-0.11073882352941176,-1.5336410294117648,0.0135195,6326.470588235294,225.5,-58.73529411764706,178.76470588235293
0 days 00:00:51.427091,-3.7780711818181816,0.46986051515151517,-0.8311919090909092,0.5076285757575758,0.5950199090909092,0.026508454545454543,-0.22726830303030301,-1.0038120606060605,0.03862084848484848,-0.002090848484848485,-0.02740921212121212,-0.1615311212121212,5.238474393939394,-30.242424242424242,-8.393939393939394,0.13762536363636363,0.12914654545454546,0.132986,0.0030855151515151516,0.015304363636363639,1084.6060606060605,-0.5707273636363636,0.02790827272727273,-0.5986356363636364,-0.5114480909090909,9.73317909090909,7433.484848484848,7497.757575757576,7457.787878787879,7687.090909090909,7441.757575757576,7508.151515151515,7443.272727272727,7631.0,0.12192881818181818,-0.03013948484848485,-1.5311919090909092,0.5076285757575758,0.5950199090909092,0.026508454545454543,-0.002090848484848485,-0.02740921212121212,-0.1615311212121212,-0.209702,0.181614,0.024087,-0.0038000000000000004,-0.024137,0.004152,-0.7111446666666666,-0.4551372121212121,-9.762576909090908,0.1701660303030303,-0.1110840606060606,0.011888939393939394,0.106938,-0.055743,-1.535913,-0.002964,6362.636363636364,60.63636363636363,-62.15151515151515,179.33333333333334
0 days 00:00:51.492091,-3.742509515151515,0.5085178484848485,-0.8301691818181818,0.474239303030303,0.568579303030303,0.04833290909090909,-0.37174342424242424,-0.7077728787878788,0.5541856363636364,-0.0008553939393939393,-0.036905545454545455,-0.16033860606060604,5.193790727272727,-32.21212121212121,-3.5757575757575757,0.147813,0.12414581818181818,0.132986,0.0015428181818181819,0.17855381818181817,1123.5151515151515,-0.5091995454545455,0.0891968181818182,-0.5983963636363636,-0.6252446363636364,9.489972363636364,7408.575757575758,7457.030303030303,7354.666666666667,7454.575757575758,7415.909090909091,7417.363636363636,7317.0,7431.818181818182,0.15749048484848485,0.008517848484848484,-1.5301691818181817,0.474239303030303,0.568579303030303,0.04833290909090909,-0.0008553939393939393,-0.036905545454545455,-0.16033860606060604,-0.21086345454545455,0.18139145454545455,0.024152454545454546,-0.003806545454545455,-0.02412609090909091,0.004131636363636363,-0.9525331818181817,-0.23043915151515154,-9.22783496969697,-0.14740921212121214,-0.14896272727272727,0.013390727272727273,0.14893436363636364,-0.011368454545454546,-1.5366148181818182,0.007433090909090909,6206.636363636364,56.63636363636363,42.09090909090909,82.0909090909091
0 days 00:00:51.557091,-3.7100641515151516,0.5449906969696969,-0.8269313939393941,0.4647986363636364,0.5422898484848485,0.071754,0.3300604545454545,-0.7508146666666666,0.08374324242424239,-0.01643390909090909,-0.04052975757575758,-0.15973606060606063,5.149459636363636,-33.0,-2.0,0.157056,0.119843,0.132986,0.0,0.22448,1144.0,-0.453303,0.144798,-0.598101,-0.52924,9.481793,7474.757575757576,7331.909090909091,7266.424242424242,7455.575757575758,7475.454545454545,7324.787878787879,7267.090909090909,7484.636363636364,0.18993584848484849,0.04499069696969697,-1.526931393939394,0.4647986363636364,0.5422898484848485,0.071754,-0.01643390909090909,-0.04052975757575758,-0.15973606060606063,-0.21148354545454542,0.18140618181818183,0.02419018181818182,-0.003810212121212121,-0.024118969696969698,0.004117484848484849,-0.3136541515151515,-0.011955424242424248,-9.735085181818182,-0.2463377575757576,-0.008544909090909089,-0.0031221212121212124,0.1732198181818182,0.013865333333333334,-1.5367064848484848,0.010854727272727273,6196.0,183.75757575757575,24.060606060606062,47.24242424242424
0 days 00:00:51.622091,-3.6734225,0.5807670882352941,-0.824215617647059,0.48202347058823536,0.5134297941176471,0.07773529411764706,-0.1143986764705882,-1.050281,0.26402355882352935,-0.02557244117647059,-0.03933367647058823,-0.1591969705882353,5.104860205882353,-32.294117647058826,-0.5882352941176471,0.14741697058823527,0.122281,0.132986,0.001996411764705882,0.12877226470588238,1153.1764705882354,-0.5111879117647059,0.0868129705882353,-0.5980008823529411,-0.4499102941176471,9.604822029411764,7511.411764705882,7350.205882352941,7255.676470588235,7555.705882352941,7527.676470588235,7377.0,7284.264705882353,7587.294117647059,0.22657750000000002,0.08076708823529412,-1.524215617647059,0.48202347058823536,0.5134297941176471,0.07773529411764706,-0.02557244117647059,-0.03933367647058823,-0.1591969705882353,-0.212517,0.181956,0.024264,-0.003817,-0.024102,0.004081,-0.7025505882352941,-0.2668600882352941,-9.558249088235295,-0.04043394117647059,-5.026470588234525e-05,0.0021614411764705886,0.221026,0.061987999999999994,-1.535746,0.008182,6275.14705882353,226.58823529411765,16.558823529411764,107.55882352941177
0 days 00:00:51.687091,-3.637525727272727,0.6137441212121212,-0.8209081515151515,0.48568627272727277,0.47516809090909096,0.07758233333333334,-0.04500430303030305,-0.8339473636363637,-0.029156181818181845,-0.017927666666666668,-0.03733230303030303,-0.15878548484848484,5.060618272727273,-31.181818181818183,4.090909090909091,0.15924609090909092,0.12547578787878788,0.132986,0.0030855151515151516,0.18583924242424243,1199.5454545454545,-0.43961818181818185,0.15797239393939394,-0.5975905757575758,-0.703177090909091,9.65219284848485,7459.333333333333,7482.484848484848,7356.424242424242,7565.666666666667,7424.121212121212,7524.545454545455,7395.606060606061,7543.666666666667,0.2624742727272727,0.11374412121212121,-1.5209081515151515,0.48568627272727277,0.47516809090909096,0.07758233333333334,-0.017927666666666668,-0.03733230303030303,-0.15878548484848484,-0.21306109090909092,0.18250581818181819,0.024319999999999998,-0.003822727272727273,-0.024089272727272727,0.004048545454545455,-0.6510120303030303,-0.11911112121212124,-9.837417242424243,0.1636112424242424,0.032359757575757576,-0.00014796969696969714,0.2564440909090909,0.09466018181818181,-1.5338776363636364,0.00398009090909091,6314.575757575758,23.666666666666668,4.696969696969697,175.42424242424244
0 days 00:00:51.752091,-3.6027829696969698,0.6438127878787879,-0.8176243333333335,0.5027285151515152,0.4427009696969697,0.0648540909090909,0.42775966666666665,-0.8111153636363636,-0.12304863636363633,-0.01670978787878788,-0.033225696969696975,-0.15716154545454544,5.017434484848485,-31.0,6.818181818181818,0.1426610606060606,0.13057148484848485,0.132986,0.002057,0.0631989090909091,1215.3636363636363,-0.5392015454545455,0.05820181818181818,-0.5974033636363637,-0.5490262424242424,9.605952121212121,7401.939393939394,7437.666666666667,7413.636363636364,7573.242424242424,7430.424242424242,7379.757575757576,7408.30303030303,7573.545454545455,0.29721703030303026,0.1438127878787879,-1.5176243333333335,0.5027285151515152,0.4427009696969697,0.0648540909090909,-0.01670978787878788,-0.033225696969696975,-0.15716154545454544,-0.2133818787878788,0.18288333333333334,0.024355878787878787,-0.0038264242424242423,-0.024080969696969694,0.004027090909090909,-0.1505385757575758,-0.05374051515151517,-9.949366696969696,-0.10193984848484848,0.0017090000000000007,0.026781484848484846,0.27995051515151514,0.11613721212121211,-1.5325195151515152,0.0016014848484848486,6280.727272727273,107.96969696969697,-85.60606060606061,80.93939393939394
0 days 00:00:51.817091,-3.5640969705882353,0.6730175882352941,-0.8161833235294118,0.5107128529411764,0.4253887941176471,0.05955170588235294,-0.0658983823529412,-0.6970698529411765,0.07367967647058822,-0.022738470588235294,-0.036206441176470594,-0.15553929411764705,4.973961735294118,-31.41176470588235,7.823529411764706,0.139763,0.131199,0.132986,-0.027415264705882354,0.042464,1218.4705882352941,-0.556623,0.040768,-0.597391,-0.5284205882352941,9.596176470588235,7480.14705882353,7357.676470588235,7394.382352941177,7552.235294117647,7484.85294117647,7355.911764705882,7383.970588235294,7547.294117647059,0.3359030294117647,0.17301758823529412,-1.5161833235294118,0.5107128529411764,0.4253887941176471,0.05955170588235294,-0.022738470588235294,-0.036206441176470594,-0.15553929411764705,-0.213535,0.183865,0.024416,-0.0038329999999999996,-0.024065,0.003982,-0.6764705294117648,0.052705529411764714,-9.726016794117648,-0.06963761764705882,-0.09355620588235294,-0.00842285294117647,0.330597,0.159649,-1.528017,0.00195,6273.705882352941,145.7941176470588,-45.1764705882353,24.264705882352942
0 days 00:00:51.882091,-3.5284863333333334,0.6999104545454545,-0.8133159090909092,0.5123723333333334,0.3926891212121212,0.059462545454545455,0.06688012121212118,-0.8678128181818182,0.14365090909090908,-0.022637484848484848,-0.042127727272727275,-0.15598575757575756,4.930882333333334,-32.21212121212121,9.636363636363637,0.14366154545454546,0.1327028181818182,0.132986,0.00257130303030303,0.075626,1232.1818181818182,-0.5330928181818182,0.06422127272727272,-0.5973140909090909,-0.6354830909090909,9.566754545454545,7468.515151515152,7404.666666666667,7340.69696969697,7529.242424242424,7438.454545454545,7455.121212121212,7340.121212121212,7496.636363636364,0.37151366666666663,0.19991045454545453,-1.5133159090909092,0.5123723333333334,0.3926891212121212,0.059462545454545455,-0.022637484848484848,-0.042127727272727275,-0.15598575757575756,-0.213535,0.18439636363636366,0.024431,-0.0038352727272727275,-0.024058636363636362,0.003962909090909091,-0.5797526060606061,-0.09372042424242423,-9.671046303030302,0.05496121212121212,-0.10466227272727273,-0.009388212121212122,0.3559556363636363,0.1790321818181818,-1.5248883636363635,0.004118636363636364,6258.909090909091,69.84848484848484,28.333333333333332,122.33333333333333
0 days 00:00:51.947091,-3.4928813030303028,0.7244029696969697,-0.8102692424242424,0.5092873939393939,0.36092045454545457,0.07332727272727273,-0.11670236363636366,-1.0048919696969696,0.35645103030303027,-0.023370666666666668,-0.043364848484848485,-0.15490245454545454,4.888791424242425,-32.696969696969695,12.606060606060606,0.15548972727272725,0.13954827272727274,0.132986,0.002057,0.17925609090909092,1273.030303030303,-0.46155836363636366,0.1353799090909091,-0.5969382727272728,-0.921536909090909,9.517106727272727,7342.121212121212,7508.454545454545,7346.333333333333,7399.060606060606,7378.787878787879,7466.818181818182,7377.363636363636,7452.515151515152,0.407118696969697,0.2244029696969697,-1.5102692424242423,0.5092873939393939,0.36092045454545457,0.07332727272727273,-0.023370666666666668,-0.043364848484848485,-0.15490245454545454,-0.213535,0.185034,0.024449,-0.003838,-0.024051,0.00394,-0.7342565454545454,-0.2778172121212121,-9.457889454545453,-0.1858502121212121,0.03943239393939394,0.02999227272727273,0.386386,0.202292,-1.521134,0.006721,6239.545454545455,-6.575757575757576,7.848484848484849,115.15151515151516
0 days 00:00:52.012091,-3.4572790606060604,0.7461009090909091,-0.8062682121212121,0.5026260606060605,0.32020533333333334,0.08418881818181818,-0.11640048484848488,-0.8928541515151516,0.09324278787878784,-0.04094293939393939,-0.03809242424242424,-0.152818,4.847074212121212,-32.0,14.0,0.140249,0.139757,0.132986,0.0,0.057659,1280.0,-0.553162,0.043697,-0.596859,-0.62195,9.663658,7507.242424242424,7353.454545454545,7433.060606060606,7602.727272727273,7533.212121212121,7334.606060606061,7435.060606060606,7603.363636363636,0.44272093939393936,0.2461009090909091,-1.506268212121212,0.5026260606060605,0.32020533333333334,0.08418881818181818,-0.04094293939393939,-0.03809242424242424,-0.152818,-0.2132150909090909,0.18604527272727273,0.02445309090909091,-0.003839636363636364,-0.024041999999999997,0.003910545454545455,-0.7124171818181818,0.008285969696969708,-9.722330727272727,-0.24736621212121213,0.01748927272727273,0.010727333333333335,0.4313729090909091,0.2325090909090909,-1.5143455454545454,0.0018945454545454547,6321.0,183.1818181818182,-85.12121212121212,-21.393939393939394
0 days 00:00:52.077091,-3.4230565294117645,0.7655716764705882,-0.8012222352941176,0.49757473529411766,0.2802554705882353,0.08445038235294117,0.07454323529411759,-1.1183624705882353,-0.10383591176470584,-0.045574323529411764,-0.03998870588235294,-0.15300579411764706,4.805068264705882,-31.205882352941178,15.588235294117647,0.13611805882352943,0.13884317647058822,0.132986,0.001996441176470588,0.10056129411764707,1295.8823529411766,-0.5779920000000001,0.018845588235294117,-0.5968375882352941,-0.6449011176470588,9.671306588235295,7547.029411764706,7371.676470588235,7410.735294117647,7578.382352941177,7520.382352941177,7421.264705882353,7419.794117647059,7564.117647058823,0.4769434705882353,0.2655716764705882,-1.5012222352941176,0.49757473529411766,0.2802554705882353,0.08445038235294117,-0.045574323529411764,-0.03998870588235294,-0.15300579411764706,-0.2129725294117647,0.18662441176470587,0.024450176470588236,-0.0038402941176470585,-0.024037352941176468,0.003894588235294118,-0.5274011764705883,-0.1345645294117647,-9.94588688235294,0.10090900000000001,-0.09716085294117648,-0.021864941176470587,0.4564332352941176,0.24753076470588234,-1.5101590588235294,-0.0011335882352941173,6327.882352941177,121.52941176470588,-21.08823529411765,32.0
0 days 00:00:52.142091,-3.388386242424242,0.7816026666666667,-0.796559787878788,0.4967157272727272,0.2279187878787879,0.08184312121212121,0.12003651515151514,-0.951214,0.08429351515151512,-0.034176848484848484,-0.04543796969696969,-0.15319987878787877,4.763452696969697,-31.90909090909091,19.636363636363637,0.13539272727272728,0.13854618181818182,0.132986,0.0030855151515151516,0.13404881818181819,1333.6363636363637,-0.5823189696969696,0.014479515151515153,-0.5967984848484849,-0.834136606060606,9.556987727272729,7403.878787878788,7506.333333333333,7398.69696969697,7476.181818181818,7372.787878787879,7512.575757575758,7401.545454545455,7455.484848484848,0.5116137575757576,0.28160266666666667,-1.496559787878788,0.4967157272727272,0.2279187878787879,0.08184312121212121,-0.034176848484848484,-0.04543796969696969,-0.15319987878787877,-0.212561,0.187475,0.024441,-0.0038410000000000002,-0.024031,0.003872,-0.5528232121212122,-0.07105233333333333,-9.739731272727273,0.1416977878787879,-0.07406348484848485,0.0057336060606060614,0.492585,0.267467,-1.503732,-0.005827,6263.212121212121,-42.96969696969697,14.181818181818182,136.78787878787878
0 days 00:00:52.207091,-3.3550426666666664,0.7943429090909091,-0.790730181818182,0.48451472727272726,0.1915338181818182,0.10261427272727272,0.000832121212121173,-0.9662165151515152,0.17425875757575754,-0.03403318181818182,-0.04656851515151515,-0.1516499393939394,4.722771060606061,-31.303030303030305,20.696969696969695,0.13327933333333333,0.13477999999999998,0.132986,0.002057060606060606,0.12543166666666666,1352.3333333333333,-0.5950373333333333,0.0017646666666666668,-0.5968019999999999,-0.6237333333333333,9.629402333333333,7418.090909090909,7470.636363636364,7419.121212121212,7489.757575757576,7458.0,7429.939393939394,7437.606060606061,7524.818181818182,0.5449573333333334,0.2943429090909091,-1.490730181818182,0.48451472727272726,0.1915338181818182,0.10261427272727272,-0.03403318181818182,-0.04656851515151515,-0.1516499393939394,-0.2124170606060606,0.18822045454545452,0.024425848484848484,-0.0038402424242424244,-0.02402569696969697,0.00385230303030303,-0.662168606060606,-0.13870145454545454,-9.645063939393939,-0.09861066666666667,-0.002833454545454543,0.021018272727272726,0.5308812121212121,0.2835851818181818,-1.4957539696969697,0.006079060606060606,6301.333333333333,57.54545454545455,-37.24242424242424,41.696969696969695
0 days 00:00:52.272091,-3.3219953529411765,0.8050633823529412,-0.7843457352941177,0.4920443235294118,0.15026664705882353,0.09443664705882353,0.11471500000000005,-0.8583404117647059,-0.05816429411764705,-0.037149264705882354,-0.04664782352941176,-0.15102876470588236,4.681883294117647,-30.5,21.5,0.11868570588235293,0.136458,0.132986,0.0019965,0.06083129411764706,1358.5,-0.6830386470588234,-0.08602464705882354,-0.597014,-0.5130301176470587,9.678363294117647,7515.294117647059,7401.823529411765,7450.323529411765,7558.5,7510.441176470588,7396.441176470588,7461.0,7569.764705882353,0.5780046470588235,0.30506338235294117,-1.4843457352941176,0.4920443235294118,0.15026664705882353,0.09443664705882353,-0.037149264705882354,-0.04664782352941176,-0.15102876470588236,-0.2123025294117647,0.18867288235294116,0.024414882352941175,-0.0038395294117647056,-0.02402258823529412,0.0038403529411764705,-0.5881778235294117,0.03805720588235297,-9.874655294117646,0.008688529411764704,-0.04515167647058823,0.001960323529411766,0.554972,0.2924302941176471,-1.490727588235294,0.008813235294117648,6332.058823529412,111.20588235294117,-61.94117647058823,-3.676470588235294
0 days 00:00:52.337091,-3.2879624545454544,0.8127743030303031,-0.7784486060606062,0.4975266666666666,0.11161715151515152,0.08773545454545455,0.0483110909090909,-0.8632618181818181,0.07331506060606065,-0.030433636363636364,-0.05229672727272727,-0.15094763636363637,4.641308606060606,-30.0,22.606060606060606,0.11607827272727272,0.14108318181818183,0.132986,0.002571212121212121,0.07142663636363637,1378.0,-0.6988893636363636,-0.10170927272727273,-0.5971800909090909,-0.5653177272727272,9.663570181818184,7505.181818181818,7428.606060606061,7466.151515151515,7537.272727272727,7499.030303030303,7499.484848484848,7452.272727272727,7468.272727272727,0.6120375454545455,0.31277430303030307,-1.4784486060606061,0.4975266666666666,0.11161715151515152,0.08773545454545455,-0.030433636363636364,-0.05229672727272727,-0.15094763636363637,-0.21208,0.189368,0.024395,-0.003838,-0.024018,0.0038219999999999994,-0.7046638181818182,-0.07537299999999994,-9.731682090909091,0.1848218484848485,-0.17815618181818182,-0.018576939393939396,0.593439,0.304414,-1.482689,0.005317,6325.545454545455,7.787878787878788,39.0,11.575757575757576
0 days 00:00:52.402091,-3.2544239999999998,0.8178069696969696,-0.772288484848485,0.5142379696969697,0.07198624242424242,0.0866110909090909,0.5502016363636363,-0.8401112424242424,-0.177705303030303,-0.021528848484848484,-0.056469727272727276,-0.15075148484848486,4.601702878787878,-29.606060606060606,24.393939393939394,0.14474481818181817,0.1462148181818182,0.132986,0.002057030303030303,0.20755718181818184,1430.6969696969697,-0.5262431818181819,0.07073836363636364,-0.5969811818181817,-0.6408039090909091,9.640420727272726,7445.757575757576,7582.939393939394,7397.151515151515,7397.212121212121,7444.272727272727,7534.121212121212,7434.757575757576,7450.212121212121,0.645576,0.3178069696969697,-1.472288484848485,0.5142379696969697,0.07198624242424242,0.0866110909090909,-0.021528848484848484,-0.056469727272727276,-0.15075148484848486,-0.21225075757575756,0.18988375757575757,0.024376181818181818,-0.0038366060606060608,-0.02401451515151515,0.0038087575757575756,-0.27598248484848487,-0.05388848484848487,-10.011215727272727,-0.00515660606060606,0.06332130303030303,0.023060151515151516,0.6284303636363636,0.31071530303030304,-1.4746264545454544,0.01932330303030303,6305.909090909091,-37.09090909090909,46.54545454545455,74.39393939393939
0 days 00:00:52.467091,-3.219958575757576,0.8209599393939394,-0.7669154545454544,0.5380070909090909,0.04364136363636363,0.07272466666666666,0.40527796969696966,-0.6303924848484849,-0.18037309090909084,-0.02814581818181818,-0.047510757575757574,-0.1496728787878788,4.562426393939393,-29.0,25.0,0.136208,0.152301,0.132986,0.0,0.087154,1441.0,-0.577564,0.019387,-0.59695,-0.565972,9.693657,7487.878787878788,7459.090909090909,7481.727272727273,7534.515151515152,7497.121212121212,7443.606060606061,7483.212121212121,7533.363636363636,0.6800414242424242,0.3209599393939394,-1.4669154545454544,0.5380070909090909,0.04364136363636363,0.07272466666666666,-0.02814581818181818,-0.047510757575757574,-0.1496728787878788,-0.2123278787878788,0.1901216666666667,0.02436678787878788,-0.003835878787878788,-0.024012939393939392,0.003802848484848485,-0.36680284848484845,0.18750000000000003,-9.996389636363636,-0.125407,0.09927639393939394,0.01382721212121212,0.6452824242424242,0.3135937878787879,-1.4707811515151512,0.024897848484848488,6339.0,51.72727272727273,-38.0,-2.3333333333333335
0 days 00:00:52.532091,-3.1842536470588234,0.8214734705882354,-0.7612474411764705,0.5410384705882353,0.007993529411764707,0.06932608823529411,0.03405038235294121,-0.8751806470588236,0.06039223529411764,-0.03174264705882353,-0.04289844117647059,-0.1496540294117647,4.522910176470588,-27.235294117647058,25.0,0.12421479411764708,0.15766600000000003,0.132986,0.001996529411764706,0.07341311764705882,1453.3529411764705,-0.6498490588235295,-0.05275988235294117,-0.5970890294117648,-0.3774958823529411,9.773540911764705,7547.617647058823,7450.911764705882,7496.705882352941,7597.941176470588,7544.441176470588,7447.823529411765,7495.970588235294,7609.0,0.7157463529411765,0.32147347058823533,-1.4612474411764704,0.5410384705882353,0.007993529411764707,0.06932608823529411,-0.03174264705882353,-0.04289844117647059,-0.1496540294117647,-0.21242,0.190559,0.024328,-0.0038319999999999995,-0.024011,0.0037979999999999997,-0.6484662352941176,-0.08355364705882351,-9.752211735294118,0.03407911764705882,-0.0047822941176470565,-0.003992411764705882,0.697712,0.318035,-1.459906,0.008413,6388.470588235294,104.67647058823529,-56.3235294117647,11.558823529411764
