time,pos_x,pos_y,pos_z,vel_x,vel_y,vel_z,acc_x,acc_y,acc_z,att_phi,att_theta,att_psi,distance_est,centroid_x,centroid_y,divergence,true_divergence,divergence_sp,pitch_sum,raw_divergence,color_count,rpm_obs_1,rpm_obs_2,rpm_obs_3,rpm_obs_4,rpm_ref_1,rpm_ref_2,rpm_ref_3,rpm_ref_4,ekf_X1,ekf_X2,ekf_X3,ekf_X4,ekf_X5,ekf_X6,ekf_X7,ekf_X8,ekf_X9,ekf_X10,ekf_X11,ekf_X12,ekf_X13,ekf_X14,ekf_X15,ekf_U1,ekf_U2,ekf_U3,ekf_U4,ekf_U5,ekf_U6,ekf_Z1,ekf_Z2,ekf_Z3,ekf_Z4,cmd_thrust,cmd_roll,cmd_pitch,cmd_yaw,pos_z_inverted
0 days 00:01:18.987564,-4.573649666666666,-0.2570945757575758,0.18113136363636362,0.004568666666666667,0.01602248484848485,-0.10449027272727274,-0.04301957575757573,0.7888695151515152,-1.6296063636363638,0.06624475757575758,-0.022949636363636363,0.0014658181818181818,10.0,13.0,-28.0,-0.017616454545454543,-0.00019527272727272728,0.0,-0.3677977272727273,-0.07785718181818183,783.3333333333334,8489.181818181818,8257.878787878788,8616.242424242424,8187.666666666667,7689.212121212121,8293.727272727272,8560.454545454546,7600.121212121212,-0.07364966666666667,-0.5570945757575758,-0.5188686363636363,0.004568666666666667,0.01602248484848485,-0.10449027272727274,0.06624475757575758,-0.022949636363636363,0.0014658181818181818,0.14679,-0.056452,0.308249,0.036711,-0.017149,0.010456,-0.04737812121212127,-0.04936072727272727,-11.156930636363635,1.272638393939394,-0.12959436363636365,0.006318030303030306,-0.068762,-0.555452,-0.53456,0.028035,7110.606060606061,-781.1515151515151,-88.60606060606061,-251.27272727272728,-0.18113136363636362
0 days 00:01:19.052564,-4.57015893939394,-0.25401154545454546,0.16784830303030307,0.016870424242424242,0.07199133333333332,-0.1537709090909091,0.09818836363636363,0.8563086666666666,-0.017636787878787887,0.07690463636363637,-0.03670890909090909,0.006002545454545455,10.0,13.151515151515152,-27.848484848484848,-0.025444212121212118,0.00040800000000000005,0.0,-0.982844303030303,-0.10295718181818182,779.7575757575758,8022.757575757576,7430.212121212121,8088.545454545455,7675.424242424242,8235.757575757576,7138.181818181818,8092.30303030303,7630.909090909091,-0.0701589393939394,-0.5540115454545455,-0.5321516969696969,0.016870424242424242,0.07199133333333332,-0.1537709090909091,0.07690463636363637,-0.03670890909090909,0.006002545454545455,0.14519127272727272,-0.05520836363636364,0.308402,0.036710181818181815,-0.017141636363636362,0.010463363636363637,-0.009913515151515177,0.020714939393939372,-9.557972242424244,-0.3322162121212121,-0.3626006363636364,0.04640884848484849,-0.06343727272727273,-0.5546043636363636,-0.5451071818181819,0.05140145454545454,6741.363636363636,317.6060606060606,-174.33333333333334,-1100.4848484848485,-0.16784830303030307
0 days 00:01:19.117564,-4.567030696969697,-0.247823606060606,0.15583775757575757,0.04872090909090909,0.11517939393939394,-0.16568272727272726,0.47347433333333333,0.5262662121212122,-0.15481103030303026,0.05389390909090909,-0.068423,0.0022784242424242424,10.0,14.0,-27.0,-0.009213,0.005773,0.0,-2.342915393939394,0.037619,784.0,8158.363636363636,7473.424242424242,7886.121212121212,7533.090909090909,8286.242424242424,7514.787878787879,7782.69696969697,7650.090909090909,-0.06703069696969696,-0.547823606060606,-0.5441622424242424,0.04872090909090909,0.11517939393939394,-0.16568272727272726,0.05389390909090909,-0.068423,0.0022784242424242424,0.1447949393939394,-0.054451545454545454,0.3084702424242424,0.036709848484848484,-0.017138484848484847,0.010465303030303031,0.03956554545454544,-0.08244551515151516,-9.680723242424243,-0.4227701212121212,-0.5375162727272726,0.0280539696969697,-0.06116187878787879,-0.5528437272727273,-0.5510120606060607,0.061490060606060604,6789.575757575758,318.93939393939394,183.78787878787878,-638.2424242424242,-0.15583775757575757
0 days 00:01:19.182564,-4.559412676470588,-0.23902838235294127,0.13949532352941174,0.09535923529411765,0.14195979411764706,-0.19003438235294118,0.6807709705882353,0.3633283235294118,-0.44709458823529413,0.03256029411764706,-0.09465326470588235,0.0016611764705882354,10.0,16.823529411764707,-25.11764705882353,-0.014615205882352942,0.016335794117647056,0.0,-4.776706647058823,-0.02418314705882353,780.2352941176471,8184.529411764706,7601.382352941177,7899.941176470588,7612.382352941177,8246.117647058823,7636.294117647059,7904.558823529412,7708.088235294118,-0.05941267647058823,-0.5390283823529413,-0.5605046764705882,0.09535923529411765,0.14195979411764706,-0.19003438235294118,0.03256029411764706,-0.09465326470588235,0.0016611764705882354,0.144565,-0.051761,0.308662,0.036709,-0.01713,0.010467,-0.027573617647058783,-0.03518502941176471,-9.976533794117648,-0.2820325882352941,-0.28042420588235295,0.019452235294117645,-0.055046,-0.544039,-0.570954,0.088908,6881.794117647059,206.41176470588235,134.64705882352942,-569.1764705882352,-0.13949532352941174
0 days 00:01:19.247564,-4.54931303030303,-0.22917848484848485,0.12344321212121201,0.15965412121212122,0.15595239393939395,-0.21953009090909092,0.4599738181818182,0.05435321212121212,-0.010601454545454577,0.014124818181818183,-0.10313109090909091,0.001965787878787879,10.0,21.545454545454547,-25.757575757575758,-0.015138,0.017358,0.0,-7.756743090909091,-0.030164,769.3939393939394,8302.39393939394,7621.818181818182,7829.030303030303,7702.121212121212,8308.484848484848,7681.484848484848,7871.454545454545,7695.969696969697,-0.0493130303030303,-0.5291784848484848,-0.576556787878788,0.15965412121212122,0.15595239393939395,-0.21953009090909092,0.014124818181818183,-0.10313109090909091,0.001965787878787879,0.14441251515151515,-0.049806,0.30877790909090913,0.036709,-0.017124333333333335,0.010469575757575759,-0.299834303030303,-0.14311075757575756,-9.513997363636364,-0.1119569393939394,0.024754484848484852,0.006399424242424243,-0.047145121212121215,-0.536201484848485,-0.5838173333333333,0.09231933333333334,6903.727272727273,225.4848484848485,210.78787878787878,-566.5454545454545,-0.12344321212121201
0 days 00:01:19.312564,-4.536026393939394,-0.21891984848484852,0.10691315151515146,0.19428851515151513,0.15846036363636365,-0.21393496969696968,0.5977728181818183,0.035625151515151506,-0.14709603030303037,0.005693151515151516,-0.09205266666666667,0.0022050606060606062,10.0,23.96969696969697,-26.242424242424242,-0.004295000000000001,0.02447021212121212,0.0,-10.648069181818181,0.011358939393939397,771.3333333333334,8269.484848484848,7568.454545454545,7883.727272727273,7829.939393939394,8355.939393939394,7577.757575757576,7920.0,7919.727272727273,-0.03602639393939394,-0.5189198484848485,-0.5930868484848485,0.19428851515151513,0.15846036363636365,-0.21393496969696968,0.005693151515151516,-0.09205266666666667,0.0022050606060606062,0.144269,-0.047966,0.308887,0.036709,-0.017119,0.010472,-0.06797466666666664,-0.06871454545454544,-9.665542121212122,-0.020737181818181818,0.21755148484848483,0.010054121212121212,-0.039709,-0.528825,-0.595924,0.09553,6980.090909090909,388.3333333333333,46.93939393939394,-549.5454545454545,-0.10691315151515146
0 days 00:01:19.377564,-4.518853454545455,-0.2089215454545455,0.08772845454545453,0.23544751515151516,0.16019881818181816,-0.24221375757575758,0.29893542424242425,0.113408,-0.6235154242424243,0.01798778787878788,-0.07760833333333332,0.001955,10.0,26.939393939393938,-27.0,0.035979,0.050887,0.0,-13.067289333333333,0.165587,788.1818181818181,8485.39393939394,7679.787878787879,8089.909090909091,8129.939393939394,8412.727272727272,7795.424242424242,8208.181818181818,8076.454545454545,-0.018853454545454548,-0.5089215454545455,-0.6122715454545454,0.23544751515151516,0.16019881818181816,-0.24221375757575758,0.01798778787878788,-0.07760833333333332,0.001955,0.14498736363636364,-0.04512854545454546,0.3090800909090909,0.036709818181818184,-0.017110000000000004,0.010480999999999999,-0.24763254545454547,-0.12316530303030303,-10.123993757575757,0.5435458181818181,0.19636315151515152,-0.0024931818181818176,-0.018748818181818182,-0.5155655454545455,-0.621515909090909,0.06856845454545454,7233.909090909091,242.3939393939394,-38.18181818181818,-528.8181818181819,-0.08772845454545453
0 days 00:01:19.442564,-4.500971794117647,-0.1980872647058824,0.06769347058823516,0.25504270588235295,0.17775564705882352,-0.2967140882352941,-0.1341265000000001,0.4356365,-0.3573314411764706,0.0448244705882353,-0.0677125588235294,0.0026540294117647057,10.0,24.264705882352942,-26.852941176470587,0.038852117647058815,0.061031588235294115,0.0,-15.0524865,0.04541247058823529,795.0294117647059,8078.823529411765,7586.970588235294,8031.441176470588,7766.323529411765,8033.735294117647,7429.85294117647,7901.941176470588,7643.911764705882,-0.0009717941176470589,-0.4980872647058824,-0.6323065294117648,0.25504270588235295,0.17775564705882352,-0.2967140882352941,0.0448244705882353,-0.0677125588235294,0.0026540294117647057,0.14529311764705882,-0.04396258823529412,0.3091704705882353,0.03671017647058823,-0.01710552941176471,0.010484764705882351,-0.5473345882352941,-0.06835941176470588,-9.84518605882353,0.20629164705882352,0.06756947058823531,0.03156588235294117,-0.008090470588235294,-0.5095138235294118,-0.6343751176470588,0.06034023529411764,6710.382352941177,172.58823529411765,-41.088235294117645,-608.4705882352941,-0.06769347058823516
0 days 00:01:19.507564,-4.479883424242424,-0.18573375757575755,0.042261393939393876,0.26850848484848483,0.21365857575757577,-0.3045054242424242,0.37804090909090904,0.630956393939394,-0.32001487878787876,0.04999669696969697,-0.06368351515151516,0.0021687575757575756,10.0,20.0,-26.0,0.042138,0.06151600000000001,0.0,-16.845594696969698,0.051581,801.0,7821.757575757576,7400.878787878788,7906.090909090909,7494.060606060606,7862.393939393939,7346.424242424242,7831.121212121212,7572.484848484848,0.020116575757575757,-0.48573375757575754,-0.6577386060606061,0.26850848484848483,0.21365857575757577,-0.3045054242424242,0.04999669696969697,-0.06368351515151516,0.0021687575757575756,0.145975,-0.041464,0.309392,0.036711,-0.017094,0.010493,-0.005770636363636378,0.08330363636363637,-9.844726515151514,-0.10517278787878788,0.044366969696969696,0.01913178787878788,0.019912,-0.495023,-0.667845,0.049902,6570.242424242424,128.42424242424244,-97.18181818181819,-546.7878787878788,-0.042261393939393876
0 days 00:01:19.572564,-4.457913818181818,-0.17190727272727274,0.01780203030303018,0.29659906060606056,0.23338430303030303,-0.3154504848484848,0.041452303030303055,0.09167400000000002,0.14073633333333335,0.037856545454545455,-0.06136757575757575,0.0021763030303030306,10.0,18.09090909090909,-25.363636363636363,0.03761860606060606,0.06808387878787879,0.0,-18.469118666666667,0.025885242424242425,801.6363636363636,7884.242424242424,7252.272727272727,7851.848484848485,7565.575757575758,7899.575757575758,7325.151515151515,7863.0,7569.545454545455,0.042086181818181814,-0.47190727272727273,-0.6821979696969698,0.29659906060606056,0.23338430303030303,-0.3154504848484848,0.037856545454545455,-0.06136757575757575,0.0021763030303030306,0.14735863636363636,-0.03947006060606061,0.30956351515151515,0.036714030303030304,-0.017083090909090912,0.010502090909090909,-0.2727864545454546,-0.2988281212121212,-9.346827606060605,-0.10543175757575758,0.010364848484848484,-0.007649727272727273,0.042092,-0.4837320909090909,-0.6918292424242425,0.05263290909090909,6586.121212121212,140.15151515151516,-103.75757575757575,-612.5757575757576,-0.01780203030303018
0 days 00:01:19.637564,-4.435221705882353,-0.15675794117647057,-0.005761470588235285,0.3184608529411765,0.24771100000000001,-0.31039764705882356,0.26378144117647057,0.24551323529411764,0.24110411764705883,0.02701191176470588,-0.06032673529411764,0.0018488529411764705,10.0,15.676470588235293,-24.558823529411764,0.06360829411764705,0.07521888235294118,0.0,-20.0594795,0.10491294117647058,820.0882352941177,7917.411764705882,7295.470588235294,7795.411764705882,7628.823529411765,7944.088235294118,7329.323529411765,7817.85294117647,7630.882352941177,0.06477829411764706,-0.45675794117647056,-0.7057614705882352,0.3184608529411765,0.24771100000000001,-0.31039764705882356,0.02701191176470588,-0.06032673529411764,0.0018488529411764705,0.148258,-0.038174,0.309675,0.036716,-0.017076,0.010508,-0.0353573235294118,-0.034840323529411785,-9.263528235294118,-0.06772041176470588,0.017298147058823526,0.007115941176470588,0.056509,-0.47639300000000007,-0.707419,0.054408,6609.0,213.52941176470588,-87.3529411764706,-566.0294117647059,0.005761470588235285
0 days 00:01:19.702564,-4.405992030303031,-0.14103539393939396,-0.0323345151515152,0.35623678787878793,0.26168651515151514,-0.29759266666666667,0.19355306060606062,0.1467411212121212,0.2519746666666666,0.02418651515151515,-0.05983848484848485,0.0010546969696969698,10.0,13.515151515151516,-24.0,0.11094642424242425,0.08212360606060606,0.0,-21.58455996969697,0.23923230303030302,849.5454545454545,7916.787878787879,7378.909090909091,7789.909090909091,7639.787878787879,7913.181818181818,7360.272727272727,7807.545454545455,7682.636363636364,0.09400796969696969,-0.44103539393939395,-0.7323345151515152,0.35623678787878793,0.26168651515151514,-0.29759266666666667,0.02418651515151515,-0.05983848484848485,0.0010546969696969698,0.1509188484848485,-0.03544527272727273,0.309931,0.036718909090909094,-0.017055636363636363,0.010525454545454546,-0.0701942121212121,-0.10102975757575756,-9.249644787878788,0.02402942424242424,0.0488059696969697,0.01434509090909091,0.09905057575757575,-0.45137578787878785,-0.7454834848484849,0.017928,6623.666666666667,213.72727272727272,-108.12121212121212,-478.4848484848485,0.0323345151515152
0 days 00:01:19.767564,-4.379437878787879,-0.12432924242424243,-0.053779848484848514,0.3879279696969697,0.26972287878787876,-0.30366687878787874,0.5208076060606059,0.16444754545454546,-0.44412696969696963,0.027212060606060604,-0.05647178787878788,0.0014163030303030303,10.0,12.0,-24.0,0.133282,0.092563,0.0,-22.92333890909091,0.230178,870.0,7900.939393939394,7313.121212121212,7813.484848484848,7671.484848484848,7922.818181818182,7374.333333333333,7819.060606060606,7623.121212121212,0.1205621212121212,-0.4243292424242424,-0.7537798484848485,0.3879279696969697,0.26972287878787876,-0.30366687878787874,0.027212060606060604,-0.05647178787878788,0.0014163030303030303,0.15186957575757576,-0.03459,0.31001718181818183,0.03672051515151516,-0.017048030303030304,0.010530545454545456,0.25988396969696964,-0.13071139393939393,-9.960848696969697,0.17143851515151515,-0.0038914242424242435,0.010734878787878788,0.11518424242424241,-0.4426285454545455,-0.7583778484848485,0.013030121212121213,6615.0,175.96969696969697,-72.45454545454545,-525.4242424242424,0.053779848484848514
0 days 00:01:19.832564,-4.3470478484848485,-0.10760709090909093,-0.07850087878787892,0.43572939393939397,0.2808118181818182,-0.3091632121212121,0.1072349090909091,0.16314015151515152,0.3665825454545455,0.03419930303030303,-0.05535009090909091,0.0012983333333333334,10.0,11.272727272727273,-23.272727272727273,0.11893278787878787,0.10589393939393939,0.0,-24.19046893939394,0.11189666666666667,876.5454545454545,7869.636363636364,7381.969696969697,7871.212121212121,7631.787878787879,7916.242424242424,7390.757575757576,7882.181818181818,7644.060606060606,0.1529521515151515,-0.4076070909090909,-0.7785008787878789,0.43572939393939397,0.2808118181818182,-0.3091632121212121,0.03419930303030303,-0.05535009090909091,0.0012983333333333334,0.153865,-0.032819,0.310197,0.036724,-0.017032,0.010541,-0.083451696969697,-0.17249639393939392,-9.132191060606061,0.060509878787878786,0.013538666666666671,0.019731,0.149234,-0.424308,-0.785299,0.004387,6648.212121212121,143.3030303030303,-109.48484848484848,-539.060606060606,0.07850087878787892
0 days 00:01:19.897564,-4.313647382352941,-0.09003629411764708,-0.10279555882352942,0.4563574117647059,0.29027758823529415,-0.29721632352941174,0.0018888235294117826,0.21859558823529412,0.3366922058823529,0.03139205882352941,-0.053104147058823534,0.0011379411764705883,10.0,9.411764705882353,-22.470588235294116,0.0723255,0.11598750000000001,0.0,-25.388866794117646,-0.03235649999999999,867.3529411764706,7908.705882352941,7341.676470588235,7905.970588235294,7650.558823529412,7897.676470588235,7293.14705882353,7895.411764705882,7675.529411764706,0.18635261764705882,-0.39003629411764706,-0.8027955588235294,0.4563574117647059,0.29027758823529415,-0.29721632352941174,0.03139205882352941,-0.053104147058823534,0.0011379411764705883,0.15568767647058823,-0.030764088235294116,0.31036870588235294,0.03672770588235294,-0.017020882352941177,0.010552117647058825,-0.1654985588235294,-0.08938426470588236,-9.161649794117647,-0.05721508823529412,0.06846705882352941,0.006505647058823529,0.18101564705882356,-0.406989794117647,-0.8109233235294118,0.024375911764705882,6623.0,191.85294117647058,-189.73529411764707,-582.0882352941177,0.10279555882352942
0 days 00:01:19.962564,-4.2805024242424246,-0.07125618181818183,-0.12425693939393945,0.4770280303030303,0.30426969696969697,-0.2757337878787879,0.09696424242424243,0.10254830303030303,0.14487793939393934,0.027244666666666667,-0.05073418181818182,0.000722,10.0,7.333333333333333,-21.666666666666668,0.059382454545454544,0.12234439393939395,0.0,-26.500373454545457,0.04364730303030303,875.0,7853.575757575758,7324.090909090909,7830.878787878788,7591.727272727273,7891.969696969697,7342.363636363636,7806.969696969697,7593.515151515152,0.21949757575757578,-0.3712561818181818,-0.8242569393939394,0.4770280303030303,0.30426969696969697,-0.2757337878787879,0.027244666666666667,-0.05073418181818182,0.000722,0.156816,-0.029492,0.310475,0.03673,-0.017014,0.010559,-0.07114112121212121,-0.1641809090909091,-9.352213636363636,-0.037664333333333334,-0.007797727272727272,0.014825969696969697,0.20069,-0.396269,-0.826786,0.03675,6578.181818181818,167.75757575757575,-82.93939393939394,-538.6666666666666,0.12425693939393945
0 days 00:01:20.027564,-4.243464363636364,-0.053228,-0.14968566666666672,0.5037029696969697,0.3079920303030303,-0.2772025454545455,0.04410890909090903,0.09226524242424242,0.3227861515151515,0.022392000000000002,-0.04783524242424242,0.0003146969696969697,10.0,6.0,-21.0,0.122461,0.127081,0.0,-27.596472272727272,0.431957,911.0,7835.69696969697,7278.454545454545,7856.454545454545,7613.030303030303,7859.939393939394,7300.575757575758,7829.575757575758,7614.606060606061,0.25653563636363635,-0.353228,-0.8496856666666667,0.5037029696969697,0.3079920303030303,-0.2772025454545455,0.022392000000000002,-0.04783524242424242,0.0003146969696969697,0.1596087272727273,-0.025855636363636362,0.3107668787878788,0.036735818181818175,-0.016999454545454543,0.010575484848484848,-0.10443290909090908,-0.1150272424242424,-9.172614818181817,-0.0387,0.03224875757575757,0.00656230303030303,0.2526279393939394,-0.36659239393939397,-0.8655108484848484,0.02565569696969697,6567.545454545455,171.9090909090909,-141.6969696969697,-546.6363636363636,0.14968566666666672
0 days 00:01:20.092564,-4.208646176470588,-0.03332194117647058,-0.16957397058823542,0.5172617941176471,0.31475335294117646,-0.2560999705882353,-0.04122741176470589,0.0958749705882353,0.3385578529411766,0.018121941176470587,-0.045444470588235295,0.0001541764705882353,10.0,4.352941176470588,-20.176470588235293,0.16200726470588234,0.13473867647058824,0.0,-28.679459147058825,0.3259978823529412,950.5294117647059,7890.882352941177,7313.14705882353,7783.058823529412,7609.0,7853.764705882353,7312.294117647059,7820.088235294118,7632.85294117647,0.29135382352941175,-0.33332194117647057,-0.8695739705882354,0.5172617941176471,0.31475335294117646,-0.2560999705882353,0.018121941176470587,-0.045444470588235295,0.0001541764705882353,0.16034982352941177,-0.024628176470588237,0.31086747058823533,0.036737470588235295,-0.016995764705882353,0.010578941176470588,-0.17417279411764705,-0.06428079411764706,-9.154612852941177,0.027444235294117644,0.06513529411764706,0.007345764705882353,0.2710480588235294,-0.35595058823529413,-0.8780401176470588,0.017556941176470588,6572.558823529412,176.88235294117646,-143.1764705882353,-514.4705882352941,0.16957397058823542
0 days 00:01:20.157564,-4.171490363636364,-0.013529181818181801,-0.19188812121212118,0.5279127272727272,0.32154175757575754,-0.250113,0.1312574242424243,0.054292757575757584,0.22981527272727267,0.01839506060606061,-0.04066254545454545,0.0001137878787878788,10.0,2.090909090909091,-19.363636363636363,0.12134424242424242,0.14037309090909092,0.0,-29.62481190909091,0.041987,946.2727272727273,7801.242424242424,7290.909090909091,7817.848484848485,7635.757575757576,7816.69696969697,7284.393939393939,7796.969696969697,7620.30303030303,0.3285096363636364,-0.3135291818181818,-0.8918881212121211,0.5279127272727272,0.32154175757575754,-0.250113,0.01839506060606061,-0.04066254545454545,0.0001137878787878788,0.161919,-0.021955,0.311087,0.036741,-0.016988,0.010586,0.042613727272727296,-0.10638618181818181,-9.269797545454546,0.028586636363636363,0.03355827272727273,0.01810339393939394,0.311361,-0.332636,-0.905206,-0.001048,6537.030303030303,177.6060606060606,-157.78787878787878,-500.3333333333333,0.19188812121212118
0 days 00:01:20.222564,-4.134604151515152,0.006397545454545461,-0.2129779696969697,0.5453430909090908,0.32565045454545455,-0.22470684848484848,-0.16102030303030304,0.06860839393939396,0.49750287878787885,0.017954666666666667,-0.038369848484848486,0.0002743939393939394,10.0,0.15151515151515152,-18.575757575757574,0.088249,0.142745,0.0,-30.422865212121213,-0.12476400000000001,945.7878787878788,7800.636363636364,7229.424242424242,7804.454545454545,7590.515151515152,7795.060606060606,7219.363636363636,7826.030303030303,7594.060606060606,0.3653958484848485,-0.2936024545454545,-0.9129779696969696,0.5453430909090908,0.32565045454545455,-0.22470684848484848,0.017954666666666667,-0.038369848484848486,0.0002743939393939394,0.164544,-0.018871818181818184,0.31131290909090914,0.03674418181818182,-0.01698290909090909,0.01059490909090909,-0.20034330303030304,-0.08235687878787878,-8.995442696969697,0.03725733333333334,0.03226348484848485,0.010009666666666667,0.34896499999999997,-0.3115386363636364,-0.9296703636363636,0.01387281818181818,6507.484848484848,171.6060606060606,-202.6060606060606,-570.1515151515151,0.2129779696969697
0 days 00:01:20.287564,-4.097802757575757,0.026831242424242396,-0.23087133333333343,0.5517774242424243,0.3277210909090909,-0.21727981818181819,-0.04005703030303033,0.013290848484848487,-0.09962436363636366,0.017551666666666667,-0.038096727272727275,-1.1151515151515152e-05,10.0,-1.0,-18.0,0.088249,0.142745,0.0,-31.120314545454544,-0.12476400000000001,955.0,7802.454545454545,7248.393939393939,7776.787878787879,7566.272727272727,7827.242424242424,7253.909090909091,7758.393939393939,7570.878787878788,0.40219724242424243,-0.2731687575757576,-0.9308713333333334,0.5517774242424243,0.3277210909090909,-0.21727981818181819,0.017551666666666667,-0.038096727272727275,-1.1151515151515152e-05,0.16625327272727272,-0.01680648484848485,0.31146345454545454,0.03674630303030303,-0.01697969696969697,0.010600424242424243,-0.09440106060606059,-0.14234139393939393,-9.593690818181818,0.00915151515151515,-0.02240918181818181,0.012732212121212122,0.37378554545454545,-0.2975790606060606,-0.9455502424242423,0.022244212121212123,6499.0,192.6060606060606,-123.96969696969697,-537.1818181818181,0.23087133333333343
0 days 00:01:20.352564,-4.059663735294118,0.04699399999999998,-0.25378241176470584,0.5546559411764707,0.33234926470588233,-0.2241688823529412,-0.13451626470588238,0.027850147058823545,0.22180435294117645,0.013666588235294118,-0.03681835294117647,-0.00029573529411764705,10.0,-2.8823529411764706,-16.147058823529413,0.1157360588235294,0.15244029411764706,0.0,-31.85272547058824,0.18466923529411763,982.5588235294117,7648.235294117647,7300.382352941177,7848.441176470588,7455.911764705882,7634.117647058823,7257.64705882353,7817.0,7481.794117647059,0.44033626470588233,-0.253006,-0.9537824117647058,0.5546559411764707,0.33234926470588233,-0.2241688823529412,0.013666588235294118,-0.03681835294117647,-0.00029573529411764705,0.169497,-0.012102,0.311796,0.036751,-0.016975,0.010607,-0.1548426470588235,-0.07666020588235295,-9.271599205882353,-0.21291217647058824,0.028787,0.02057244117647059,0.42544,-0.268068,-0.9750039999999999,0.019845,6421.35294117647,20.61764705882353,-203.41176470588235,-502.38235294117646,0.25378241176470584
0 days 00:01:20.417564,-4.02264893939394,0.06800542424242426,-0.27203590909090913,0.556564606060606,0.326861,-0.21406354545454545,-0.19871321212121212,-0.18580166666666667,0.2421315454545455,-0.006162030303030303,-0.03561730303030303,-2.909090909090901e-06,10.0,-5.0,-15.0,0.090641,0.156612,0.0,-32.46098490909091,0.034681,992.0,7941.333333333333,7067.606060606061,7692.575757575758,7683.454545454545,7900.272727272727,7187.454545454545,7769.575757575758,7627.060606060606,0.4773510606060606,-0.23199457575757573,-0.9720359090909091,0.556564606060606,0.326861,-0.21406354545454545,-0.006162030303030303,-0.03561730303030303,-2.909090909090901e-06,0.17141966666666666,-0.009834848484848484,0.311951696969697,0.03675312121212121,-0.016973727272727272,0.010608272727272728,-0.19516454545454542,-0.10046754545454543,-9.251627575757576,0.02769145454545454,-0.0217580303030303,-0.024258666666666668,0.45065866666666665,-0.25364163636363635,-0.9893743636363637,0.009927909090909093,6525.0,284.6363636363636,-154.12121212121212,-603.7272727272727,0.27203590909090913
0 days 00:01:20.482564,-3.9860061818181816,0.08792315151515151,-0.2909393333333333,0.5546353333333334,0.31914309090909093,-0.20985833333333334,-0.3350812424242424,-0.09981545454545455,0.05764339393939396,-0.0005354242424242424,-0.034300757575757575,-0.0005472121212121212,10.0,-6.636363636363637,-14.181818181818182,0.11202718181818182,0.15733527272727274,0.0,-33.03663336363636,0.1733161515151515,1015.7272727272727,7732.363636363636,7266.272727272727,7775.363636363636,7656.090909090909,7787.69696969697,7204.545454545455,7734.606060606061,7652.393939393939,0.5139938181818182,-0.21207684848484848,-0.9909393333333333,0.5546353333333334,0.31914309090909093,-0.20985833333333334,-0.0005354242424242424,-0.034300757575757575,-0.0005472121212121212,0.174029,-0.006758,0.312163,0.036756,-0.016972,0.01061,-0.3273555151515152,-0.06942469696969698,-9.433534545454545,0.049656757575757576,-0.0006066969696969683,0.03820433333333333,0.48488400000000004,-0.234063,-1.008877,-0.003531,6487.969696969697,249.96969696969697,-197.06060606060606,-469.72727272727275,0.2909393333333333
0 days 00:01:20.547564,-3.949308794117647,0.10721829411764705,-0.3117255882352943,0.5458679411764705,0.3098065294117647,-0.20863711764705883,-0.37166741176470586,-0.02506020588235293,0.4994724411764705,0.004631323529411764,-0.03430464705882353,-0.00042397058823529416,10.0,-7.647058823529412,-13.676470588235293,0.1198685294117647,0.15698176470588238,0.0,-33.583776941176474,0.1925389411764706,1027.7941176470588,7748.205882352941,7246.588235294118,7796.411764705882,7547.470588235294,7750.088235294118,7242.882352941177,7778.235294117647,7566.411764705882,0.5506912058823529,-0.19278170588235294,-1.0117255882352942,0.5458679411764705,0.3098065294117647,-0.20863711764705883,0.004631323529411764,-0.03430464705882353,-0.00042397058823529416,0.17746429411764705,-0.002772705882352941,0.31243064705882356,0.03676041176470588,-0.016971264705882356,0.01061220588235294,-0.34429567647058823,-0.03946452941176471,-8.991268382352942,0.07417564705882353,-0.010447764705882354,0.013047088235294116,0.5291759117647059,-0.20986520588235294,-1.0323961176470589,0.004804294117647059,6473.294117647059,147.38235294117646,-175.61764705882354,-507.52941176470586,0.3117255882352943
0 days 00:01:20.612564,-3.9134750606060607,0.1268992121212121,-0.3273378787878789,0.5418544242424242,0.3094613333333333,-0.1702550303030303,-0.089867303030303,-0.10382896969696968,0.5102202727272727,0.006084454545454546,-0.0332060303030303,-0.0004406969696969697,10.0,-9.424242424242424,-12.151515151515152,0.14555042424242423,0.15641172727272726,0.0,-34.11111212121212,0.20048496969696972,1068.3030303030303,7730.30303030303,7239.575757575758,7804.939393939394,7547.787878787879,7729.181818181818,7263.69696969697,7818.909090909091,7566.636363636364,0.5865249393939393,-0.17310078787878788,-1.0273378787878789,0.5418544242424242,0.3094613333333333,-0.1702550303030303,0.006084454545454546,-0.0332060303030303,-0.0004406969696969697,0.17912054545454545,-0.0008247272727272727,0.3125604545454545,0.03676245454545455,-0.01697063636363636,0.010613,-0.043619787878787876,-0.12792969696969697,-8.984493333333333,0.03321787878787879,0.0073316060606060645,0.012473363636363637,0.5507024545454545,-0.19830590909090912,-1.0435108181818185,0.008019,6487.636363636364,106.42424242424242,-196.03030303030303,-506.6060606060606,0.3273378787878789
0 days 00:01:20.677564,-3.8769569393939394,0.14494378787878787,-0.3464215757575757,0.547794303030303,0.2993988484848485,-0.1664779696969697,-0.0015039393939393555,-0.17764521212121212,0.02673466666666671,0.001422939393939394,-0.032937909090909094,-0.00018360606060606062,10.0,-10.636363636363637,-10.787878787878787,0.16451,0.158257,0.0,-34.57622942424242,0.20414363636363636,1099.7575757575758,7822.30303030303,7225.939393939394,7814.060606060606,7588.424242424242,7785.939393939394,7197.424242424242,7828.0,7599.272727272727,0.6230430606060606,-0.15505621212121212,-1.0464215757575757,0.547794303030303,0.2993988484848485,-0.1664779696969697,0.001422939393939394,-0.032937909090909094,-0.00018360606060606062,0.183316,0.004308,0.312895,0.036767,-0.016967,0.010613,0.045365727272727266,-0.1512191818181818,-9.470170393939394,-0.037523606060606056,0.02998493939393939,-1.4787878787878647e-05,0.606517,-0.169825,-1.069989,0.010159,6499.090909090909,179.54545454545453,-221.63636363636363,-576.7878787878788,0.3464215757575757
0 days 00:01:20.742564,-3.8407893333333334,0.16333369696969696,-0.3610332727272727,0.5592500303030303,0.28700796969696973,-0.166483,0.02950063636363637,-0.30209163636363634,0.1877728787878788,-0.0025343939393939396,-0.03172839393939394,-0.00038078787878787884,10.0,-13.0,-10.0,0.106649,0.161398,0.0,-35.01389645454546,-0.135176,1084.0,7733.333333333333,7140.69696969697,7696.575757575758,7547.090909090909,7726.878787878788,7150.909090909091,7690.242424242424,7525.121212121212,0.6592106666666667,-0.13666630303030303,-1.0610332727272727,0.5592500303030303,0.28700796969696973,-0.166483,-0.0025343939393939396,-0.03172839393939394,-0.00038078787878787884,0.1851750303030303,0.0066591515151515155,0.31304815151515153,0.03676912121212121,-0.01696572727272727,0.010612151515151515,0.09123463636363634,-0.23470045454545452,-9.312588727272727,0.02049309090909091,-0.022941848484848485,0.010771818181818183,0.631981303030303,-0.15660645454545455,-1.081309484848485,0.004680333333333333,6387.0,204.93939393939394,-168.54545454545453,-523.1818181818181,0.3610332727272727
0 days 00:01:20.807564,-3.8030339705882352,0.18067120588235294,-0.37676041176470587,0.566832794117647,0.2704168823529412,-0.1498485882352941,-0.3164905294117647,-0.20206597058823528,0.7394473529411764,-0.0014764411764705884,-0.03115744117647059,-0.00024108823529411764,10.0,-13.705882352941176,-9.294117647058824,0.13763811764705883,0.16638223529411766,0.0,-35.36104517647059,0.1653670294117647,1117.1764705882354,7692.617647058823,7159.5,7755.411764705882,7571.85294117647,7731.911764705882,7189.14705882353,7768.676470588235,7581.705882352941,0.6969660294117647,-0.11932879411764705,-1.0767604117647058,0.566832794117647,0.2704168823529412,-0.1498485882352941,-0.0014764411764705884,-0.03115744117647059,-0.00024108823529411764,0.187698,0.00985,0.313256,0.036772,-0.016964,0.010611,-0.21162688235294116,-0.13924626470588233,-8.754710588235294,0.04997705882352941,-0.022568676470588234,0.01652255882352941,0.66654,-0.138667,-1.096673,-0.002755,6449.911764705882,177.5,-214.41176470588235,-515.2058823529412,0.37676041176470587
0 days 00:01:20.872564,-3.766029,0.19719360606060604,-0.39266112121212116,0.5604662121212121,0.2626089393939394,-0.12032033333333333,-0.389770303030303,-0.1416252121212121,0.08122624242424245,-0.0002457575757575757,-0.03250681818181818,-3.648484848484849e-05,10.0,-14.818181818181818,-8.181818181818182,0.16479324242424243,0.16959957575757575,0.0,-35.70016215151515,0.22929524242424243,1164.5454545454545,7784.060606060606,7216.757575757576,7784.242424242424,7572.606060606061,7780.939393939394,7201.818181818182,7794.636363636364,7585.939393939394,0.733971,-0.10280639393939395,-1.0926611212121211,0.5604662121212121,0.2626089393939394,-0.12032033333333333,-0.0002457575757575757,-0.03250681818181818,-3.648484848484849e-05,0.19072072727272726,0.014008333333333333,0.31353478787878786,0.0367750303030303,-0.016964,0.01061251515151515,-0.2954545454545454,-0.08191284848484849,-9.411073636363636,0.045336242424242425,-0.010313090909090914,0.012036848484848485,0.7113604545454546,-0.11669351515151516,-1.1168805757575757,-0.012819393939393938,6482.363636363636,184.93939393939394,-198.6969696969697,-556.2424242424242,0.39266112121212116
0 days 00:01:20.937564,-3.7297196666666665,0.2133970303030303,-0.4026197575757575,0.5687703636363636,0.24945345454545453,-0.11411406060606061,0.11073733333333337,-0.21594121212121212,0.3555554848484848,0.001281151515151515,-0.03221781818181818,-0.0002457575757575757,10.0,-16.21212121212121,-6.787878787878788,0.14481539393939394,0.17320542424242422,0.0,-36.022021696969695,0.10257736363636363,1175.030303030303,7722.454545454545,7247.909090909091,7808.272727272727,7541.151515151515,7701.363636363636,7259.69696969697,7802.848484848485,7516.454545454545,0.7702803333333333,-0.08660296969696969,-1.1026197575757575,0.5687703636363636,0.24945345454545453,-0.11411406060606061,0.001281151515151515,-0.03221781818181818,-0.0002457575757575757,0.191688,0.015339000000000002,0.313624,0.036776,-0.016964,0.010613,0.20490057575757575,-0.17211166666666666,-9.146632363636364,0.02966678787878788,-0.012458545454545455,0.012702757575757576,0.725703,-0.109662,-1.123347,-0.01604,6453.060606060606,77.66666666666667,-178.66666666666666,-513.939393939394,0.4026197575757575
0 days 00:01:21.002564,-3.6945525454545454,0.22806087878787878,-0.418510303030303,0.5738951818181819,0.23309348484848483,-0.10205178787878788,-0.16341075757575757,-0.37924190909090905,0.18410672727272726,-0.005632151515151515,-0.031816333333333335,1.96969696969697e-06,10.0,-17.181818181818183,-5.909090909090909,0.13148727272727273,0.17589239393939393,0.0,-36.33184315151515,0.04822554545454545,1183.1818181818182,7731.484848484848,7164.242424242424,7775.818181818182,7544.969696969697,7740.787878787879,7124.424242424242,7785.151515151515,7561.424242424242,0.8054474545454545,-0.07193912121212122,-1.118510303030303,0.5738951818181819,0.23309348484848483,-0.10205178787878788,-0.005632151515151515,-0.031816333333333335,1.96969696969697e-06,0.19732096969696972,0.02099621212121212,0.31398181818181825,0.036778909090909084,-0.01696981818181818,0.010614939393939394,-0.03767163636363633,-0.25162757575757577,-9.315518484848484,-0.12338721212121212,0.006998666666666664,0.010424090909090909,0.7834242121212122,-0.08169496969696971,-1.144742393939394,0.00458060606060606,6428.878787878788,195.9090909090909,-240.1818181818182,-592.969696969697,0.418510303030303
0 days 00:01:21.067564,-3.6575331176470587,0.2429134705882353,-0.43040029411764724,0.5726675588235295,0.21797632352941176,-0.09063685294117647,-0.14927632352941178,-0.1607015,0.6108408235294118,-0.011885735294117647,-0.03221864705882353,-0.0006089117647058823,10.0,-19.0,-5.0,0.190996,0.178921,0.0,-36.539717499999995,0.407617,1245.0,7743.382352941177,7112.294117647059,7728.5,7535.441176470588,7737.294117647059,7138.176470588235,7712.588235294118,7530.558823529412,0.8424668823529412,-0.0570865294117647,-1.1304002941176472,0.5726675588235295,0.21797632352941176,-0.09063685294117647,-0.011885735294117647,-0.03221864705882353,-0.0006089117647058823,0.20008714705882352,0.024118,0.3141919411764706,0.03677844117647059,-0.01697223529411765,0.010618352941176471,-0.011000647058823532,0.02495973529411765,-8.886632470588236,0.006117911764705881,-0.04076438235294117,-0.00025850000000000027,0.81521,-0.06739526470588235,-1.1562527352941177,-0.009719617647058823,6396.0,208.2058823529412,-183.44117647058823,-551.3529411764706,0.43040029411764724
0 days 00:01:21.132564,-3.620512121212121,0.25706069696969697,-0.4394588181818182,0.5710982424242425,0.20821975757575759,-0.06158293939393939,-0.28743599999999997,-0.3043010909090909,0.16966563636363644,-0.009285484848484848,-0.033198727272727276,-0.0008855151515151516,10.0,-19.90909090909091,-4.090909090909091,0.13285275757575757,0.18168215151515152,0.0,-36.82515427272727,0.045943060606060605,1244.090909090909,7732.69696969697,7214.030303030303,7726.878787878788,7543.515151515152,7749.121212121212,7229.424242424242,7737.272727272727,7552.272727272727,0.8794878787878788,-0.04293930303030303,-1.1394588181818182,0.5710982424242425,0.20821975757575759,-0.06158293939393939,-0.009285484848484848,-0.033198727272727276,-0.0008855151515151516,0.202132,0.026443,0.314349,0.036778,-0.016974,0.010621,-0.18495500000000004,-0.136866696969697,-9.326023878787879,0.10173269696969697,-0.01891730303030303,0.017030636363636366,0.83888,-0.056796,-1.164812,-0.021518,6448.727272727273,167.1818181818182,-155.21212121212122,-497.3939393939394,0.4394588181818182
0 days 00:01:21.197564,-3.585315272727273,0.27026557575757576,-0.4524228181818182,0.5716218181818182,0.193229,-0.07974972727272726,-0.3560680606060606,-0.23422524242424242,-0.022318181818181765,-0.004262090909090909,-0.03235112121212121,-0.0007933939393939394,10.0,-21.0,-2.0,0.12483299999999999,0.182063,0.0,-37.11532636363636,-0.003943,1272.0,7723.181818181818,7204.69696969697,7802.212121212121,7551.181818181818,7742.212121212121,7196.454545454545,7791.333333333333,7539.393939393939,0.9146847272727272,-0.029734424242424243,-1.1524228181818181,0.5716218181818182,0.193229,-0.07974972727272726,-0.004262090909090909,-0.03235112121212121,-0.0007933939393939394,0.20671312121212124,0.031157696969696974,0.31467151515151515,0.03677624242424243,-0.016979272727272725,0.01062978787878788,-0.2184541212121212,-0.10126654545454547,-9.517282212121213,0.08013727272727272,-0.00588151515151515,0.012599151515151515,0.8900746666666667,-0.03624993939393939,-1.180923696969697,-0.024779181818181818,6449.212121212121,146.45454545454547,-195.72727272727272,-563.0,0.4524228181818182
0 days 00:01:21.262564,-3.5490056470588236,0.28264894117647055,-0.46056444117647044,0.5652608823529411,0.17929373529411766,-0.0738115294117647,-0.37765411764705875,-0.33923432352941174,0.32055970588235294,-0.0018265588235294118,-0.03199438235294118,-0.0011628235294117648,10.0,-20.5,-1.5,0.1302960588235294,0.1831434705882353,0.0,-37.34039167647059,0.08080335294117647,1287.5,7706.911764705882,7266.529411764706,7843.441176470588,7483.176470588235,7650.882352941177,7339.735294117647,7902.941176470588,7445.911764705882,0.9509943529411764,-0.017351058823529414,-1.1605644411764704,0.5652608823529411,0.17929373529411766,-0.0738115294117647,-0.0018265588235294118,-0.03199438235294118,-0.0011628235294117648,0.20866079411764704,0.032905970588235293,0.3147874411764706,0.03677558823529412,-0.01698226470588235,0.010634911764705882,-0.23207723529411764,-0.23273779411764706,-9.172908999999999,0.04202079411764706,-0.006814323529411764,0.007711941176470588,0.9085770882352942,-0.028941558823529414,-1.1863435588235294,-0.019847647058823532,6473.941176470588,-72.73529411764706,-178.91176470588235,-542.2941176470588,0.46056444117647044
0 days 00:01:21.327564,-3.5150893333333335,0.2945034242424242,-0.47219769696969704,0.5581114545454545,0.16575757575757574,-0.06250481818181819,-0.043952000000000005,-0.2804369696969697,-0.009102363636363645,-0.020812666666666667,-0.030925939393939395,-0.0007492727272727273,10.0,-20.90909090909091,-0.696969696969697,0.13677336363636364,0.1842499090909091,0.0,-37.539489333333336,0.1662912727272727,1314.5151515151515,7809.787878787879,7173.484848484848,7844.212121212121,7585.575757575758,7914.787878787879,7025.545454545455,7763.090909090909,7612.69696969697,0.9849106666666666,-0.005496575757575757,-1.172197696969697,0.5581114545454545,0.16575757575757574,-0.06250481818181819,-0.020812666666666667,-0.030925939393939395,-0.0007492727272727273,0.213736,0.037141,0.315063,0.036774,-0.016991,0.01065,0.12301739393939393,0.021099636363636372,-9.509055303030303,-0.42275542424242424,-0.0055559999999999915,0.012665727272727273,0.952707,-0.011683,-1.198677,0.000909,6465.727272727273,368.93939393939394,-217.3939393939394,-734.0,0.47219769696969704
0 days 00:01:21.392564,-3.480917696969697,0.3051731818181818,-0.48075012121212124,0.551221,0.1470759393939394,-0.04232821212121212,-0.43883487878787886,-0.3275945151515151,0.8759126363636364,-0.029851575757575757,-0.03166624242424242,-0.0027108787878787877,9.816875000000001,-23.393939393939394,0.3939393939393939,0.1217900909090909,0.18436990909090908,0.00829030303030303,-37.70599139393939,0.06903563636363637,1337.060606060606,7765.515151515152,7100.666666666667,7696.878787878788,7523.060606060606,7688.69696969697,7202.181818181818,7694.636363636364,7502.0,1.0190823030303031,0.005173181818181818,-1.1807501212121212,0.551221,0.1470759393939394,-0.04232821212121212,-0.029851575757575757,-0.03166624242424242,-0.0027108787878787877,0.21671472727272728,0.039978454545454546,0.31525227272727274,0.03677181818181818,-0.016996999999999998,0.010661454545454545,-0.2794152424242424,0.031841818181818186,-8.620827363636364,0.13478048484848484,-0.03347690909090909,-0.004823575757575757,0.9839326363636364,-0.0010160909090909094,-1.207305,-0.02128990909090909,6385.0,146.72727272727272,-152.63636363636363,-479.4848484848485,0.48075012121212124
0 days 00:01:21.457564,-3.447449606060606,0.3144820303030303,-0.48668642424242425,0.5356633636363637,0.12174860606060607,-0.01759218181818182,-0.4390599393939394,-0.5683843030303031,0.2354113333333333,-0.022693151515151517,-0.03038130303030303,-0.002394515151515152,3.938957333333333,-24.0,1.0,0.094023,0.185089,0.13679,-37.941491363636366,-0.055187,1331.0,7699.090909090909,7212.454545454545,7718.606060606061,7519.727272727273,7727.393939393939,7175.454545454545,7737.030303030303,7527.0,1.052550393939394,0.014482030303030302,-1.1866864242424242,0.5356633636363637,0.12174860606060607,-0.01759218181818182,-0.022693151515151517,-0.03038130303030303,-0.002394515151515152,0.219197,0.042343,0.31541,0.03677,-0.017002,0.010671,-0.27997748484848484,-0.25041430303030304,-9.268436303030304,0.12045748484848484,0.03582206060606061,0.026663151515151515,1.009954,0.007873,-1.214495,-0.039789,6413.0,170.6969696969697,-180.36363636363637,-537.939393939394,0.48668642424242425
0 days 00:01:21.522564,-3.4156860294117646,0.32280879411764707,-0.4956016470588236,0.5228907352941177,0.10372729411764706,-0.009931764705882352,-0.3056532058823529,-0.26467529411764706,0.33925141176470597,-0.015721205882352943,-0.02710441176470588,-0.0030378823529411767,3.9038469705882353,-24.88235294117647,1.8823529411764706,0.14080426470588236,0.1766551176470588,0.13679,-38.089341823529416,0.2788290294117647,1386.5882352941176,7676.14705882353,7206.323529411765,7789.85294117647,7480.911764705882,7687.823529411765,7195.941176470588,7771.058823529412,7497.5,1.0843139705882354,0.02280879411764706,-1.1956016470588235,0.5228907352941177,0.10372729411764706,-0.009931764705882352,-0.015721205882352943,-0.02710441176470588,-0.0030378823529411767,0.2249278823529412,0.04728064705882353,0.3157170588235294,0.03676558823529412,-0.017010823529411766,0.010692176470588234,-0.10581347058823538,-0.006261558823529419,-9.156508529411765,0.08126282352941176,0.04184141176470588,0.01309744117647059,1.0578269411764705,0.020972411764705882,-1.2243314705882353,-0.0070695882352941174,6407.882352941177,109.02941176470588,-192.08823529411765,-540.2941176470588,0.4956016470588236
0 days 00:01:21.587564,-3.382818303030303,0.32949260606060604,-0.49902993939393947,0.5122517575757576,0.08571163636363636,0.0004016060606060607,-0.5007486363636364,-0.4131275454545455,0.22540199999999996,-0.014435636363636364,-0.02395830303030303,-0.0031845454545454547,3.869075181818182,-25.696969696969695,2.696969696969697,0.13499466666666668,0.176271,0.13679,-38.10115212121212,0.16233,1406.5454545454545,7697.242424242424,7151.272727272727,7791.69696969697,7502.636363636364,7676.090909090909,7157.787878787879,7815.30303030303,7504.30303030303,1.117181696969697,0.02949260606060606,-1.1990299393939394,0.5122517575757576,0.08571163636363636,0.0004016060606060607,-0.014435636363636364,-0.02395830303030303,-0.0031845454545454547,0.226938,0.04904733333333333,0.31583330303030305,0.03676393939393939,-0.017014121212121213,0.010699666666666666,-0.2574869393939394,-0.15968281818181818,-9.277314181818182,0.07523966666666668,0.024584212121212118,0.00393578787878788,1.0756747272727274,0.025416545454545456,-1.2281161212121212,-0.009496151515151515,6408.333333333333,103.42424242424242,-242.42424242424244,-585.3636363636364,0.49902993939393947
0 days 00:01:21.652564,-3.3532486666666665,0.33572572727272726,-0.5061999696969699,0.4787420303030303,0.07060287878787878,0.014078848484848486,-0.7075642121212121,-0.3861514545454545,0.43265000000000003,-0.013165848484848485,-0.02524960606060606,-0.0038334848484848486,3.8350751818181816,-27.575757575757574,3.787878787878788,0.15637518181818183,0.1715772121212121,0.13679,-38.07137084848485,0.24041630303030306,1457.6969696969697,7722.939393939394,7206.818181818182,7710.848484848485,7413.939393939394,7684.212121212121,7208.272727272727,7720.30303030303,7388.242424242424,1.1467513333333332,0.03572572727272727,-1.2061999696969699,0.4787420303030303,0.07060287878787878,0.014078848484848486,-0.013165848484848485,-0.02524960606060606,-0.0038334848484848486,0.231566,0.053164,0.316113,0.03676,-0.017022,0.010717,-0.4843750909090909,-0.14840787878787878,-9.065873545454545,0.05628542424242425,-0.018103363636363633,0.0008064242424242422,1.118258,0.035436,-1.237302,-0.034713,6354.454545454545,71.78787878787878,-107.81818181818181,-570.3030303030303,0.5061999696969699
0 days 00:01:21.717564,-3.323639911764706,0.34051279411764707,-0.5097034117647059,0.46531717647058823,0.05219355882352941,0.0374665,-0.2272925588235294,-0.2656662352941176,0.34353588235294114,-0.015608588235294119,-0.021354676470588235,-0.0037243235294117643,3.8009395,-28.294117647058822,4.0,0.15662679411764707,0.16773473529411764,0.13679,-38.043712500000005,0.22827376470588237,1473.5294117647059,7643.5,7095.088235294118,7734.676470588235,7469.941176470588,7718.529411764706,7054.676470588235,7718.14705882353,7498.088235294118,1.176360088235294,0.04051279411764706,-1.2097034117647059,0.46531717647058823,0.05219355882352941,0.0374665,-0.015608588235294119,-0.021354676470588235,-0.0037243235294117643,0.2353654411764706,0.05635935294117647,0.31631082352941176,0.03675720588235294,-0.01702535294117647,0.01072705882352941,0.05066632352941175,0.004566882352941187,-9.154526735294118,-0.05413444117647059,0.0211684705882353,0.02817670588235294,1.1471307352941178,0.040197176470588236,-1.2410237647058824,-0.01802541176470588,6350.5,221.58823529411765,-221.02941176470588,-623.9117647058823,0.5097034117647059
0 days 00:01:21.782564,-3.294031303030303,0.3441635151515151,-0.5109743030303031,0.4685880303030303,0.038287575757575756,0.06266751515151515,-0.3877665454545455,-0.24458569696969695,0.3993587272727273,-0.012472727272727274,-0.020479757575757575,-0.004462060606060606,3.7670527575757577,-29.393939393939394,4.393939393939394,0.14580200000000001,0.16298172727272725,0.13679,-37.892058818181816,0.12670418181818183,1509.1818181818182,7687.969696969697,7091.969696969697,7801.848484848485,7476.181818181818,7625.060606060606,7177.181818181818,7827.939393939394,7460.818181818182,1.205968696969697,0.04416351515151515,-1.210974303030303,0.4685880303030303,0.038287575757575756,0.06266751515151515,-0.012472727272727274,-0.020479757575757575,-0.004462060606060606,0.2385739696969697,0.05905039393939393,0.3164778181818182,0.03675484848484849,-0.017028121212121217,0.010735454545454545,-0.10685960606060604,-0.014293242424242418,-9.103249303030303,0.19321145454545455,-0.010416545454545451,-0.004468515151515152,1.1713065151515152,0.044115545454545456,-1.2441323333333334,-0.005200757575757576,6386.181818181818,40.333333333333336,-242.8181818181818,-575.2727272727273,0.5109743030303031
0 days 00:01:21.847564,-3.266222212121212,0.3475759393939394,-0.516241818181818,0.44242418181818177,0.02944633333333333,0.057325,-0.5123086666666666,-0.18651793939393937,-0.11531330303030295,-0.008763666666666666,-0.021805181818181817,-0.004607727272727273,3.7340065454545455,-30.181818181818183,5.181818181818182,0.1656479696969697,0.16382778787878788,0.13679,-37.759182242424245,0.23258830303030303,1553.0,7673.969696969697,7206.848484848485,7750.060606060606,7429.636363636364,7705.727272727273,7162.636363636364,7751.363636363636,7455.333333333333,1.233777787878788,0.04757593939393939,-1.216241818181818,0.44242418181818177,0.02944633333333333,0.057325,-0.008763666666666666,-0.021805181818181817,-0.004607727272727273,0.24526099999999998,0.064439,0.316824,0.03675,-0.017032,0.01075,-0.23993836363636367,0.023111999999999997,-9.607599424242425,-0.017696484848484847,-0.0049346060606060655,0.02035248484848485,1.215515,0.049221,-1.249583,-0.016393,6380.575757575758,123.27272727272727,-168.8181818181818,-592.3939393939394,0.516241818181818
0 days 00:01:21.912564,-3.2382663636363636,0.34949790909090905,-0.5156506060606061,0.43174863636363636,0.0168390303030303,0.05949430303030303,-0.32963739393939395,-0.39433084848484845,0.3011732424242424,-0.011917363636363636,-0.021454181818181817,-0.004824181818181819,3.701208606060606,-31.0,6.0,0.143035,0.156093,0.13679,-37.61230018181818,0.051906,1562.0,7611.727272727273,7186.484848484848,7783.0,7435.181818181818,7649.424242424242,7166.515151515152,7746.30303030303,7474.242424242424,1.2617336363636364,0.04949790909090909,-1.215650606060606,0.43174863636363636,0.0168390303030303,0.05949430303030303,-0.011917363636363636,-0.021454181818181817,-0.004824181818181819,0.247578,0.066312,0.3169426666666667,0.036748666666666666,-0.017032666666666665,0.010752,-0.035688969696969705,-0.14914772727272727,-9.198952393939393,-0.08103981818181817,-0.031745636363636365,0.019545969696969697,1.2320656666666667,0.05037833333333333,-1.2505083333333333,-0.018103,6367.0,105.21212121212122,-201.96969696969697,-532.969696969697,0.5156506060606061
0 days 00:01:21.977564,-3.2107782058823533,0.3508890882352941,-0.5181477352941177,0.4201224411764706,0.0037700294117647064,0.05975205882352941,-0.505213794117647,-0.21904182352941176,-0.013020999999999994,-0.013494088235294119,-0.022091558823529412,-0.004837970588235294,3.6682504705882355,-31.0,5.029411764705882,0.14613523529411762,0.15326288235294117,0.13679,-37.46990023529412,0.15137423529411767,1595.0,7738.176470588235,7064.64705882353,7732.323529411765,7575.882352941177,7721.294117647059,7139.823529411765,7760.970588235294,7542.5,1.289221794117647,0.050889088235294117,-1.2181477352941177,0.4201224411764706,0.0037700294117647064,0.05975205882352941,-0.013494088235294119,-0.022091558823529412,-0.004837970588235294,0.252212,0.070058,0.31718,0.036746,-0.017034,0.010756,-0.22796985294117647,0.05040785294117647,-9.506089235294118,0.2410313529411765,-0.0303955,-0.008997323529411764,1.265167,0.052693,-1.252359,-0.021523,6412.176470588235,181.3235294117647,-220.85294117647058,-564.5882352941177,0.5181477352941177
0 days 00:01:22.042564,-3.1838649696969696,0.35165545454545455,-0.5206268484848486,0.4032022424242424,-0.005150484848484849,0.042699242424242424,-0.44608709090909093,-0.17593448484848484,-0.011369636363636368,0.004532151515151515,-0.024324242424242422,-0.005086454545454546,3.6355543636363636,-31.78787878787879,5.787878787878788,0.14447748484848486,0.14886554545454547,0.13679,-37.44954533333333,0.14251448484848483,1625.939393939394,7564.424242424242,7339.606060606061,7808.666666666667,7400.030303030303,7563.969696969697,7288.272727272727,7818.69696969697,7405.151515151515,1.3161350303030304,0.051655454545454546,-1.2206268484848486,0.4032022424242424,-0.005150484848484849,0.042699242424242424,0.004532151515151515,-0.024324242424242422,-0.005086454545454546,0.25625512121212124,0.07346618181818182,0.31739884848484845,0.03674321212121212,-0.01703330303030303,0.010760181818181818,-0.18489590909090906,-0.07842090909090908,-9.506007363636364,0.15555448484848486,-0.01102330303030303,0.031730939393939395,1.2973997575757574,0.05406184848484848,-1.2515986060606061,-0.01110609090909091,6380.909090909091,-68.78787878787878,-185.54545454545453,-486.42424242424244,0.5206268484848486
0 days 00:01:22.107564,-3.158223303030303,0.351652696969697,-0.5206541515151517,0.38642706060606064,-0.008429424242424242,0.055207787878787884,-0.5435829999999999,-0.1415077878787879,0.5332007575757576,-0.0007759393939393939,-0.023620272727272726,-0.004431787878787879,3.6036353939393937,-32.0,6.575757575757576,0.14149045454545456,0.14560972727272728,0.13679,-37.38878178787879,0.1304850909090909,1650.121212121212,7661.181818181818,7145.121212121212,7819.666666666667,7434.787878787879,7713.030303030303,7191.484848484848,7802.636363636364,7401.121212121212,1.341776696969697,0.05165269696969697,-1.2206541515151517,0.38642706060606064,-0.008429424242424242,0.055207787878787884,-0.0007759393939393939,-0.023620272727272726,-0.004431787878787879,0.25814706060606063,0.07507263636363636,0.31750187878787883,0.03674190909090909,-0.017032878787878788,0.010762,-0.270448606060606,0.004646060606060596,-8.962091636363636,-0.11653651515151515,-0.05201675757575757,0.0008286969696969694,1.3128368484848485,0.05460687878787878,-1.251174878787879,-0.00680939393939394,6392.363636363636,60.06060606060606,-149.42424242424244,-651.5757575757576,0.5206541515151517
0 days 00:01:22.172564,-3.1320406176470588,0.35137038235294116,-0.5231387058823531,0.3771096176470588,-0.0181265,0.07279485294117648,-0.335093205882353,-0.2451968529411765,0.3287043235294118,-0.011459882352941176,-0.024070470588235294,-0.004828205882352941,3.5715381470588237,-32.0,7.0,0.139495,0.144022,0.13679,-37.32166676470588,0.124481,1668.5,7681.529411764706,7164.205882352941,7830.411764705882,7488.176470588235,7665.117647058823,7123.205882352941,7847.558823529412,7525.058823529412,1.3679593823529412,0.051370382352941175,-1.223138705882353,0.3771096176470588,-0.0181265,0.07279485294117648,-0.011459882352941176,-0.024070470588235294,-0.004828205882352941,0.262437,0.079061,0.317754,0.036739,-0.017029,0.010762,-0.03440941176470589,0.014562205882352925,-9.167940000000002,-0.14081173529411764,0.011646941176470586,0.012522882352941175,1.358368,0.053003,-1.248195,-0.014246,6411.0,109.58823529411765,-291.7352941176471,-609.9411764705883,0.5231387058823531
0 days 00:01:22.237564,-3.107042121212121,0.3501104242424242,-0.5204528787878788,0.37606436363636364,-0.03207527272727273,0.08413751515151514,-0.17434151515151514,-0.3704900909090909,0.04370012121212121,-0.017995818181818182,-0.02641390909090909,-0.005188727272727273,3.539720939393939,-32.0,7.0,0.13471515151515154,0.14417063636363636,0.13679,-37.211421575757576,0.10985478787878787,1680.4545454545455,7669.848484848485,7226.939393939394,7806.757575757576,7450.545454545455,7665.242424242424,7212.848484848485,7794.787878787879,7486.848484848485,1.392957878787879,0.05011042424242425,-1.2204528787878788,0.37606436363636364,-0.03207527272727273,0.08413751515151514,-0.017995818181818182,-0.02641390909090909,-0.005188727272727273,0.26398463636363634,0.08045772727272728,0.3178467272727273,0.03673790909090909,-0.017027545454545455,0.010762363636363638,0.10884233333333335,-0.039328878787878795,-9.456025060606061,-0.029252545454545455,-0.049538363636363644,0.007516545454545455,1.3735207272727272,0.052734636363636365,-1.2477226363636365,-0.023502727272727272,6410.545454545455,72.06060606060606,-201.45454545454547,-536.7272727272727,0.5204528787878788
0 days 00:01:22.302564,-3.0819570606060607,0.3481504545454545,-0.5195696060606061,0.37561833333333333,-0.046012424242424244,0.08263375757575757,-0.39402281818181817,-0.2535660909090909,0.028238575757575754,-0.015988727272727273,-0.028502727272727273,-0.005449272727272727,3.508633696969697,-31.727272727272727,7.0,0.12624787878787877,0.14466651515151513,0.13679,-37.20964706060606,0.12821878787878788,1715.909090909091,7609.606060606061,7223.848484848485,7792.515151515152,7516.818181818182,7643.666666666667,7291.666666666667,7762.818181818182,7493.787878787879,1.4180429393939393,0.048150454545454545,-1.219569606060606,0.37561833333333333,-0.046012424242424244,0.08263375757575757,-0.015988727272727273,-0.028502727272727273,-0.005449272727272727,0.266693,0.082902,0.318009,0.036736,-0.017025,0.010763,-0.15891333333333332,0.05489457575757575,-9.465820242424243,0.14680242424242423,-0.07474393939393939,0.011474636363636364,1.400038,0.052265,-1.246896,-0.039702,6421.818181818182,41.42424242424242,-160.33333333333334,-438.3333333333333,0.5195696060606061
0 days 00:01:22.367564,-3.057385484848485,0.34536251515151517,-0.5189901818181817,0.3701633333333333,-0.05732857575757576,0.061062787878787876,-0.27164296969696966,-0.28122175757575757,-0.4754122121212122,-0.0076932424242424245,-0.027569909090909093,-0.005192606060606061,3.4778454848484848,-31.060606060606062,7.0,0.18231754545454543,0.1436192424242424,0.13679,-37.317389666666664,0.42880454545454544,1793.3030303030303,7646.515151515152,7339.69696969697,7797.30303030303,7499.484848484848,7613.69696969697,7328.484848484848,7831.484848484848,7531.393939393939,1.442614515151515,0.045362515151515154,-1.2189901818181816,0.3701633333333333,-0.05732857575757576,0.061062787878787876,-0.0076932424242424245,-0.027569909090909093,-0.005192606060606061,0.26962233333333335,0.085378,0.3181596666666667,0.036733999999999996,-0.017023666666666666,0.010763,-0.004468454545454539,-0.038559363636363635,-9.968572484848485,0.1681980909090909,0.07993757575757576,0.008863121212121211,1.4274086666666668,0.049262999999999994,-1.243242,-0.014992,6461.757575757576,-7.515151515151516,-210.06060606060606,-413.1818181818182,0.5189901818181817
0 days 00:01:22.432564,-3.032747176470588,0.34160464705882354,-0.5175391470588238,0.37385464705882354,-0.06508320588235295,0.05876838235294118,-0.19747261764705887,-0.1892754117647059,0.3057743529411765,-0.0008301176470588235,-0.023283735294117647,-0.004964735294117647,3.446867411764706,-32.0,7.0,0.146559,0.143755,0.13679,-37.22186138235294,0.02047,1798.0,7530.529411764706,7296.764705882353,7776.441176470588,7496.029411764706,7529.14705882353,7277.882352941177,7746.558823529412,7457.470588235294,1.4672528235294118,0.04160464705882353,-1.2175391470588237,0.37385464705882354,-0.06508320588235295,0.05876838235294118,-0.0008301176470588235,-0.023283735294117647,-0.004964735294117647,0.27118226470588236,0.08669461764705882,0.3182402352941176,0.036732941176470586,-0.017022882352941176,0.010763,0.11632582352941172,-0.022604617647058817,-9.189050970588236,0.09015247058823529,-0.01011032352941177,0.01866958823529412,1.442321823529412,0.047576529411764705,-1.241272882352941,-0.0029146764705882356,6358.0,-18.823529411764707,-198.2058823529412,-381.4117647058824,0.5175391470588238
