time,pos_x,pos_y,pos_z,vel_x,vel_y,vel_z,acc_x,acc_y,acc_z,att_phi,att_theta,att_psi,distance_est,centroid_x,centroid_y,divergence,true_divergence,divergence_sp,pitch_sum,raw_divergence,color_count,rpm_obs_1,rpm_obs_2,rpm_obs_3,rpm_obs_4,rpm_ref_1,rpm_ref_2,rpm_ref_3,rpm_ref_4,ekf_X1,ekf_X2,ekf_X3,ekf_X4,ekf_X5,ekf_X6,ekf_X7,ekf_X8,ekf_X9,ekf_X10,ekf_X11,ekf_X12,ekf_X13,ekf_X14,ekf_X15,ekf_U1,ekf_U2,ekf_U3,ekf_U4,ekf_U5,ekf_U6,ekf_Z1,ekf_Z2,ekf_Z3,ekf_Z4,cmd_thrust,cmd_roll,cmd_pitch,cmd_yaw,pos_z_inverted
0 days 00:02:01.684583,-4.374545818181819,-1.6057313333333334,-0.47265539393939404,-0.14532066666666665,-0.015003333333333334,0.024569454545454544,0.06644693939393934,0.2668322727272727,0.528932303030303,0.013105515151515151,-0.049859939393939394,0.02866827272727273,0.316358,-6.454545454545454,-60.0,0.309482,0.224726,0.322128,-24.328835,0.309482,675.1818181818181,7823.060606060606,7584.939393939394,7620.181818181818,7271.30303030303,7834.151515151515,7594.757575757576,7651.575757575758,7231.424242424242,-0.3745458181818182,-0.6057313333333333,-1.172655393939394,-0.14532066666666665,-0.015003333333333334,0.024569454545454544,0.013105515151515151,-0.049859939393939394,0.02866827272727273,0.0618109696969697,-0.010409181818181817,0.36388357575757574,0.036893,-0.015687969696969697,0.011063545454545454,-0.4125531818181818,0.14589242424242424,-8.909475515151515,0.031109484848484848,-0.04214015151515151,0.004794121212121213,-0.3641432424242424,-0.6060503333333334,-1.164706424242424,0.04362118181818182,6464.181818181818,-90.24242424242425,272.4848484848485,-465.6060606060606,0.47265539393939404
0 days 00:02:01.749583,-4.3828173823529415,-1.6064774411764704,-0.46892864705882364,-0.13303017647058824,0.0028935,0.04290920588235294,0.26773264705882355,0.22138541176470586,0.08465032352941178,0.011262000000000001,-0.05199297058823529,0.02755808823529412,0.316358,-7.529411764705882,-60.0,0.309482,0.224726,0.322128,-24.328835,0.309482,672.4705882352941,7838.235294117647,7628.176470588235,7603.470588235294,7288.85294117647,7829.058823529412,7625.558823529412,7597.823529411765,7302.588235294118,-0.38281738235294116,-0.6064774411764705,-1.1689286470588236,-0.13303017647058824,0.0028935,0.04290920588235294,0.011262000000000001,-0.05199297058823529,0.02755808823529412,0.06185800000000001,-0.010223,0.36387,0.036893,-0.015687,0.011065,-0.2744141176470589,0.12356382352941175,-9.364028029411765,-0.009420970588235295,-0.03617588235294118,0.009837411764705883,-0.369863,-0.607869,-1.162496,0.041147,6479.441176470588,-45.76470588235294,276.5,-351.97058823529414,0.46892864705882364
0 days 00:02:01.814583,-4.3876938787878785,-1.6070797575757576,-0.46370957575757576,-0.11955233333333333,0.010510636363636364,0.05399863636363636,0.30957542424242424,0.040365303030303015,0.25722999999999996,0.010046,-0.05205654545454546,0.02709539393939394,0.316358,-9.0,-60.0,0.309482,0.224726,0.322128,-24.328835,0.309482,671.0,7800.030303030303,7634.545454545455,7654.060606060606,7311.515151515152,7841.939393939394,7610.909090909091,7606.727272727273,7325.606060606061,-0.3876938787878788,-0.6070797575757576,-1.1637095757575757,-0.11955233333333333,0.010510636363636364,0.05399863636363636,0.010046,-0.05205654545454546,0.02709539393939394,0.06180351515151515,-0.009897969696969697,0.36384839393939394,0.036893939393939396,-0.015683242424242422,0.011067818181818182,-0.2368015757575758,-0.03678384848484849,-9.194010424242423,-0.03539300000000001,-0.037139000000000005,0.009218181818181818,-0.3762320909090909,-0.6098915151515152,-1.1574683636363636,0.038165363636363636,6490.030303030303,-24.96969696969697,259.75757575757575,-361.45454545454544,0.46370957575757576
0 days 00:02:01.879583,-4.3929157878787874,-1.6067879393939393,-0.45888036363636364,-0.10042809090909091,0.016990666666666664,0.06908760606060606,0.3899812424242425,0.07989621212121213,0.1342050303030303,0.010319424242424241,-0.05215581818181818,0.026834757575757574,0.316358,-8.242424242424242,-60.0,0.309482,0.224726,0.322128,-24.328835,0.309482,664.939393939394,7743.909090909091,7688.575757575758,7667.454545454545,7328.757575757576,7726.363636363636,7676.151515151515,7664.121212121212,7351.393939393939,-0.39291578787878784,-0.6067879393939394,-1.1588803636363636,-0.10042809090909091,0.016990666666666664,0.06908760606060606,0.010319424242424241,-0.05215581818181818,0.026834757575757574,0.061700333333333336,-0.009754666666666667,0.3638416666666666,0.036894666666666666,-0.015681,0.011068666666666666,-0.15826227272727275,-0.003255181818181831,-9.321555393939395,0.038011939393939397,0.010276121212121217,0.02369639393939394,-0.377222,-0.6104613333333333,-1.1548103333333333,0.038783,6501.666666666667,-130.96969696969697,193.21212121212122,-256.2121212121212,0.45888036363636364
0 days 00:02:01.944583,-4.3945758235294115,-1.6065542352941176,-0.4523264117647059,-0.05847461764705882,0.023846235294117647,0.08854908823529412,0.6219001176470589,0.10789699999999999,0.20386835294117647,0.007436852941176471,-0.05336794117647059,0.027238205882352942,0.316358,-8.0,-60.0,0.309482,0.224726,0.322128,-24.328835,0.309482,660.2058823529412,7848.558823529412,7647.029411764706,7635.823529411765,7339.0,7799.441176470588,7688.911764705882,7654.294117647059,7318.382352941177,-0.3945758235294118,-0.6065542352941177,-1.1523264117647058,-0.05847461764705882,0.023846235294117647,0.08854908823529412,0.007436852941176471,-0.05336794117647059,0.027238205882352942,0.061501,-0.00951,0.363831,0.036896,-0.015677,0.01107,0.09848920588235292,0.043744323529411766,-9.263470794117648,0.05758126470588235,-0.004416000000000001,-0.00023688235294117623,-0.37838,-0.61134,-1.150143,0.040403,6516.823529411765,-112.47058823529412,257.44117647058823,-315.0882352941176,0.4523264117647059
0 days 00:02:02.009583,-4.391414636363637,-1.606270303030303,-0.44552724242424246,-0.006094424242424243,0.019765363636363636,0.08028436363636364,0.9413256666666666,-0.16311536363636361,-0.4322934242424243,0.005588242424242424,-0.0515639393939394,0.02776251515151515,0.316358,-8.0,-60.0,0.309482,0.224726,0.322128,-24.328835,0.309482,658.3636363636364,7847.848484848485,7653.818181818182,7584.787878787879,7375.515151515152,7872.090909090909,7644.30303030303,7616.848484848485,7317.424242424242,-0.3914146363636364,-0.606270303030303,-1.1455272424242424,-0.006094424242424243,0.019765363636363636,0.08028436363636364,0.005588242424242424,-0.0515639393939394,0.02776251515151515,0.06109681818181819,-0.009225272727272726,0.3638260909090909,0.03689763636363636,-0.015670454545454543,0.011071636363636365,0.43205493939393935,-0.22662166666666667,-9.913914545454546,0.029000939393939395,0.02215766666666667,0.016756939393939393,-0.3753453636363636,-0.6106461818181819,-1.1442774545454546,0.03876581818181818,6513.212121212121,-35.72727272727273,290.6363636363636,-372.2121212121212,0.44552724242424246
0 days 00:02:02.074583,-4.388356606060606,-1.6057487878787877,-0.44016693939393936,0.011130121212121213,0.012970030303030303,0.08671969696969696,-0.15719754545454534,0.014663090909090903,0.38116042424242425,0.006619515151515151,-0.04628915151515151,0.026549757575757574,0.316358,-8.0,-60.0,0.309482,0.224726,0.322128,-24.328835,0.309482,659.0,7790.363636363636,7626.333333333333,7686.484848484848,7366.212121212121,7774.727272727273,7559.363636363636,7686.181818181818,7439.363636363636,-0.38835660606060607,-0.6057487878787878,-1.1401669393939393,0.011130121212121213,0.012970030303030303,0.08671969696969696,0.006619515151515151,-0.04628915151515151,0.026549757575757574,0.06090645454545455,-0.009121090909090909,0.36382536363636364,0.03689818181818182,-0.015667545454545455,0.011072181818181818,-0.5329959999999999,-0.04977515151515152,-9.04637190909091,0.0031959696969696997,0.10941942424242423,-0.0022859393939393935,-0.3732873636363636,-0.6102378181818182,-1.141726,0.035920181818181816,6516.333333333333,-15.848484848484848,104.06060606060606,-326.27272727272725,0.44016693939393936
0 days 00:02:02.139583,-4.381924363636363,-1.6058052727272727,-0.4333710000000002,0.01775539393939394,0.01742342424242424,0.10579221212121212,0.009943303030303033,0.10996418181818182,0.3414886363636363,0.007119151515151515,-0.043927272727272725,0.02582709090909091,0.316358,-8.848484848484848,-60.0,0.309482,0.224726,0.322128,-24.328835,0.309482,652.2121212121212,7774.848484848485,7648.515151515152,7656.363636363636,7399.363636363636,7815.090909090909,7684.69696969697,7632.757575757576,7371.727272727273,-0.3819243636363637,-0.6058052727272727,-1.1333710000000001,0.01775539393939394,0.01742342424242424,0.10579221212121212,0.007119151515151515,-0.043927272727272725,0.02582709090909091,0.060454,-0.008937,0.363827,0.036899,-0.015661,0.011073,-0.34309884848484856,0.043353393939393935,-9.097804212121211,0.049908242424242424,-0.043397878787878784,0.011297030303030304,-0.367061,-0.609094,-1.13611,0.024752,6532.090909090909,-65.27272727272727,247.3030303030303,-276.3636363636364,0.4333710000000002
0 days 00:02:02.204583,-4.375839882352941,-1.6046037352941176,-0.426620705882353,0.05462235294117647,0.025941558823529415,0.09827126470588235,0.491507794117647,0.12373261764705881,-0.36513782352941176,0.008100941176470589,-0.04374008823529412,0.02593014705882353,0.316358,-10.294117647058824,-60.0,0.309482,0.224726,0.322128,-24.328835,0.309482,659.4117647058823,7769.5,7678.441176470588,7664.0,7410.882352941177,7765.323529411765,7697.882352941177,7632.470588235294,7406.323529411765,-0.3758398823529412,-0.6046037352941176,-1.126620705882353,0.05462235294117647,0.025941558823529415,0.09827126470588235,0.008100941176470589,-0.04374008823529412,0.02593014705882353,0.06014588235294118,-0.008854941176470588,0.3638338823529412,0.03689952941176471,-0.015656764705882353,0.011073,0.11348232352941175,0.032082941176470585,-9.824362382352941,0.03216914705882353,-0.0020895294117647075,0.019516882352941176,-0.36097805882352946,-0.6073607058823529,-1.1321251176470586,0.026399,6531.294117647059,-79.08823529411765,211.8235294117647,-207.3235294117647,0.426620705882353
0 days 00:02:02.269583,-4.367589393939394,-1.6028925454545455,-0.4207677878787879,0.08640951515151515,0.032409909090909086,0.09408033333333334,0.9578918484848484,0.12832430303030304,-0.2303893939393939,0.006717939393939394,-0.04180484848484848,0.026822757575757576,0.316358,-10.545454545454545,-59.54545454545455,0.309482,0.224726,0.322128,-24.328835,0.309482,663.5454545454545,7863.272727272727,7685.848484848485,7591.0,7361.939393939394,7748.575757575758,7638.636363636364,7730.848484848485,7382.0,-0.36758939393939394,-0.6028925454545455,-1.1207677878787878,0.08640951515151515,0.032409909090909086,0.09408033333333334,0.006717939393939394,-0.04180484848484848,0.026822757575757576,0.059872,-0.008782,0.36384,0.0369,-0.015653,0.011073,0.6224254242424242,0.036251151515151514,-9.70596584848485,0.0837549696969697,0.13427730303030302,0.003277333333333333,-0.355571,-0.60582,-1.128583,0.027863,6530.575757575758,-119.39393939393939,136.96969696969697,-323.90909090909093,0.4207677878787879
0 days 00:02:02.334583,-4.353085121212121,-1.6009186060606062,-0.4158409393939395,0.14760854545454546,0.03451751515151515,0.08858627272727274,0.025119212121212115,-0.028850424242424236,0.280185606060606,0.004111818181818182,-0.03495912121212121,0.026396636363636365,0.316358,-10.0,-59.0,0.309482,0.224726,0.322128,-24.328835,0.309482,663.0,7843.333333333333,7595.333333333333,7649.242424242424,7430.242424242424,7915.333333333333,7637.333333333333,7564.848484848485,7371.484848484848,-0.3530851212121212,-0.6009186060606061,-1.1158409393939395,0.14760854545454546,0.03451751515151515,0.08858627272727274,0.004111818181818182,-0.03495912121212121,0.026396636363636365,0.059386,-0.008697,0.363858,0.0369,-0.015645,0.011074,-0.18948278787878786,-0.08907439393939393,-9.163352303030303,-0.041762848484848486,0.018517636363636368,-0.0007323939393939397,-0.342087,-0.602428,-1.121862,0.02081,6526.606060606061,42.303030303030305,307.6666666666667,-332.6666666666667,0.4158409393939395
0 days 00:02:02.399583,-4.341314393939394,-1.598497696969697,-0.4105142121212122,0.1711781212121212,0.03773933333333333,0.08493778787878788,0.23784399999999997,0.00291584848484848,-0.05981887878787878,0.003366030303030303,-0.027833818181818182,0.02564060606060606,0.316358,-10.090909090909092,-59.93939393939394,0.309482,0.224726,0.322128,-24.328835,0.309482,672.6363636363636,7701.121212121212,7654.787878787879,7646.272727272727,7485.878787878788,7727.515151515152,7618.606060606061,7600.939393939394,7536.848484848485,-0.34131439393939395,-0.5984976969696969,-1.1105142121212122,0.1711781212121212,0.03773933333333333,0.08493778787878788,0.003366030303030303,-0.027833818181818182,0.02564060606060606,0.059259090909090914,-0.008683545454545454,0.3638649090909091,0.0369,-0.01564318181818182,0.011074,0.11828254545454542,-0.06048766666666666,-9.510475848484848,-0.03672466666666666,0.11317036363636364,0.03591830303030303,-0.33625972727272724,-0.6006316363636364,-1.1194129090909088,0.016464545454545454,6524.939393939394,22.424242424242426,103.87878787878788,-122.0,0.4105142121212122
0 days 00:02:02.464583,-4.326221647058824,-1.595956705882353,-0.4058457647058824,0.19278723529411765,0.035665764705882355,0.08434261764705883,-0.03833605882352944,-0.027759617647058824,0.04847602941176471,0.0028259117647058823,-0.021162117647058824,0.026444941176470588,0.316358,-13.0,-60.0,0.309482,0.224726,0.322128,-24.328835,0.309482,681.0,7760.823529411765,7610.794117647059,7659.35294117647,7440.176470588235,7720.794117647059,7624.470588235294,7690.0,7453.764705882353,-0.3262216470588235,-0.5959567058823529,-1.1058457647058824,0.19278723529411765,0.035665764705882355,0.08434261764705883,0.0028259117647058823,-0.021162117647058824,0.026444941176470588,0.05903699999999999,-0.00866,0.363877,0.0369,-0.01564,0.011074,-0.07910158823529413,-0.0833524411764706,-9.396541794117647,0.0630744411764706,0.08395567647058824,0.007187794117647059,-0.326062,-0.597488,-1.115127,0.00886,6526.705882352941,-69.91176470588235,100.70588235294117,-234.7058823529412,0.4058457647058824
0 days 00:02:02.529583,-4.311182848484848,-1.5927321515151516,-0.4019129696969699,0.21147263636363636,0.04241684848484849,0.07139857575757576,0.1738090606060606,0.11243348484848484,-0.19096415151515153,0.0018237575757575758,-0.016694757575757575,0.026668303030303032,0.316358,-14.696969696969697,-60.0,0.309482,0.224726,0.322128,-24.328835,0.309482,681.0,7804.848484848485,7569.242424242424,7648.333333333333,7441.121212121212,7839.575757575758,7616.363636363636,7653.909090909091,7361.545454545455,-0.31118284848484845,-0.5927321515151516,-1.1019129696969698,0.21147263636363636,0.04241684848484849,0.07139857575757576,0.0018237575757575758,-0.016694757575757575,0.026668303030303032,0.058874939393939396,-0.008676969696969697,0.36389396969696974,0.03689915151515152,-0.01563830303030303,0.011075696969696971,0.1483191212121212,0.07552081818181818,-9.639559787878788,0.05702533333333334,0.00392836363636364,-0.005555969696969697,-0.3126228484848485,-0.5924853333333334,-1.109866393939394,0.0012041212121212121,6520.454545454545,-34.63636363636363,219.84848484848484,-363.93939393939394,0.4019129696969699
0 days 00:02:02.594583,-4.29720693939394,-1.5894891818181818,-0.3979973333333333,0.21586642424242425,0.04635393939393939,0.06736148484848485,0.07718348484848486,0.08688215151515151,-0.21757854545454547,0.0012151818181818182,-0.012243515151515151,0.025504393939393938,0.316358,-15.333333333333334,-60.0,0.309482,0.224726,0.322128,-24.328835,0.309482,684.0,7790.848484848485,7590.545454545455,7635.818181818182,7482.787878787879,7671.909090909091,7571.242424242424,7706.787878787879,7518.545454545455,-0.2972069393939394,-0.5894891818181819,-1.0979973333333333,0.21586642424242425,0.04635393939393939,0.06736148484848485,0.0012151818181818182,-0.012243515151515151,0.025504393939393938,0.058799333333333335,-0.008691212121212122,0.36390154545454545,0.03689869696969697,-0.015638,0.011076606060606061,0.10455133333333333,0.05066281818181817,-9.667465696969696,0.082845,0.15861003030303028,0.0032773939393939393,-0.30549087878787884,-0.5898529090909091,-1.1069921515151515,-0.0013433030303030304,6519.484848484848,-43.72727272727273,8.818181818181818,-204.0,0.3979973333333333
0 days 00:02:02.659583,-4.283347393939394,-1.5854944545454546,-0.39481696969696967,0.20229766666666668,0.05415751515151515,0.06022121212121212,-0.705341696969697,0.20397760606060605,0.08371933333333334,-0.00022836363636363636,-0.008977909090909092,0.02635460606060606,0.316358,-16.12121212121212,-60.0,0.309482,0.224726,0.322128,-24.328835,0.309482,689.8787878787879,7816.272727272727,7646.363636363636,7552.484848484848,7488.363636363636,7848.454545454545,7606.818181818182,7537.393939393939,7464.666666666667,-0.28334739393939395,-0.5854944545454546,-1.0948169696969696,0.20229766666666668,0.05415751515151515,0.06022121212121212,-0.00022836363636363636,-0.008977909090909092,0.02635460606060606,0.058692,-0.008717,0.363912,0.036898,-0.015638,0.011078,-0.6575816666666667,0.19939627272727273,-9.361239333333334,-0.03747918181818182,-0.02271260606060606,0.038589121212121213,-0.294607,-0.585853,-1.102542,-0.004058,6515.575757575758,84.27272727272727,226.21212121212122,-221.87878787878788,0.39481696969696967
0 days 00:02:02.724583,-4.27216003125,-1.58119965625,-0.39180193750000014,0.1891759375,0.063145875,0.056821250000000004,0.04270340625000002,0.028735187500000002,0.02542096875,-0.00027503125,-0.00622103125,0.02674921875,0.316358,-17.0,-60.0,0.309482,0.224726,0.322128,-24.328835,0.309482,689.0,7690.96875,7627.96875,7685.3125,7488.09375,7770.25,7573.09375,7584.15625,7530.28125,-0.27216003125,-0.58119965625,-1.0918019375,0.1891759375,0.063145875,0.056821250000000004,-0.00027503125,-0.00622103125,0.02674921875,0.05860575,-0.008752625,0.3639195,0.036897374999999996,-0.015639874999999998,0.011079249999999999,0.13311771874999995,0.01037596875000001,-9.42132571875,-0.08253474999999999,-0.029663093749999998,0.0402755625,-0.284752,-0.58192175,-1.09869825,-0.005958625,6515.75,71.5625,114.25,-177.21875,0.39180193750000014
0 days 00:02:02.789583,-4.261112882352942,-1.5766833235294118,-0.38874847058823536,0.19220567647058823,0.06279038235294117,0.05451335294117647,-0.04543364705882354,-0.04175852941176471,0.014543382352941163,-0.0024198235294117646,-0.00694314705882353,0.02697805882352941,0.316358,-17.0,-59.11764705882353,0.309482,0.224726,0.322128,-24.328835,0.309482,696.9411764705883,7767.823529411765,7562.323529411765,7683.970588235294,7435.823529411765,7738.235294117647,7604.029411764706,7688.64705882353,7427.617647058823,-0.26111288235294117,-0.5766833235294118,-1.0887484705882353,0.19220567647058823,0.06279038235294117,0.05451335294117647,-0.0024198235294117646,-0.00694314705882353,0.02697805882352941,0.05853870588235294,-0.008774588235294117,0.36392532352941176,0.03689685294117647,-0.015641441176470587,0.011080441176470588,0.0344094705882353,-0.04311235294117647,-9.43201394117647,0.06562355882352941,-0.038646,-0.005679735294117646,-0.2768566470588235,-0.5785910882352941,-1.0955649411764707,-0.007124735294117647,6515.911764705882,-63.3235294117647,112.79411764705883,-278.9117647058824,0.38874847058823536
0 days 00:02:02.854583,-4.251032272727273,-1.5721388787878787,-0.38561324242424244,0.1892319696969697,0.056340545454545456,0.06525339393939394,-0.14064975757575757,-0.09734372727272728,0.16456763636363636,-0.005147424242424242,-0.00923860606060606,0.026964969696969696,0.316358,-17.393939393939394,-59.39393939393939,0.309482,0.224726,0.322128,-24.328835,0.309482,695.6363636363636,7825.848484848485,7560.515151515152,7594.333333333333,7459.424242424242,7794.757575757576,7570.787878787879,7697.909090909091,7418.333333333333,-0.25103227272727274,-0.5721388787878788,-1.0856132424242424,0.1892319696969697,0.056340545454545456,0.06525339393939394,-0.005147424242424242,-0.00923860606060606,0.026964969696969696,0.05845,-0.008778,0.363933,0.036896,-0.015644,0.011083,-0.08046287878787875,-0.0859670606060606,-9.282729696969698,0.09119760606060606,-0.007264969696969696,-7.384848484848427e-05,-0.265359,-0.572954,-1.090768,-0.007274,6524.242424242424,-27.757575757575758,124.51515151515152,-355.42424242424244,0.38561324242424244
0 days 00:02:02.919583,-4.2411955882352945,-1.5685022352941176,-0.3815010000000001,0.1751240588235294,0.05084755882352941,0.06888782352941177,-0.24861085294117646,-0.029802117647058816,-0.028016529411764704,-0.004635823529411765,-0.00926735294117647,0.025997617647058824,0.316358,-17.794117647058822,-60.0,0.309482,0.224726,0.322128,-24.328835,0.309482,692.6176470588235,7798.5,7554.117647058823,7671.529411764706,7459.205882352941,7824.5,7558.941176470588,7651.441176470588,7458.235294117647,-0.2411955882352941,-0.5685022352941177,-1.081501,0.1751240588235294,0.05084755882352941,0.06888782352941177,-0.004635823529411765,-0.00926735294117647,0.025997617647058824,0.05837111764705882,-0.008778529411764706,0.3639382941176471,0.03689547058823529,-0.015646647058823532,0.011084588235294119,-0.16992185294117645,-0.04515152941176471,-9.475413647058824,0.009133794117647058,-0.04879935294117647,0.0033820588235294116,-0.25835064705882355,-0.5701872941176471,-1.0877339411764706,-0.00805064705882353,6528.117647058823,36.05882352941177,136.64705882352942,-323.8529411764706,0.3815010000000001
0 days 00:02:02.984583,-4.231523121212121,-1.5651967272727272,-0.37810715151515173,0.18272512121212123,0.04349954545454545,0.05018051515151515,0.27995006060606065,-0.15960506060606058,-0.23960851515151513,-0.004126060606060606,-0.010903030303030303,0.025548121212121213,0.316358,-17.0,-60.0,0.309482,0.224726,0.322128,-24.328835,0.309482,695.0,7765.787878787879,7615.939393939394,7631.727272727273,7437.090909090909,7792.030303030303,7608.575757575758,7615.606060606061,7447.575757575758,-0.2315231212121212,-0.5651967272727273,-1.0781071515151517,0.18272512121212123,0.04349954545454545,0.05018051515151515,-0.004126060606060606,-0.010903030303030303,0.025548121212121213,0.058301,-0.008779,0.363943,0.036895,-0.015649,0.011086,0.3444601515151515,-0.18202533333333332,-9.684718303030303,0.014566999999999998,-0.04009818181818181,0.01967912121212121,-0.252121,-0.567728,-1.085037,-0.008741,6517.818181818182,7.696969696969697,168.57575757575756,-248.12121212121212,0.37810715151515173
0 days 00:02:03.049583,-4.2235510909090905,-1.5619020909090908,-0.3757985454545454,0.2033940303030303,0.02898560606060606,0.03467169696969697,0.1648437575757576,-0.165666,-0.24644136363636363,-0.004066272727272727,-0.010451757575757576,0.025070151515151518,0.316358,-17.0,-60.0,0.309482,0.224726,0.322128,-24.328835,0.309482,712.0,7803.181818181818,7599.121212121212,7628.909090909091,7386.636363636364,7809.424242424242,7584.909090909091,7632.212121212121,7411.393939393939,-0.22355109090909092,-0.5619020909090909,-1.0757985454545453,0.2033940303030303,0.02898560606060606,0.03467169696969697,-0.004066272727272727,-0.010451757575757576,0.025070151515151518,0.058155,-0.008731,0.363948,0.036894,-0.015654,0.01109,0.22043681818181815,-0.18758878787878785,-9.69389193939394,0.038944151515151515,0.024036818181818183,-0.002885272727272727,-0.239896,-0.560893,-1.078635,-0.002545,6508.666666666667,1.8181818181818181,175.0,-314.3333333333333,0.3757985454545454
0 days 00:02:03.114583,-4.212558558823529,-1.559707205882353,-0.3738037941176471,0.20661938235294117,0.018339352941176473,0.031100764705882352,-0.19806458823529413,-0.07538120588235295,0.31955682352941184,-0.0030811764705882356,-0.0070965882352941176,0.02451555882352941,0.316358,-16.0,-58.5,0.309482,0.224726,0.322128,-24.328835,0.309482,714.5,7771.794117647059,7607.205882352941,7585.294117647059,7431.941176470588,7783.14705882353,7633.441176470588,7592.0,7425.323529411765,-0.21255855882352942,-0.559707205882353,-1.073803794117647,0.20661938235294117,0.018339352941176473,0.031100764705882352,-0.0030811764705882356,-0.0070965882352941176,0.02451555882352941,0.05803279411764706,-0.00872085294117647,0.36394667647058826,0.036893117647058826,-0.015656647058823532,0.011092205882352942,-0.10630167647058822,-0.10107432352941176,-9.128532852941177,0.08030785294117647,0.019516911764705883,0.01768579411764706,-0.23476997058823532,-0.5584215294117647,-1.0760095588235294,-0.005091911764705882,6507.294117647059,-8.558823529411764,199.41176470588235,-223.44117647058823,0.3738037941176471
0 days 00:02:03.179583,-4.203077090909091,-1.5577196666666666,-0.3704268484848485,0.18619845454545453,0.017261636363636364,0.06921169696969698,-0.4494765454545454,0.09492360606060606,0.6772986363636363,-0.001556757575757576,-0.0033064848484848485,0.025318484848484847,0.316358,-15.303030303030303,-57.90909090909091,0.309482,0.224726,0.322128,-24.328835,0.309482,711.2424242424242,7752.969696969697,7571.454545454545,7651.787878787879,7509.787878787879,7792.393939393939,7560.545454545455,7663.848484848485,7492.606060606061,-0.2030770909090909,-0.5577196666666666,-1.0704268484848485,0.18619845454545453,0.017261636363636364,0.06921169696969698,-0.001556757575757576,-0.0033064848484848485,0.025318484848484847,0.057878,-0.008708,0.363945,0.036892,-0.01566,0.011095,-0.311849,0.05974784848484849,-8.770892454545455,0.054066,0.01055727272727273,0.026056454545454546,-0.228277,-0.555291,-1.072684,-0.008318,6533.939393939394,30.363636363636363,98.15151515151516,-284.4848484848485,0.3704268484848485
0 days 00:02:03.244583,-4.197330757575758,-1.5543533333333333,-0.36517299999999997,0.16801178787878787,0.024201787878787878,0.08164433333333333,0.030205333333333344,0.018324181818181812,-0.21785166666666667,0.0012423030303030302,-0.005151575757575758,0.025158666666666666,0.316358,-16.09090909090909,-59.90909090909091,0.309482,0.224726,0.322128,-24.328835,0.309482,699.4545454545455,7823.424242424242,7630.060606060606,7677.272727272727,7423.787878787879,7850.909090909091,7607.30303030303,7671.333333333333,7410.848484848485,-0.19733075757575758,-0.5543533333333333,-1.065173,0.16801178787878787,0.024201787878787878,0.08164433333333333,0.0012423030303030302,-0.005151575757575758,0.025158666666666666,0.057650545454545454,-0.00869,0.36394336363636365,0.03688954545454545,-0.015666545454545454,0.01109990909090909,0.14429451515151515,-0.037642060606060616,-9.665838212121212,0.05408084848484848,-0.07614230303030303,0.007479545454545454,-0.21911009090909092,-0.5500718181818182,-1.067374,-0.007206909090909091,6544.878787878788,-8.272727272727273,187.72727272727272,-355.8787878787879,0.36517299999999997
0 days 00:02:03.309583,-4.18888503030303,-1.5519685757575759,-0.35991169696969694,0.17244360606060605,0.017273818181818182,0.0915959393939394,0.15437609090909088,-0.23807466666666668,0.14023357575757575,0.0012490909090909091,-0.007509454545454546,0.024014666666666667,0.316358,-17.0,-59.0,0.309482,0.224726,0.322128,-24.328835,0.309482,714.0,7883.424242424242,7574.848484848485,7672.848484848485,7412.636363636364,7853.212121212121,7587.727272727273,7693.30303030303,7432.272727272727,-0.1888850303030303,-0.5519685757575757,-1.059911696969697,0.17244360606060605,0.017273818181818182,0.0915959393939394,0.0012490909090909091,-0.007509454545454546,0.024014666666666667,0.05754454545454546,-0.008683454545454545,0.3639439090909091,0.03688827272727272,-0.015669454545454545,0.011102090909090909,0.26805151515151515,-0.2801254848484849,-9.304687484848484,0.06722736363636364,-0.027306787878787875,-0.02405148484848485,-0.21521245454545454,-0.5478812727272726,-1.0649441818181817,-0.007096727272727273,6554.060606060606,2.3333333333333335,157.3939393939394,-371.6060606060606,0.35991169696969694
0 days 00:02:03.374583,-4.183173323529412,-1.5486500588235295,-0.3546062352941177,0.18202252941176472,0.015534941176470588,0.0758744705882353,0.005959029411764741,0.06420999999999999,-0.22106585294117648,0.0029672058823529412,-0.0073098529411764705,0.02271014705882353,0.316358,-16.11764705882353,-59.0,0.309482,0.224726,0.322128,-24.328835,0.309482,725.4705882352941,7771.470588235294,7635.058823529412,7621.823529411765,7516.941176470588,7786.235294117647,7649.85294117647,7596.205882352941,7515.5,-0.18317332352941176,-0.5486500588235295,-1.0546062352941177,0.18202252941176472,0.015534941176470588,0.0758744705882353,0.0029672058823529412,-0.0073098529411764705,0.02271014705882353,0.057295,-0.008672,0.363948,0.036885,-0.015676,0.011107,0.1521139411764706,0.013499470588235323,-9.667250647058824,0.03372729411764706,-0.05078126470588236,0.03506294117647059,-0.20684,-0.543243,-1.05932,-0.007712,6547.529411764706,27.735294117647058,161.7941176470588,-153.23529411764707,0.3546062352941177
0 days 00:02:03.439583,-4.176867636363636,-1.5455005454545456,-0.3502049090909092,0.1700839393939394,0.01901648484848485,0.07550730303030302,-0.07883960606060607,0.030594272727272716,-0.27049236363636364,0.0044873636363636366,-0.00931539393939394,0.023903303030303028,0.316358,-16.0,-59.0,0.309482,0.224726,0.322128,-24.328835,0.309482,727.6969696969697,7788.878787878788,7658.69696969697,7643.090909090909,7468.333333333333,7806.181818181818,7645.909090909091,7637.121212121212,7464.909090909091,-0.17686763636363637,-0.5455005454545455,-1.0502049090909091,0.1700839393939394,0.01901648484848485,0.07550730303030302,0.0044873636363636366,-0.00931539393939394,0.023903303030303028,0.057114333333333336,-0.008657333333333333,0.36395466666666665,0.036882333333333336,-0.015682,0.011111666666666667,0.05335581818181816,-0.03462360606060606,-9.718927606060605,0.04088248484848485,-0.060746636363636364,0.03443860606060606,-0.20177466666666666,-0.5395030000000001,-1.0558446666666665,-0.005964,6549.666666666667,-6.03030303030303,174.75757575757575,-234.8181818181818,0.3502049090909092
0 days 00:02:03.504583,-4.168642515151515,-1.5430005151515152,-0.3462186666666667,0.1674089696969697,0.024652090909090908,0.06556472727272727,-0.5393667878787879,0.06314533333333332,0.5303622121212122,0.004690272727272727,-0.012122181818181818,0.024557212121212122,0.316358,-16.0,-59.0,0.309482,0.224726,0.322128,-24.328835,0.309482,719.7575757575758,7862.666666666667,7657.363636363636,7643.333333333333,7393.575757575758,7835.333333333333,7646.666666666667,7665.787878787879,7390.575757575758,-0.16864251515151515,-0.5430005151515152,-1.0462186666666666,0.1674089696969697,0.024652090909090908,0.06556472727272727,0.004690272727272727,-0.012122181818181818,0.024557212121212122,0.057024,-0.00865,0.363958,0.036881,-0.015685,0.011114,-0.4269057575757576,0.009203393939393933,-8.917465727272727,0.05721018181818182,-0.038833060606060614,0.005089939393939394,-0.199242,-0.537633,-1.054107,-0.00509,6544.121212121212,-43.27272727272727,212.45454545454547,-327.6363636363636,0.3462186666666667
0 days 00:02:03.569583,-4.168528911764706,-1.5377791470588233,-0.3413411470588237,0.11497570588235295,0.03513294117647059,0.13023273529411766,-0.5432478235294118,0.10302820588235294,0.9257951176470587,0.004112235294117647,-0.012458499999999999,0.023248911764705883,0.316358,-16.0,-59.0,0.309482,0.224726,0.322128,-24.328835,0.309482,711.0,7863.117647058823,7623.85294117647,7726.85294117647,7474.205882352941,7873.264705882353,7619.382352941177,7721.764705882353,7451.14705882353,-0.16852891176470589,-0.5377791470588235,-1.0413411470588236,0.11497570588235295,0.03513294117647059,0.13023273529411766,0.004112235294117647,-0.012458499999999999,0.023248911764705883,0.056836,-0.008607,0.363974,0.036877,-0.015695,0.011121,-0.4560834117647059,0.0710305294117647,-8.521685470588235,0.005830617647058824,-0.06871832352941176,-0.008408441176470589,-0.19259,-0.531682,-1.049899,-0.003053,6589.029411764706,-8.441176470588236,159.58823529411765,-370.2647058823529,0.3413411470588237
0 days 00:02:03.634583,-4.164710515151516,-1.534075696969697,-0.3331200606060607,0.10503230303030303,0.036712636363636364,0.15243654545454546,-0.09651012121212123,-0.08007124242424243,0.08279533333333332,0.001661,-0.01666309090909091,0.02151842424242424,0.316358,-15.0,-59.0,0.309482,0.224726,0.322128,-24.328835,0.309482,710.0,7840.848484848485,7623.727272727273,7704.909090909091,7543.606060606061,7833.545454545455,7641.69696969697,7688.242424242424,7559.787878787879,-0.16471051515151514,-0.5340756969696969,-1.0331200606060607,0.10503230303030303,0.036712636363636364,0.15243654545454546,0.001661,-0.01666309090909091,0.02151842424242424,0.05678084848484848,-0.008576030303030304,0.3639888484848485,0.03687530303030303,-0.015698818181818182,0.011123969696969696,8.87878787878818e-05,-0.08617418181818183,-9.367690515151514,0.005711333333333334,-0.10735533333333333,0.002937090909090909,-0.18969454545454545,-0.5288688484848485,-1.0477035454545454,-0.004374939393939394,6609.393939393939,31.636363636363637,113.39393939393939,-226.27272727272728,0.3331200606060607
0 days 00:02:03.699583,-4.16223193939394,-1.5297500909090909,-0.32540360606060603,0.11539542424242424,0.039824757575757576,0.14396575757575758,0.040132515151515155,-0.07150263636363637,-0.06362590909090907,0.0019320000000000001,-0.023866454545454545,0.02154718181818182,0.316358,-15.787878787878787,-59.0,0.309482,0.224726,0.322128,-24.328835,0.309482,713.939393939394,7822.151515151515,7732.909090909091,7640.30303030303,7515.939393939394,7842.333333333333,7734.0,7631.424242424242,7511.333333333333,-0.16223193939393937,-0.529750090909091,-1.025403606060606,0.11539542424242424,0.039824757575757576,0.14396575757575758,0.0019320000000000001,-0.023866454545454545,0.02154718181818182,0.056706,-0.008534,0.364009,0.036873,-0.015704,0.011128,0.08676609090909092,-0.07362690909090909,-9.511215666666667,0.028934363636363637,-0.12564363636363635,0.02848309090909091,-0.185765,-0.525051,-1.044724,-0.006169,6607.878787878788,-5.878787878787879,216.36363636363637,-161.36363636363637,0.32540360606060603
0 days 00:02:03.764583,-4.160838303030303,-1.5248000606060605,-0.3209819696969698,0.11919018181818182,0.046516242424242425,0.13314672727272728,0.35902203030303026,0.05403642424242423,-0.48015675757575754,0.0017486060606060605,-0.026487454545454547,0.022245424242424244,0.316358,-15.424242424242424,-59.0,0.309482,0.224726,0.322128,-24.328835,0.309482,716.1515151515151,7822.666666666667,7702.151515151515,7678.363636363636,7504.575757575758,7848.787878787879,7697.757575757576,7672.575757575758,7489.121212121212,-0.16083830303030303,-0.5248000606060605,-1.0209819696969697,0.11919018181818182,0.046516242424242425,0.13314672727272728,0.0017486060606060605,-0.026487454545454547,0.022245424242424244,0.056790848484848486,-0.008400787878787879,0.3640599090909091,0.03687045454545455,-0.01571078787878788,0.011132242424242425,0.3656190606060606,0.05814981818181819,-9.928503848484848,0.017001,-0.05645575757575757,0.021151454545454546,-0.1815641515151515,-0.5203936666666666,-1.0433350303030302,0.00010469696969696967,6604.060606060606,-16.21212121212121,192.12121212121212,-236.21212121212122,0.3209819696969698
0 days 00:02:03.829583,-4.154983735294118,-1.5205245882352942,-0.31592011764705874,0.14905964705882352,0.055732558823529406,0.10300635294117647,-0.17356297058823533,0.07203417647058823,0.1844002647058823,0.00032920588235294115,-0.02669564705882353,0.021843029411764706,0.316358,-14.823529411764707,-58.911764705882355,0.309482,0.224726,0.322128,-24.328835,0.309482,718.1470588235294,7890.970588235294,7730.529411764706,7639.382352941177,7444.264705882353,7835.0,7739.35294117647,7638.029411764706,7447.617647058823,-0.15498373529411766,-0.5205245882352941,-1.0159201176470587,0.14905964705882352,0.055732558823529406,0.10300635294117647,0.00032920588235294115,-0.02669564705882353,0.021843029411764706,0.056847029411764706,-0.008319558823529413,0.36408832352941173,0.036869470588235295,-0.015714117647058823,0.011134323529411766,-0.17592491176470587,0.098087,-9.256720941176471,0.03726732352941176,0.02666170588235295,6.461764705882366e-05,-0.17909367647058821,-0.5180211470588235,-1.0426761764705883,0.0017631470588235294,6587.117647058823,-47.23529411764706,244.05882352941177,-201.91176470588235,0.31592011764705874
0 days 00:02:03.894583,-4.151198909090909,-1.5151561212121212,-0.31377118181818187,0.14034342424242424,0.06263115151515151,0.1039169696969697,0.16714230303030295,-0.003067484848484847,-0.4404658181818182,-0.0017055454545454546,-0.02102633333333333,0.021761454545454546,0.316358,-13.0,-58.0,0.309482,0.224726,0.322128,-24.328835,0.309482,730.0,7804.818181818182,7685.484848484848,7686.515151515152,7528.121212121212,7848.727272727273,7635.666666666667,7673.363636363636,7505.757575757576,-0.15119890909090908,-0.5151561212121212,-1.0137711818181818,0.14034342424242424,0.06263115151515151,0.1039169696969697,-0.0017055454545454546,-0.02102633333333333,0.021761454545454546,0.056961,-0.00816,0.364142,0.036868,-0.01572,0.011138,0.1925900303030303,0.043619878787878784,-9.886038151515152,-0.03738321212121212,0.05610051515151515,0.016793909090909092,-0.174315,-0.513741,-1.041535,0.003258,6588.333333333333,22.606060606060606,152.4848484848485,-268.5151515151515,0.31377118181818187
0 days 00:02:03.959583,-4.146406696969697,-1.5103169393939395,-0.31291900000000017,0.15189966666666666,0.06728100000000001,0.07638342424242424,-0.05346024242424242,-0.03832954545454545,0.0386297575757576,-0.003721030303030303,-0.01696924242424242,0.020719363636363636,0.316358,-12.121212121212121,-58.0,0.309482,0.224726,0.322128,-24.328835,0.309482,729.1212121212121,7824.0,7684.0,7657.333333333333,7433.515151515152,7773.151515151515,7690.636363636364,7677.727272727273,7470.787878787879,-0.14640669696969696,-0.5103169393939394,-1.0129190000000001,0.15189966666666666,0.06728100000000001,0.07638342424242424,-0.003721030303030303,-0.01696924242424242,0.020719363636363636,0.057087,-0.008043545454545454,0.36419354545454546,0.03686672727272727,-0.015725727272727273,0.011139909090909091,0.01707496969696968,0.022105969696969704,-9.403793787878788,0.02960763636363636,0.06224839393939394,-0.004535090909090908,-0.169982,-0.5102002727272728,-1.0412244545454545,-0.0037025454545454545,6570.242424242424,-62.15151515151515,157.27272727272728,-204.24242424242425,0.31291900000000017
0 days 00:02:04.024583,-4.139625848484848,-1.505615303030303,-0.31055054545454563,0.15089118181818184,0.06446221212121213,0.07779845454545455,-0.06096533333333336,-0.10488354545454545,-0.08637212121212115,-0.006354151515151516,-0.012388424242424242,0.021049727272727272,0.316358,-12.666666666666666,-58.0,0.309482,0.224726,0.322128,-24.328835,0.309482,720.3333333333334,7743.0,7657.515151515152,7662.212121212121,7556.727272727273,7770.424242424242,7687.121212121212,7644.454545454545,7515.848484848485,-0.1396258484848485,-0.505615303030303,-1.0105505454545456,0.15089118181818184,0.06446221212121213,0.07779845454545455,-0.006354151515151516,-0.012388424242424242,0.021049727272727272,0.057159,-0.007977,0.364223,0.036866,-0.015729,0.011141,0.04989342424242424,-0.03225609090909091,-9.534623515151516,0.005667121212121213,0.0004364545454545471,0.02872727272727273,-0.167506,-0.508177,-1.041047,-0.00768,6572.181818181818,-22.545454545454547,148.36363636363637,-149.6060606060606,0.31055054545454563
0 days 00:02:04.089583,-4.136604617647059,-1.502146088235294,-0.312828411764706,0.16418485294117646,0.05009235294117648,0.03843255882352942,0.15588479411764708,-0.23929902941176473,-0.3809418823529412,-0.007770676470588236,-0.01016229411764706,0.021595735294117648,0.316358,-13.352941176470589,-58.0,0.309482,0.224726,0.322128,-24.328835,0.309482,719.1764705882352,7771.823529411765,7675.088235294118,7643.117647058823,7486.235294117647,7796.85294117647,7628.176470588235,7624.264705882353,7495.411764705882,-0.1366046176470588,-0.502146088235294,-1.012828411764706,0.16418485294117646,0.05009235294117648,0.03843255882352942,-0.007770676470588236,-0.01016229411764706,0.021595735294117648,0.05732814705882353,-0.007826911764705883,0.36429208823529413,0.03686679411764706,-0.01573694117647059,0.011143382352941175,0.2706513529411765,-0.14924179411764704,-9.829273882352942,-0.008099794117647061,0.007079999999999996,0.022582941176470587,-0.16230135294117648,-0.5049115882352941,-1.0408452941176471,-0.008181882352941176,6546.411764705882,19.88235294117647,152.44117647058823,-210.05882352941177,0.312828411764706
0 days 00:02:04.154583,-4.131500636363636,-1.499524181818182,-0.31545778787878787,0.16024981818181816,0.04186684848484848,0.02079590909090909,-0.08756151515151517,-0.1629614242424242,-0.21455093939393943,-0.007110272727272727,-0.008453363636363637,0.02113148484848485,0.316358,-15.0,-58.0,0.309482,0.224726,0.322128,-24.328835,0.309482,734.0,7788.484848484848,7654.818181818182,7635.575757575758,7411.575757575758,7762.848484848485,7673.030303030303,7651.272727272727,7419.030303030303,-0.13150063636363638,-0.4995241818181818,-1.0154577878787878,0.16024981818181816,0.04186684848484848,0.02079590909090909,-0.007110272727272727,-0.008453363636363637,0.02113148484848485,0.05738427272727273,-0.007731636363636363,0.36434181818181816,0.036867,-0.01574309090909091,0.01114490909090909,0.03412048484848483,-0.0815281818181818,-9.661073606060606,0.08926666666666667,0.007701515151515151,-0.008175,-0.15778972727272728,-0.5026895454545455,-1.0406080000000002,-0.010160181818181818,6532.757575757576,-71.0909090909091,182.5151515151515,-227.33333333333334,0.31545778787878787
0 days 00:02:04.219583,-4.125714090909091,-1.497354,-0.3184207878787879,0.16293624242424243,0.03645757575757576,-0.002755090909090909,0.0985583333333333,-0.03944745454545454,-0.4395177878787878,-0.007153636363636364,-0.0054824848484848485,0.020923666666666667,0.316358,-15.0,-58.0,0.309482,0.224726,0.322128,-24.328835,0.309482,719.4545454545455,7764.848484848485,7608.666666666667,7606.969696969697,7470.606060606061,7769.424242424242,7633.848484848485,7617.424242424242,7438.545454545455,-0.1257140909090909,-0.497354,-1.0184207878787879,0.16293624242424243,0.03645757575757576,-0.002755090909090909,-0.007153636363636364,-0.0054824848484848485,0.020923666666666667,0.057399,-0.007663999999999999,0.36438,0.036867,-0.015748,0.011146,0.24360793939393938,0.03201936363636364,-9.883966636363636,0.06143460606060606,0.0033588484848484854,0.011245242424242425,-0.153995,-0.501039,-1.040386,-0.012378,6516.212121212121,-21.636363636363637,173.3030303030303,-222.0,0.3184207878787879
0 days 00:02:04.284583,-4.123193764705882,-1.4958064705882355,-0.3239766176470589,0.16152367647058824,0.03592723529411764,-0.03934611764705882,-0.04327391176470587,0.05220776470588234,-0.4690285588235294,-0.005878441176470588,-0.003108558823529412,0.021158676470588236,0.316358,-15.0,-57.23529411764706,0.309482,0.224726,0.322128,-24.328835,0.309482,716.7058823529412,7709.529411764706,7657.970588235294,7579.264705882353,7443.588235294118,7728.764705882353,7615.176470588235,7571.558823529412,7464.35294117647,-0.12319376470588236,-0.49580647058823535,-1.0239766176470588,0.16152367647058824,0.03592723529411764,-0.03934611764705882,-0.005878441176470588,-0.003108558823529412,0.021158676470588236,0.05730964705882353,-0.007592882352941177,0.3644283235294118,0.036867911764705885,-0.015757117647058824,0.011148735294117647,0.11457373529411764,0.10538267647058823,-9.91412,0.0017521176470588235,0.013937558823529412,0.03670726470588235,-0.14917450000000002,-0.4990185294117648,-1.0399629411764706,-0.00987520588235294,6488.117647058823,3.176470588235294,153.8235294117647,-155.91176470588235,0.3239766176470589
0 days 00:02:04.349583,-4.117316757575757,-1.4940064242424242,-0.3286623636363637,0.1533031212121212,0.03559148484848485,-0.05301715151515152,-0.06281348484848487,-0.13182081818181818,0.20475121212121208,-0.005230909090909091,-0.0018591212121212121,0.021934,0.316358,-15.0,-57.0,0.309482,0.224726,0.322128,-24.328835,0.309482,721.7575757575758,7694.424242424242,7653.393939393939,7590.242424242424,7389.424242424242,7700.909090909091,7667.848484848485,7572.393939393939,7404.212121212121,-0.11731675757575757,-0.49400642424242425,-1.0286623636363637,0.1533031212121212,0.03559148484848485,-0.05301715151515152,-0.005230909090909091,-0.0018591212121212121,0.021934,0.05721866666666666,-0.007590727272727272,0.36444363636363636,0.03686839393939394,-0.015762333333333333,0.011149787878787877,0.0962949696969697,-0.08635181818181815,-9.240796666666666,0.039410272727272724,-0.02343009090909091,0.027743303030303028,-0.14680527272727276,-0.49840778787878787,-1.0394839393939395,-0.009835878787878788,6476.0,-67.33333333333333,195.8181818181818,-142.12121212121212,0.3286623636363637
0 days 00:02:04.414583,-4.113636666666666,-1.4929291212121212,-0.33291042424242434,0.14278539393939393,0.025764333333333334,-0.0287360303030303,-0.33077266666666666,0.007505848484848488,0.6490432727272727,-0.006442,-0.001387939393939394,0.022934636363636365,0.316358,-15.0,-57.0,0.309482,0.224726,0.322128,-24.328835,0.309482,725.2727272727273,7749.969696969697,7599.606060606061,7603.181818181818,7409.030303030303,7742.545454545455,7613.30303030303,7631.454545454545,7394.393939393939,-0.11363666666666666,-0.4929291212121212,-1.0329104242424243,0.14278539393939393,0.025764333333333334,-0.0287360303030303,-0.006442,-0.001387939393939394,0.022934636363636365,0.057092,-0.007598000000000001,0.36446,0.036869,-0.015769,0.011151,-0.16660745454545456,0.05554569696969698,-8.797999454545455,0.05593778787878788,-0.026648303030303026,0.010727424242424243,-0.143878,-0.4977690000000001,-1.03881,-0.010148,6488.818181818182,-53.96969696969697,164.6969696969697,-258.4848484848485,0.33291042424242434
0 days 00:02:04.479583,-4.112872060606061,-1.4924775454545456,-0.333715393939394,0.11321451515151515,0.02583630303030303,0.013697181818181818,-0.10639278787878792,-0.00029309090909091623,0.028561666666666676,-0.0056999090909090906,-0.0023854848484848486,0.02284778787878788,7.359006727272727,-11.06060606060606,-41.60606060606061,0.08560151515151514,0.0645009090909091,0.08785309090909092,-6.591026454545456,0.09418369696969697,527.7575757575758,7774.484848484848,7551.69696969697,7628.575757575758,7536.181818181818,7994.333333333333,7524.848484848485,7759.787878787879,7904.393939393939,-0.11287206060606061,-0.4924775454545455,-1.033715393939394,0.11321451515151515,0.02583630303030303,0.013697181818181818,-0.0056999090909090906,-0.0023854848484848486,0.02284778787878788,0.05688290909090909,-0.0076669393939393935,0.36446530303030306,0.036870515151515154,-0.015777333333333334,0.011152515151515151,0.0453065454545455,0.031309121212121205,-9.418087121212121,0.10495830303030304,-0.06730884848484849,0.016098575757575756,-0.14055754545454546,-0.4971167272727273,-1.0365728787878787,-0.01434421212121212,6887.575757575758,309.27272727272725,-75.0909090909091,-248.3030303030303,0.333715393939394
0 days 00:02:04.544583,-4.110234470588235,-1.4914515000000002,-0.334857705882353,0.10953735294117646,0.03437858823529411,-0.10314470588235294,-0.06857055882352942,0.4096019411764706,-3.9733351764705884,0.03026932352941177,-0.024429411764705884,0.02383205882352941,10.0,-16.0,-58.0,0.009878,0.026499,0.0,0.045292088235294126,0.080681,732.0,9162.441176470587,8847.470588235294,8764.323529411764,9092.35294117647,9686.176470588236,9438.323529411764,9031.20588235294,9278.264705882353,-0.1102344705882353,-0.49145150000000004,-1.034857705882353,0.10953735294117646,0.03437858823529411,-0.10314470588235294,0.03026932352941177,-0.024429411764705884,0.02383205882352941,0.056689176470588236,-0.007711588235294117,0.3644665294117647,0.03687123529411765,-0.015782588235294118,0.011153470588235294,-0.1957720294117647,-0.06718173529411764,-13.421415352941176,1.2055377352941177,-0.6387220882352941,0.0489789705882353,-0.13866135294117646,-0.4967148235294118,-1.0356887647058826,-0.001349352941176471,9600.0,247.47058823529412,406.20588235294116,-157.26470588235293,0.334857705882353
0 days 00:02:04.609583,-4.109887393939394,-1.4889950606060607,-0.35177760606060615,0.12288757575757576,0.09749121212121213,-0.42775536363636363,0.4652676363636364,1.6103831212121211,-3.938372181818182,0.11223151515151515,-0.054471878787878784,0.026080212121212122,10.0,-15.333333333333334,-57.333333333333336,0.0018477272727272726,0.02729127272727273,0.0,-0.9408687272727273,-0.01717390909090909,726.0,9180.757575757576,9451.757575757576,9154.878787878788,8873.757575757576,8389.242424242424,8612.939393939394,8597.272727272728,7670.212121212121,-0.10988739393939394,-0.4889950606060606,-1.051777606060606,0.12288757575757576,0.09749121212121213,-0.42775536363636363,0.11223151515151515,-0.054471878787878784,0.026080212121212122,0.056277,-0.007785,0.364465,0.036872,-0.015791,0.011155,-0.04424124242424242,0.05362218181818181,-13.487097575757577,0.9615293333333333,-0.32170333333333334,0.11440572727272727,-0.135952,-0.49608700000000006,-1.035142,0.045248,7634.909090909091,-574.4545454545455,366.6969696969697,-567.6363636363636,0.35177760606060615
0 days 00:02:04.674583,-4.106606909090909,-1.4807485454545455,-0.382525393939394,0.15351133333333333,0.19209287878787878,-0.5180914242424243,0.6502821818181819,1.4340179393939394,0.020354999999999995,0.13750184848484848,-0.07293939393939394,0.026614333333333334,10.0,-9.090909090909092,-57.0,-0.002741,0.027744,0.0,-2.6881597878787877,-0.073091,733.4545454545455,8086.969696969697,7985.484848484848,8129.575757575758,6965.69696969697,8174.424242424242,7826.484848484848,8056.060606060606,6493.969696969697,-0.1066069090909091,-0.48074854545454543,-1.082525393939394,0.15351133333333333,0.19209287878787878,-0.5180914242424243,0.13750184848484848,-0.07293939393939394,0.026614333333333334,0.05535033333333333,-0.007884333333333333,0.36445500000000003,0.036873333333333334,-0.015797666666666665,0.011155666666666666,0.11165363636363636,0.05350372727272728,-9.553592515151514,-0.16046693939393938,-0.18710790909090907,-0.06215227272727273,-0.13198333333333334,-0.4899763333333333,-1.058772,0.10508200000000001,6548.484848484848,-606.1212121212121,724.2727272727273,-1348.2727272727273,0.382525393939394
0 days 00:02:04.739583,-4.098671029411765,-1.4661838529411764,-0.4151066764705882,0.19112867647058823,0.26827126470588236,-0.49660302941176465,0.40096255882352944,0.8938323823529412,0.33663873529411764,0.09193138235294118,-0.061137970588235294,0.021100588235294118,10.0,-0.4117647058823529,-56.470588235294116,-0.004099117647058823,0.032654588235294116,0.0,-4.653821323529412,-0.06756182352941177,744.6764705882352,7986.705882352941,7404.176470588235,7685.764705882353,7364.794117647059,8029.35294117647,7593.294117647059,7803.85294117647,7879.14705882353,-0.0986710294117647,-0.4661838529411765,-1.1151066764705881,0.19112867647058823,0.26827126470588236,-0.49660302941176465,0.09193138235294118,-0.061137970588235294,0.021100588235294118,0.05480411764705882,-0.007941176470588236,0.3644488235294117,0.03687411764705882,-0.015801529411764704,0.011156,-0.029095823529411802,0.03475420588235295,-9.158777470588236,-0.6849868529411766,0.2817525882352941,-0.037784323529411766,-0.1292895882352941,-0.48554652941176474,-1.0735037058823529,0.13217723529411765,6814.941176470588,255.23529411764707,-30.08823529411765,-254.7058823529412,0.4151066764705882
0 days 00:02:04.804583,-4.09356371875,-1.44908109375,-0.44508021875000003,0.20357146875,0.31315040625,-0.5186039375,0.290737375,0.53442284375,-1.1802470625,0.05905625,-0.05056515625,0.02204290625,10.0,4.0,-55.0,-0.008513,0.048614,0.0,-6.16268575,-0.049592,741.0,8380.25,8258.53125,8127.625,8077.6875,8593.84375,8248.71875,8118.75,8332.6875,-0.09356371875,-0.44908109375,-1.14508021875,0.20357146875,0.31315040625,-0.5186039375,0.05905625,-0.05056515625,0.02204290625,0.053478,-0.008056,0.36443,0.036876,-0.01581,0.011156,-0.1255493125,-0.08642578125,-10.64184578125,-0.46602625,0.08338931249999999,0.0479736875,-0.117939,-0.463555,-1.120171,0.087029,7516.75,279.09375,195.15625,-92.71875,0.44508021875000003
0 days 00:02:04.869583,-4.083221882352941,-1.4288436764705883,-0.4798069411764707,0.22477211764705882,0.3393265,-0.5881748823529411,0.37240602941176476,0.24408417647058822,-0.6116210294117647,0.04631779411764706,-0.043535,0.022558088235294118,10.0,1.7941176470588236,-56.470588235294116,0.011105588235294117,0.05366176470588235,0.0,-7.431778470588235,0.13634941176470586,757.1764705882352,8270.35294117647,7940.205882352941,7926.676470588235,7994.558823529412,8134.088235294118,7605.205882352941,7472.529411764706,7988.117647058823,-0.08322188235294117,-0.42884367647058824,-1.1798069411764707,0.22477211764705882,0.3393265,-0.5881748823529411,0.04631779411764706,-0.043535,0.022558088235294118,0.052845500000000004,-0.0081535,0.3644185,0.0368765,-0.015814,0.011155,0.06640626470588235,-0.20938652941176472,-10.064625411764707,0.07828297058823529,0.058672794117647066,-2.8676470588234583e-05,-0.110127,-0.448463,-1.145437,0.07231149999999999,6777.64705882353,521.4705882352941,139.11764705882354,-9.470588235294118,0.4798069411764707
0 days 00:02:04.934583,-4.071257121212121,-1.4069689696969698,-0.5169630303030304,0.2530650606060606,0.3609148181818182,-0.5675872727272727,0.2716298787878788,0.5577400606060605,1.013100909090909,0.08029463636363636,-0.03936975757575757,0.02230918181818182,10.0,-3.3636363636363638,-55.90909090909091,-0.013472303030303029,0.05894039393939394,0.0,-8.478335424242426,-0.06696606060606061,736.2727272727273,7566.878787878788,7587.787878787879,7415.393939393939,7455.242424242424,7250.757575757576,7847.151515151515,7611.121212121212,7301.090909090909,-0.0712571212121212,-0.4069689696969697,-1.2169630303030303,0.2530650606060606,0.3609148181818182,-0.5675872727272727,0.08029463636363636,-0.03936975757575757,0.02230918181818182,0.052213,-0.008251,0.364407,0.036877,-0.015818,0.011154,0.06850727272727271,-0.12538460606060606,-8.458984393939394,0.9477612424242424,0.021070090909090906,0.005726272727272729,-0.102315,-0.433371,-1.170703,0.057594,6357.69696969697,-452.57575757575756,92.75757575757575,202.1818181818182,0.5169630303030304
0 days 00:02:04.999583,-4.0589832058823525,-1.3841238823529411,-0.5491807647058824,0.2655142352941176,0.40988985294117647,-0.5035568823529412,0.3978352352941177,0.8771811176470589,0.7734107647058823,0.09580952941176471,-0.037495117647058825,0.02599923529411765,10.0,-9.588235294117647,-55.0,-0.013637382352941175,0.06257444117647058,0.0,-9.402045205882352,0.09304770588235296,738.5882352941177,7502.558823529412,7382.823529411765,7364.911764705882,7269.64705882353,7728.941176470588,7264.705882352941,7439.470588235294,7370.441176470588,-0.05898320588235294,-0.38412388235294115,-1.2491807647058824,0.2655142352941176,0.40988985294117647,-0.5035568823529412,0.09580952941176471,-0.037495117647058825,0.02599923529411765,0.051291823529411765,-0.008611529411764705,0.36437735294117646,0.03687911764705882,-0.015823294117647057,0.01115294117647059,0.1996496764705882,0.03940720588235294,-8.721737147058823,-0.08049464705882353,-0.01076376470588235,0.03028058823529412,-0.09119841176470589,-0.41324541176470586,-1.2013199411764706,0.07565594117647059,6284.735294117647,197.14705882352942,91.67647058823529,-376.4117647058824,0.5491807647058824
0 days 00:02:05.064583,-4.046791151515151,-1.3575436666666667,-0.5774557272727272,0.2795988484848485,0.46327330303030306,-0.45144012121212124,0.12829063636363636,0.6761603333333334,0.8146578484848485,0.09544527272727274,-0.03548966666666667,0.024223969696969695,10.0,-11.0,-54.84848484848485,0.006855848484848485,0.06348418181818183,0.0,-10.330087909090908,0.32291545454545456,753.6666666666666,7484.212121212121,7392.666666666667,7444.151515151515,7290.787878787879,7606.030303030303,7452.121212121212,7399.787878787879,7466.575757575758,-0.046791151515151515,-0.35754366666666665,-1.2774557272727272,0.2795988484848485,0.46327330303030306,-0.45144012121212124,0.09544527272727274,-0.03548966666666667,0.024223969696969695,0.05013972727272727,-0.008940727272727274,0.3643469090909091,0.036881,-0.015829636363636365,0.011151454545454546,-0.0699869696969697,-0.141572,-8.655421363636364,-0.07626812121212122,-0.022882575757575758,0.02001221212121212,-0.07498127272727273,-0.38300745454545454,-1.2418241818181817,0.08993145454545455,6327.424242424242,110.0909090909091,95.78787878787878,-61.515151515151516,0.5774557272727272
0 days 00:02:05.129583,-4.03253493939394,-1.3260886363636364,-0.6037332121212122,0.2851359393939394,0.5119239393939394,-0.4042277878787879,0.23860124242424244,0.6818030606060606,0.5876645151515152,0.09041412121212121,-0.03530069696969697,0.02434069696969697,10.0,-11.0,-54.0,0.017824,0.067183,0.0,-11.260855727272729,0.085213,763.0,7630.333333333333,7558.454545454545,7527.666666666667,7386.757575757576,7689.272727272727,7621.363636363636,7569.939393939394,7504.333333333333,-0.032534939393939394,-0.3260886363636364,-1.3037332121212122,0.2851359393939394,0.5119239393939394,-0.4042277878787879,0.09041412121212121,-0.03530069696969697,0.02434069696969697,0.049251,-0.008964,0.364336,0.036881,-0.015834,0.01115,0.03139787878787884,-0.10446257575757577,-8.886097272727273,-0.06616954545454545,0.011075030303030302,0.0019087272727272733,-0.058086,-0.350078,-1.277262,0.085186,6490.0,1.1818181818181819,118.0,-94.15151515151516,0.6037332121212122
0 days 00:02:05.194583,-4.017148588235294,-1.291004588235294,-0.6275516764705884,0.292138294117647,0.5575435000000001,-0.3684362941176471,0.31692600000000004,0.6042618235294118,0.47954405882352935,0.08031573529411765,-0.031641823529411764,0.025007676470588238,10.0,-13.823529411764707,-53.05882352941177,0.03276235294117647,0.07100238235294119,0.0,-12.134375470588235,0.11839302941176472,778.0588235294117,7650.14705882353,7414.911764705882,7454.705882352941,7477.029411764706,7602.441176470588,7466.5,7513.529411764706,7445.970588235294,-0.017148588235294117,-0.2910045882352941,-1.3275516764705884,0.292138294117647,0.5575435000000001,-0.3684362941176471,0.08031573529411765,-0.031641823529411764,0.025007676470588238,0.048570852941176475,-0.00900885294117647,0.36432055882352943,0.036880264705882355,-0.015837676470588233,0.01114779411764706,0.13476561764705883,-0.0890970294117647,-8.990205735294117,0.011783441176470589,0.041776823529411755,-0.004013970588235293,-0.04000585294117647,-0.31250152941176473,-1.3045627352941178,0.07565732352941176,6364.14705882353,34.11764705882353,54.55882352941177,-143.7058823529412,0.6275516764705884
0 days 00:02:05.259583,-3.9990412424242425,-1.2532142727272726,-0.6496462424242424,0.3072978181818182,0.5982527272727273,-0.32603890909090905,0.15641057575757578,0.45919042424242423,0.5753943030303029,0.07405842424242425,-0.029755939393939394,0.025294454545454547,10.0,-15.515151515151516,-51.484848484848484,0.021596363636363636,0.07336472727272728,0.0,-12.937573606060607,-0.022356,771.4242424242424,7617.909090909091,7426.757575757576,7390.636363636364,7428.333333333333,7665.939393939394,7471.090909090909,7449.333333333333,7441.909090909091,0.0009587575757575758,-0.2532142727272727,-1.3496462424242424,0.3072978181818182,0.5982527272727273,-0.32603890909090905,0.07405842424242425,-0.029755939393939394,0.025294454545454547,0.04830478787878788,-0.009033121212121213,0.3643140606060606,0.03688006060606061,-0.015839181818181818,0.011146939393939395,-0.009676939393939403,-0.15666430303030301,-8.882398242424243,-0.07702272727272728,-0.000199757575757572,0.013324090909090909,-0.03265890909090909,-0.2971607272727273,-1.3153793030303031,0.07199151515151514,6364.090909090909,93.57575757575758,122.84848484848484,-142.75757575757575,0.6496462424242424
