time,pos_x,pos_y,pos_z,vel_x,vel_y,vel_z,acc_x,acc_y,acc_z,att_phi,att_theta,att_psi,distance_est,centroid_x,centroid_y,divergence,true_divergence,divergence_sp,pitch_sum,raw_divergence,color_count,rpm_obs_1,rpm_obs_2,rpm_obs_3,rpm_obs_4,rpm_ref_1,rpm_ref_2,rpm_ref_3,rpm_ref_4,ekf_X1,ekf_X2,ekf_X3,ekf_X4,ekf_X5,ekf_X6,ekf_X7,ekf_X8,ekf_X9,ekf_X10,ekf_X11,ekf_X12,ekf_X13,ekf_X14,ekf_X15,ekf_U1,ekf_U2,ekf_U3,ekf_U4,ekf_U5,ekf_U6,ekf_Z1,ekf_Z2,ekf_Z3,ekf_Z4,cmd_thrust,cmd_roll,cmd_pitch,cmd_yaw,pos_z_inverted
0 days 00:01:18.134583,-6.374283090909091,-3.1864781515151517,0.19671303030303022,0.09720772727272727,0.027722151515151512,0.17245118181818184,0.20527230303030294,-0.04300742424242425,-0.28261009090909095,0.017741575757575758,-0.04071957575757576,0.09876248484848485,0.305428,15.0,-73.0,0.361288,0.198655,0.327516,-2.935091,0.361288,285.6363636363636,7883.121212121212,7588.484848484848,7784.878787878788,7550.636363636364,7927.484848484848,7617.848484848485,7790.606060606061,7442.212121212121,-2.374283090909091,-2.1864781515151517,-0.5032869696969697,0.09720772727272727,0.027722151515151512,0.17245118181818184,0.017741575757575758,-0.04071957575757576,0.09876248484848485,0.14298551515151514,0.08179818181818181,0.3765425454545454,0.036396727272727275,-0.01633339393939394,0.01025,0.01512184848484851,-0.09762654545454544,-9.71860209090909,0.049020484848484855,0.03591084848484848,0.018236575757575757,-2.3515638484848487,-2.1822337575757573,-0.5077149393939394,0.03877412121212121,6628.757575757576,-19.333333333333332,156.0909090909091,-464.5151515151515,-0.19671303030303022
0 days 00:01:18.199583,-6.359273212121212,-3.182725696969697,0.20825415151515142,0.13280936363636364,0.04148787878787879,0.17251739393939394,0.21285039393939398,0.10011024242424241,0.12058269696969703,0.017789545454545454,-0.03639987878787879,0.09898687878787879,0.305428,15.0,-73.0,0.361288,0.198655,0.327516,-2.935091,0.361288,292.0,7891.181818181818,7643.515151515152,7781.393939393939,7484.484848484848,7904.454545454545,7585.727272727273,7799.909090909091,7501.666666666667,-2.359273212121212,-2.182725696969697,-0.49174584848484854,0.13280936363636364,0.04148787878787879,0.17251739393939394,0.017789545454545454,-0.03639987878787879,0.09898687878787879,0.142328,0.081907,0.376546,0.036395,-0.016319,0.01025,0.10703721212121209,0.06457163636363636,-9.316702242424242,-0.011703969696969695,0.10535030303030303,0.02832769696969697,-2.337429,-2.178675,-0.4998,0.030929999999999996,6633.606060606061,10.242424242424242,94.15151515151516,-435.3636363636364,-0.20825415151515142
0 days 00:01:18.264583,-6.337846272727273,-3.177233606060606,0.2188686363636363,0.17426463636363637,0.050671212121212124,0.16448478787878787,-0.10349548484848488,0.013028848484848497,0.1879255151515152,0.016083727272727274,-0.030884727272727272,0.09915572727272727,0.305428,13.848484848484848,-73.0,0.361288,0.198655,0.327516,-2.935091,0.361288,289.6969696969697,7925.636363636364,7620.363636363636,7780.636363636364,7464.272727272727,7933.363636363636,7631.606060606061,7746.636363636364,7479.333333333333,-2.3378462727272726,-2.177233606060606,-0.48113136363636366,0.17426463636363637,0.050671212121212124,0.16448478787878787,0.016083727272727274,-0.030884727272727272,0.09915572727272727,0.14156169696969695,0.08218733333333333,0.3765706060606061,0.03639236363636363,-0.016297030303030303,0.01025,-0.13745860606060606,0.021928303030303044,-9.242601818181818,-0.009173818181818184,0.08560463636363635,0.0163869696969697,-2.3139407575757573,-2.172532272727273,-0.48852954545454547,0.029196151515151515,6633.30303030303,17.242424242424242,169.21212121212122,-401.6969696969697,-0.2188686363636363
0 days 00:01:18.329583,-6.321149147058824,-3.172620882352941,0.22887958823529403,0.18615955882352941,0.05485538235294118,0.1561871176470588,-0.012745470588235282,-0.13322902941176473,-0.2732000294117647,0.01545885294117647,-0.022960088235294118,0.09964741176470587,0.305428,12.617647058823529,-73.0,0.361288,0.198655,0.327516,-2.935091,0.361288,286.8529411764706,7885.588235294118,7598.970588235294,7832.529411764706,7451.764705882353,7928.588235294118,7599.35294117647,7830.882352941177,7431.764705882353,-2.3211491470588235,-2.172620882352941,-0.4711204117647059,0.18615955882352941,0.05485538235294118,0.1561871176470588,0.01545885294117647,-0.022960088235294118,0.09964741176470587,0.14130299999999998,0.0823350588235294,0.3765872352941177,0.036391205882352944,-0.016287647058823528,0.01025,0.006893411764705893,-0.13720691176470587,-9.705078147058824,0.022547147058823526,0.09214876470588236,0.009421029411764707,-2.302585382352941,-2.169197823529412,-0.4840658823529412,0.025705882352941176,6633.205882352941,-34.85294117647059,132.35294117647058,-514.3235294117648,-0.22887958823529403
0 days 00:01:18.394583,-6.299057545454545,-3.1665447272727274,0.2379387272727272,0.19697090909090909,0.05871609090909091,0.1564647878787879,-0.05600606060606056,-0.06468863636363638,-0.25896900000000006,0.013175727272727273,-0.01685987878787879,0.09938466666666668,0.305428,12.0,-73.0,0.361288,0.198655,0.327516,-2.935091,0.361288,285.0,7927.30303030303,7545.333333333333,7832.757575757576,7480.363636363636,7915.272727272727,7545.727272727273,7839.333333333333,7505.575757575758,-2.2990575454545454,-2.1665447272727274,-0.46206127272727276,0.19697090909090909,0.05871609090909091,0.1564647878787879,0.013175727272727273,-0.01685987878787879,0.09938466666666668,0.140878,0.082638,0.376624,0.036389,-0.01627,0.01025,0.0508404242424243,-0.03619199999999999,-9.693033787878788,0.014263696969696971,0.0996241212121212,0.003662151515151515,-2.280042,-2.162289,-0.475985,0.016675,6638.575757575758,17.90909090909091,57.78787878787879,-496.3333333333333,-0.2379387272727272
0 days 00:01:18.459583,-6.278177575757576,-3.1605736363636363,0.2453804848484848,0.21649478787878787,0.06327569696969697,0.11571639393939394,-0.2893614242424242,-0.11502769696969697,-0.5532629393939394,0.013773333333333332,-0.01198960606060606,0.09900548484848484,0.305428,10.242424242424242,-72.12121212121212,0.361288,0.198655,0.327516,-2.935091,0.361288,299.06060606060606,7904.818181818182,7542.0,7874.757575757576,7436.151515151515,7948.69696969697,7557.393939393939,7816.939393939394,7420.575757575758,-2.2781775757575757,-2.1605736363636363,-0.45461951515151516,0.21649478787878787,0.06327569696969697,0.11571639393939394,0.013773333333333332,-0.01198960606060606,0.09900548484848484,0.14082709090909093,0.08298481818181819,0.37666409090909087,0.03638645454545454,-0.016254727272727275,0.010250636363636363,-0.1529060303030303,-0.06229284848484849,-9.98561793939394,0.01652024242424242,0.038514939393939386,-0.005023424242424242,-2.2598552727272727,-2.156155727272727,-0.4690524545454545,0.016095272727272725,6616.515151515152,-2.515151515151515,133.96969696969697,-556.0,-0.2453804848484848
0 days 00:01:18.524583,-6.25855203030303,-3.155138484848485,0.2510834242424242,0.23309530303030304,0.0616120303030303,0.09978678787878788,0.09567069696969698,-0.14380966666666667,-0.10741751515151512,0.013963909090909091,-0.0077814242424242425,0.09851021212121212,0.305428,9.272727272727273,-72.36363636363636,0.361288,0.198655,0.327516,-2.935091,0.361288,299.1818181818182,7904.787878787879,7591.242424242424,7771.636363636364,7432.757575757576,7835.30303030303,7600.424242424242,7823.69696969697,7460.333333333333,-2.25855203030303,-2.155138484848485,-0.44891657575757576,0.23309530303030304,0.0616120303030303,0.09978678787878788,0.013963909090909091,-0.0077814242424242425,0.09851021212121212,0.14080939393939396,0.08321124242424244,0.3766908181818182,0.03638475757575757,-0.01624478787878788,0.010251121212121211,0.2631687272727273,-0.11529360606060607,-9.542258545454546,0.08536784848484849,0.12155981818181817,0.008670727272727273,-2.2465161212121214,-2.152045848484849,-0.4646629393939394,0.014907818181818182,6608.121212121212,-64.15151515151516,75.66666666666667,-422.3333333333333,-0.2510834242424242
0 days 00:01:18.589583,-6.233020441176471,-3.1477277352941178,0.2544377647058823,0.2434323235294118,0.07027461764705882,0.077013,-0.33831767647058825,-0.06860488235294117,-0.23105752941176472,0.013406294117647058,-0.0008347058823529412,0.09925735294117648,0.305428,8.176470588235293,-72.82352941176471,0.361288,0.198655,0.327516,-2.935091,0.361288,296.0,7879.0,7529.882352941177,7787.5,7484.970588235294,7906.264705882353,7540.35294117647,7812.705882352941,7428.35294117647,-2.2330204411764707,-2.1477277352941178,-0.44556223529411765,0.2434323235294118,0.07027461764705882,0.077013,0.013406294117647058,-0.0008347058823529412,0.09925735294117648,0.140986,0.083649,0.37675,0.036381,-0.016226,0.010253,-0.09389367647058823,0.003963617647058839,-9.666589970588236,0.03975894117647059,0.08152147058823529,0.012422441176470587,-2.218556,-2.142666,-0.458028,0.001637,6596.794117647059,-9.235294117647058,102.5,-529.5882352941177,-0.2544377647058823
0 days 00:01:18.654583,-6.213723212121212,-3.1415143333333333,0.25864206060606054,0.2145011212121212,0.07537927272727273,0.09750460606060607,-0.776444787878788,0.0590650909090909,0.5043022121212122,0.01301469696969697,0.00497330303030303,0.09844872727272727,0.305428,9.0,-72.0,0.361288,0.198655,0.327516,-2.935091,0.361288,296.0,7856.454545454545,7519.333333333333,7847.757575757576,7502.969696969697,7823.363636363636,7485.727272727273,7875.30303030303,7548.727272727273,-2.213723212121212,-2.1415143333333333,-0.4413579393939394,0.2145011212121212,0.07537927272727273,0.09750460606060607,0.01301469696969697,0.00497330303030303,0.09844872727272727,0.14120281818181818,0.08383945454545455,0.37677681818181813,0.03637872727272727,-0.01621781818181818,0.010254363636363636,-0.47463909090909084,0.16258290909090914,-8.940962272727273,0.002382303030303031,0.09981648484848483,0.005763181818181818,-2.2042387272727275,-2.137794181818182,-0.4551039090909091,-0.0027984545454545454,6612.878787878788,5.636363636363637,-57.36363636363637,-468.75757575757575,-0.25864206060606054
0 days 00:01:18.719583,-6.195244454545454,-3.134446545454545,0.2637385151515151,0.20823860606060607,0.0806379090909091,0.09413927272727274,-0.025891939393939394,-0.32965069696969695,-0.2432965757575758,0.011209969696969697,0.005476878787878788,0.09805042424242424,0.305428,7.0,-72.66666666666667,0.361288,0.198655,0.327516,-2.935091,0.361288,294.0,7873.484848484848,7570.272727272727,7799.30303030303,7486.181818181818,7934.606060606061,7588.212121212121,7724.121212121212,7489.030303030303,-2.1952444545454544,-2.134446545454545,-0.43626148484848487,0.20823860606060607,0.0806379090909091,0.09413927272727274,0.011209969696969697,0.005476878787878788,0.09805042424242424,0.141463,0.084068,0.376809,0.036376,-0.016208,0.010256,0.255445,-0.25917381818181817,-9.679036454545455,-0.047962575757575766,-0.07739263636363636,0.016608848484848487,-2.187058,-2.131948,-0.451595,-0.008121,6613.848484848485,55.57575757575758,154.4848484848485,-410.3636363636364,-0.2637385151515151
0 days 00:01:18.784583,-6.1734354117647054,-3.1269137352941176,0.26635741176470584,0.22042179411764706,0.07275682352941176,0.0743965294117647,-0.3170398529411765,-0.1912890882352941,-0.17579867647058828,0.01004355882352941,0.004711941176470589,0.09860058823529412,0.305428,5.823529411764706,-73.0,0.361288,0.198655,0.327516,-2.935091,0.361288,294.94117647058823,7830.941176470588,7573.264705882353,7787.970588235294,7509.64705882353,7835.058823529412,7563.058823529412,7784.029411764706,7521.411764705882,-2.173435411764706,-2.1269137352941176,-0.4336425882352941,0.22042179411764706,0.07275682352941176,0.0743965294117647,0.01004355882352941,0.004711941176470589,0.09860058823529412,0.14212129411764707,0.084595,0.3768700882352941,0.036373264705882355,-0.016193411764705883,0.010257823529411764,-0.01450479411764706,-0.08616729411764708,-9.615090794117648,0.02276973529411765,0.024184264705882353,0.025196764705882353,-2.161583294117647,-2.1231075294117647,-0.44728417647058827,-0.004469382352941176,6602.441176470588,4.735294117647059,46.23529411764706,-377.38235294117646,-0.26635741176470584
0 days 00:01:18.849583,-6.155685909090909,-3.1209519696969696,0.26948109090909084,0.20792327272727273,0.07225118181818181,0.07445818181818183,-0.6002283333333334,-0.03970924242424242,0.26771663636363635,0.010178212121212121,0.006348757575757576,0.09944778787878787,0.305428,5.0,-73.0,0.361288,0.198655,0.327516,-2.935091,0.361288,304.0,7839.484848484848,7545.848484848485,7798.030303030303,7536.454545454545,7791.909090909091,7597.636363636364,7806.030303030303,7511.636363636364,-2.1556859090909093,-2.1209519696969696,-0.4305189090909091,0.20792327272727273,0.07225118181818181,0.07445818181818183,0.010178212121212121,0.006348757575757576,0.09944778787878787,0.14252260606060607,0.08486660606060606,0.37690357575757577,0.03637142424242425,-0.01618648484848485,0.010259181818181818,-0.26728227272727273,0.09144181818181818,-9.177142515151516,0.1008300909090909,-0.0015832727272727227,0.01691230303030303,-2.1487400606060607,-2.1184839696969697,-0.4456820303030303,-0.006418181818181818,6603.666666666667,-49.93939393939394,35.96969696969697,-344.7878787878788,-0.26948109090909084
0 days 00:01:18.914583,-6.138362424242424,-3.114521515151515,0.2725347575757575,0.18594281818181818,0.07518721212121211,0.08609554545454545,-0.5950196666666668,-0.1719221818181818,0.07455527272727275,0.00988560606060606,0.0056377575757575755,0.10109018181818182,0.305428,5.0,-73.0,0.361288,0.198655,0.327516,-2.935091,0.361288,309.8181818181818,7913.424242424242,7530.69696969697,7798.787878787879,7515.666666666667,7932.454545454545,7479.515151515152,7850.848484848485,7472.909090909091,-2.138362424242424,-2.114521515151515,-0.42746524242424244,0.18594281818181818,0.07518721212121211,0.08609554545454545,0.00988560606060606,0.0056377575757575755,0.10109018181818182,0.143042,0.085206,0.376946,0.036369,-0.016178,0.010261,-0.26580266666666674,-0.028852939393939417,-9.367483454545456,0.021491757575757574,-0.020056515151515155,0.02271239393939394,-2.132774,-2.112687,-0.443859,-0.00996,6613.787878787879,37.39393939393939,44.09090909090909,-586.5151515151515,-0.2725347575757575
0 days 00:01:18.979583,-6.121742787878787,-3.107980909090909,0.2747295454545454,0.17195833333333332,0.07240912121212122,0.08393639393939394,-0.44898175757575753,-0.17997112121212122,0.1605656666666667,0.010019939393939394,0.002538757575757576,0.09999242424242424,0.305428,5.0,-73.0,0.361288,0.198655,0.327516,-2.935091,0.361288,311.5151515151515,7978.727272727273,7508.515151515152,7846.969696969697,7409.909090909091,7967.727272727273,7525.484848484848,7843.606060606061,7401.515151515152,-2.121742787878788,-2.107980909090909,-0.42527045454545453,0.17195833333333332,0.07240912121212122,0.08393639393939394,0.010019939393939394,0.002538757575757576,0.09999242424242424,0.14386851515151514,0.08580069696969697,0.3770126666666666,0.03636672727272727,-0.01616739393939394,0.010263272727272727,-0.1397668484848485,-0.06318057575757575,-9.282108181818183,0.049678878787878786,-0.06518545454545455,-0.008744636363636364,-2.1134300606060603,-2.1055673030303033,-0.44298930303030304,-0.00954787878787879,6614.727272727273,0.09090909090909091,123.84848484848484,-624.2424242424242,-0.2747295454545454
0 days 00:01:19.044583,-6.107445176470588,-3.1023668235294117,0.2774490882352941,0.16246082352941177,0.06779347058823529,0.071911,-0.3850165882352941,-0.24250511764705884,-0.13238470588235288,0.010099470588235295,0.0021715,0.09879741176470588,0.305428,5.0,-73.0,0.361288,0.198655,0.327516,-2.935091,0.361288,312.0,7866.64705882353,7474.029411764706,7888.14705882353,7487.35294117647,7934.088235294118,7460.058823529412,7814.941176470588,7512.294117647059,-2.107445176470588,-2.1023668235294117,-0.4225509117647059,0.16246082352941177,0.06779347058823529,0.071911,0.010099470588235295,0.0021715,0.09879741176470588,0.14446264705882353,0.08622723529411765,0.37705941176470587,0.036365529411764706,-0.016161176470588238,0.010264470588235295,-0.05957032352941179,-0.1312902941176471,-9.572782735294117,-0.05666211764705882,-0.049998588235294114,0.009622,-2.1018489411764705,-2.1013141764705883,-0.4430392352941177,-0.009873882352941177,6608.676470588235,85.6470588235294,33.55882352941177,-548.2058823529412,-0.2774490882352941
0 days 00:01:19.109583,-6.092349545454546,-3.096477090909091,0.2781066666666666,0.1465761212121212,0.06185457575757576,0.06734769696969697,-0.36941666666666667,-0.29176566666666665,-0.45470490909090905,0.010190272727272727,-0.0018178181818181817,0.09835548484848486,0.305428,4.03030303030303,-73.0,0.361288,0.198655,0.327516,-2.935091,0.361288,302.3030303030303,7872.969696969697,7542.272727272727,7840.818181818182,7466.69696969697,7771.030303030303,7562.878787878788,7876.969696969697,7502.939393939394,-2.0923495454545455,-2.096477090909091,-0.42189333333333334,0.1465761212121212,0.06185457575757576,0.06734769696969697,0.010190272727272727,-0.0018178181818181817,0.09835548484848486,0.145534,0.086995,0.377142,0.036364,-0.016152,0.010266,-0.04876887878787878,-0.173621,-9.893110848484849,0.11154266666666666,0.0002292727272727261,0.008049181818181818,-2.084328,-2.094896,-0.444106,-0.011362,6606.030303030303,-82.87878787878788,-23.09090909090909,-410.8787878787879,-0.2781066666666666
0 days 00:01:19.174583,-6.078971303030303,-3.0912130606060604,0.2775242727272727,0.12646569696969698,0.06150912121212121,0.058500393939393935,-0.7252556666666667,-0.08237554545454545,0.23648169696969693,0.01010769696969697,-0.004581818181818182,0.09914242424242424,0.305428,4.0,-73.0,0.361288,0.198655,0.327516,-2.935091,0.361288,315.6363636363636,7887.212121212121,7481.969696969697,7839.69696969697,7481.757575757576,7910.151515151515,7519.0,7853.272727272727,7411.727272727273,-2.078971303030303,-2.0912130606060604,-0.42247572727272725,0.12646569696969698,0.06150912121212121,0.058500393939393935,0.01010769696969697,-0.004581818181818182,0.09914242424242424,0.14669375757575756,0.08787945454545454,0.37722981818181817,0.036362606060606054,-0.016142939393939394,0.010267393939393939,-0.43187730303030303,0.056818212121212096,-9.205729121212121,0.0507960606060606,-0.08907430303030303,0.00036993939393939403,-2.069861696969697,-2.089351606060606,-0.4463781212121212,-0.00864939393939394,6599.090909090909,-25.181818181818183,81.87878787878788,-587.7878787878788,-0.2775242727272727
0 days 00:01:19.239583,-6.068486529411764,-3.0864234411764704,0.2788505882352941,0.11714244117647059,0.06307444117647058,0.06145467647058824,-0.40012508823529414,-0.09351402941176472,0.12073208823529413,0.009422117647058822,-0.009448235294117648,0.09886494117647059,0.305428,4.0,-73.55882352941177,0.361288,0.198655,0.327516,-2.935091,0.361288,317.7647058823529,7909.470588235294,7582.205882352941,7764.882352941177,7440.617647058823,7946.441176470588,7562.64705882353,7757.794117647059,7434.205882352941,-2.0684865294117647,-2.0864234411764704,-0.4211494117647059,0.11714244117647059,0.06307444117647058,0.06145467647058824,0.009422117647058822,-0.009448235294117648,0.09886494117647059,0.14738091176470586,0.08840094117647058,0.3772811470588235,0.036361823529411766,-0.016137764705882355,0.010268,-0.17049635294117646,0.02389705882352943,-9.317985882352941,-0.014713147058823529,-0.08282102941176471,0.01941629411764706,-2.0617165882352944,-2.0862874411764705,-0.4478066470588235,-0.007331911764705883,6601.529411764706,29.970588235294116,158.3235294117647,-499.3235294117647,-0.2788505882352941
0 days 00:01:19.304583,-6.053922393939394,-3.0808693636363635,0.2751706666666666,0.13112354545454546,0.06055451515151515,0.03374318181818182,0.02750657575757574,-0.22458763636363638,-0.39001387878787874,0.008791939393939394,-0.011653545454545455,0.09878354545454544,0.305428,4.0,-74.0,0.361288,0.198655,0.327516,-2.935091,0.361288,316.0,7899.909090909091,7596.121212121212,7757.0,7415.848484848485,7892.909090909091,7569.454545454545,7745.0,7440.818181818182,-2.053922393939394,-2.0808693636363635,-0.42482933333333334,0.13112354545454546,0.06055451515151515,0.03374318181818182,0.008791939393939394,-0.011653545454545455,0.09878354545454544,0.149271,0.089816,0.377417,0.03636,-0.016125,0.010268,0.24612327272727275,-0.12047227272727273,-9.826142393939394,0.00471269696969697,0.013686666666666672,0.026810999999999998,-2.042544,-2.079534,-0.45236,-0.005905,6582.878787878788,9.545454545454545,138.0909090909091,-443.09090909090907,-0.2751706666666666
0 days 00:01:19.369583,-6.041501727272728,-3.0765286969696968,0.2723019696969697,0.15772539393939394,0.057783545454545455,-0.0007741212121212122,0.18995569696969694,-0.1469837575757576,-0.5513037575757576,0.007499878787878788,-0.006297818181818182,0.09915427272727273,0.305428,5.515151515151516,-74.0,0.361288,0.198655,0.327516,-2.935091,0.361288,323.57575757575756,7902.515151515152,7458.969696969697,7813.363636363636,7420.969696969697,7891.454545454545,7438.939393939394,7834.272727272727,7416.393939393939,-2.041501727272727,-2.0765286969696968,-0.4276980303030303,0.15772539393939394,0.057783545454545455,-0.0007741212121212122,0.007499878787878788,-0.006297818181818182,0.09915427272727273,0.15046615151515152,0.09063096969696968,0.3774937575757576,0.03636,-0.016118818181818182,0.010268,0.4516750606060606,-0.04432993939393939,-9.986535242424242,0.031790060606060606,0.11462033333333334,-0.011237818181818182,-2.033133212121212,-2.076445151515152,-0.4550712424242424,-0.0060796363636363634,6559.242424242424,17.393939393939394,39.84848484848485,-614.3939393939394,-0.2723019696969697
0 days 00:01:19.434583,-6.027597757575757,-3.0723141515151515,0.2676353333333333,0.16753269696969697,0.05574821212121212,-0.0190740303030303,-0.5239494242424243,-0.23545627272727274,0.40157906060606063,0.007927060606060606,-0.00012027272727272729,0.09799596969696969,0.305428,6.0,-74.0,0.361288,0.198655,0.327516,-2.935091,0.361288,323.8181818181818,7844.636363636364,7453.333333333333,7784.787878787879,7422.363636363636,7858.181818181818,7516.515151515152,7758.757575757576,7402.969696969697,-2.0275977575757573,-2.0723141515151515,-0.4323646666666667,0.16753269696969697,0.05574821212121212,-0.0190740303030303,0.007927060606060606,-0.00012027272727272729,0.09799596969696969,0.151591,0.091398,0.377566,0.03636,-0.016113,0.010268,-0.18966021212121212,-0.08173521212121211,-9.041429878787879,0.07040869696969697,0.027439939393939395,0.0026854545454545456,-2.024276,-2.073538,-0.457623,-0.006244,6543.484848484848,-7.151515151515151,106.21212121212122,-492.1515151515151,-0.2676353333333333
0 days 00:01:19.499583,-6.013101529411765,-3.068073235294118,0.26068888235294113,0.13726267647058824,0.048051823529411765,0.003416088235294118,-0.6493474411764707,-0.2237960294117647,0.001962970588235266,0.00902185294117647,0.0022244705882352943,0.0981829411764706,0.305428,5.294117647058823,-74.0,0.361288,0.198655,0.327516,-2.935091,0.361288,324.11764705882354,7858.64705882353,7498.617647058823,7781.088235294118,7425.941176470588,7840.705882352941,7453.823529411765,7821.176470588235,7455.794117647059,-2.013101529411765,-2.068073235294118,-0.4393111176470588,0.13726267647058824,0.048051823529411765,0.003416088235294118,0.00902185294117647,0.0022244705882352943,0.0981829411764706,0.153544,0.09264711764705882,0.37768999999999997,0.03635908823529412,-0.016103882352941176,0.010268911764705882,-0.2749598235294118,-0.06689452941176471,-9.440314852941176,0.0420065294117647,0.06315344117647059,0.009988176470588236,-2.0071229705882354,-2.06782305882353,-0.46348473529411766,-0.011506705882352941,6555.85294117647,10.823529411764707,8.764705882352942,-530.9705882352941,-0.26068888235294113
0 days 00:01:19.564583,-6.003011636363636,-3.065003878787879,0.25839227272727266,0.1261160303030303,0.03512315151515152,0.003028727272727273,-0.30648572727272727,-0.25374336363636363,0.041355606060606065,0.009892393939393939,0.001847030303030303,0.09797990909090909,0.305428,4.0,-74.0,0.361288,0.198655,0.327516,-2.935091,0.361288,328.0,7874.060606060606,7490.666666666667,7797.0,7382.30303030303,7924.69696969697,7500.666666666667,7788.30303030303,7352.242424242424,-2.0030116363636363,-2.065003878787879,-0.4416077272727273,0.1261160303030303,0.03512315151515152,0.003028727272727273,0.009892393939393939,0.001847030303030303,0.09797990909090909,0.15429645454545457,0.09315063636363637,0.3777404545454545,0.03635872727272728,-0.01610081818181818,0.010269272727272728,0.03509696969696967,-0.13840551515151514,-9.396898666666667,0.05514621212121212,-0.058364393939393945,0.002552393939393939,-2.000836181818182,-2.0657364545454544,-0.4661086363636364,-0.013703909090909091,6553.909090909091,-6.151515151515151,142.15151515151516,-606.969696969697,-0.25839227272727266
0 days 00:01:19.629583,-5.991890606060606,-3.0621773636363634,0.2528074545454545,0.12052393939393939,0.02889181818181818,-0.009032151515151516,-0.30384609090909087,-0.37485996969696966,-0.049945151515151526,0.011301242424242425,0.0006734242424242424,0.09715072727272726,0.305428,3.1515151515151514,-74.0,0.361288,0.198655,0.327516,-2.935091,0.361288,333.09090909090907,7861.363636363636,7488.757575757576,7767.757575757576,7402.757575757576,7847.333333333333,7504.272727272727,7759.424242424242,7421.727272727273,-1.9918906060606059,-2.0621773636363634,-0.44719254545454545,0.12052393939393939,0.02889181818181818,-0.009032151515151516,0.011301242424242425,0.0006734242424242424,0.09715072727272726,0.155799,0.094171,0.377843,0.036358,-0.016095,0.01027,0.028142818181818224,-0.2524266060606061,-9.485381151515153,0.05649266666666666,0.0008064545454545504,0.008041939393939395,-1.988498,-2.061647,-0.471593,-0.018205,6542.121212121212,2.6666666666666665,85.12121212121212,-480.5151515151515,-0.2528074545454545
0 days 00:01:19.694583,-5.981512117647059,-3.0598269705882353,0.24679149999999994,0.10347267647058823,0.0244435,-0.017373,-0.902592,0.014319499999999975,0.40984391176470586,0.01361335294117647,-0.0001066764705882353,0.09743020588235295,0.305428,3.0,-74.0,0.361288,0.198655,0.327516,-2.935091,0.361288,329.47058823529414,7840.970588235294,7576.382352941177,7699.441176470588,7405.705882352941,7834.205882352941,7582.529411764706,7673.705882352941,7417.558823529412,-1.981512117647059,-2.0598269705882353,-0.4532085,0.10347267647058823,0.0244435,-0.017373,0.01361335294117647,-0.0001066764705882353,0.09743020588235295,0.1571504705882353,0.09515188235294118,0.37793932352941173,0.036358,-0.016089117647058823,0.010271470588235293,-0.5826056470588237,0.1493854411764706,-9.037425294117648,0.05598005882352941,-0.02641741176470588,0.03214752941176471,-1.9772472647058825,-2.0587043529411764,-0.4763025588235294,-0.015320441176470589,6533.382352941177,-2.176470588235294,162.5,-358.2647058823529,-0.24679149999999994
0 days 00:01:19.759583,-5.974036909090909,-3.0576621818181815,0.24358127272727265,0.08861245454545455,0.02748739393939394,-0.00573769696969697,0.35549060606060606,-0.242304,-0.33147545454545446,0.014900333333333333,0.0024284242424242423,0.0995539696969697,0.305428,3.0,-74.0,0.361288,0.198655,0.327516,-2.935091,0.361288,327.0,7805.121212121212,7499.121212121212,7777.666666666667,7457.242424242424,7819.848484848485,7480.454545454545,7825.69696969697,7403.0,-1.9740369090909091,-2.0576621818181815,-0.4564187272727273,0.08861245454545455,0.02748739393939394,-0.00573769696969697,0.014900333333333333,0.0024284242424242423,0.0995539696969697,0.15784427272727272,0.09565554545454547,0.37798903030303027,0.036357878787878786,-0.01608615151515152,0.010272242424242425,0.6700698787878788,-0.2027699393939394,-9.758611575757575,0.07138527272727273,0.02486539393939394,0.03481593939393939,-1.9716675454545458,-2.0571797878787876,-0.47874066666666665,-0.014252060606060607,6540.787878787879,-41.54545454545455,35.666666666666664,-537.969696969697,-0.24358127272727265
0 days 00:01:19.824583,-5.964092303030303,-3.0550154545454546,0.23664606060606058,0.11920487878787879,0.02651587878787879,-0.03634827272727272,0.016965242424242435,-0.1745970303030303,-0.3649878181818181,0.01455439393939394,0.0027055454545454544,0.0985429090909091,0.305428,3.0,-74.0,0.361288,0.198655,0.327516,-2.935091,0.361288,327.0,7951.727272727273,7423.333333333333,7803.515151515152,7295.939393939394,7960.030303030303,7423.666666666667,7770.969696969697,7306.787878787879,-1.9640923030303028,-2.0550154545454546,-0.4633539393939394,0.11920487878787879,0.02651587878787879,-0.03634827272727272,0.01455439393939394,0.0027055454545454544,0.0985429090909091,0.159347,0.096747,0.378098,0.036357,-0.01608,0.010274,0.3440754545454546,-0.09694603030303028,-9.79657906060606,0.012606484848484848,-0.004150363636363635,-0.04014269696969697,-1.9605789999999998,-2.053807,-0.484125,-0.014035,6516.969696969697,35.96969696969697,152.75757575757575,-706.3030303030303,-0.23664606060606058
0 days 00:01:19.889583,-5.954987090909091,-3.0529794242424244,0.2302958484848484,0.1269999090909091,0.02360978787878788,-0.07574448484848485,-0.4432967272727273,-0.18491709090909092,-0.20345593939393944,0.01468669696969697,0.007044939393939394,0.09614315151515151,0.305428,3.6363636363636362,-70.81818181818181,0.361288,0.198655,0.327516,-2.935091,0.361288,331.45454545454544,7806.393939393939,7437.575757575758,7740.272727272727,7385.393939393939,7807.484848484848,7427.090909090909,7716.060606060606,7426.606060606061,-1.9549870909090907,-2.0529794242424244,-0.46970415151515155,0.1269999090909091,0.02360978787878788,-0.07574448484848485,0.01468669696969697,0.007044939393939394,0.09614315151515151,0.1600228787878788,0.09722845454545455,0.37814745454545456,0.036356515151515154,-0.016078060606060606,0.010275454545454546,-0.051343484848484826,-0.06844818181818181,-9.645951757575759,0.018162545454545456,0.05786142424242424,-0.004268818181818182,-1.9550575454545454,-2.0521866363636363,-0.48733178787878795,-0.015001303030303031,6487.242424242424,45.333333333333336,45.84848484848485,-472.8787878787879,-0.2302958484848484
0 days 00:01:19.954583,-5.946030705882353,-3.0509407352941174,0.22246270588235295,0.11209526470588235,0.023468882352941176,-0.06874341176470589,-0.2455884117647059,-0.20664052941176467,0.2151048823529412,0.01644635294117647,0.009906588235294118,0.09643632352941177,0.305428,3.5588235294117645,-71.20588235294117,0.361288,0.198655,0.327516,-2.935091,0.361288,326.05882352941177,7748.0,7468.764705882353,7719.35294117647,7436.323529411765,7749.323529411765,7480.5,7737.64705882353,7412.117647058823,-1.9460307058823527,-2.0509407352941174,-0.477537294117647,0.11209526470588235,0.023468882352941176,-0.06874341176470589,0.01644635294117647,0.009906588235294118,0.09643632352941177,0.160741,0.09774,0.3782,0.036356,-0.016076,0.010277,0.17420149999999998,-0.09294573529411763,-9.216882970588236,0.08559288235294117,0.005794735294117649,0.030668294117647057,-1.949191,-2.050465,-0.49073900000000004,-0.016028,6488.088235294118,-28.441176470588236,39.94117647058823,-419.47058823529414,-0.22246270588235295
0 days 00:01:20.019583,-5.938424181818181,-3.048819909090909,0.21474903030303027,0.102379,0.025674272727272726,-0.06065887878787878,-0.2616963636363636,-0.12236181818181818,-0.06499445454545452,0.019018090909090908,0.009592424242424243,0.09689554545454546,0.305428,2.515151515151515,-74.0,0.361288,0.198655,0.327516,-2.935091,0.361288,318.1818181818182,7764.606060606061,7475.454545454545,7757.575757575758,7380.515151515152,7743.454545454545,7479.121212121212,7769.818181818182,7389.242424242424,-1.9384241818181818,-2.048819909090909,-0.4852509696969697,0.102379,0.025674272727272726,-0.06065887878787878,0.019018090909090908,0.009592424242424243,0.09689554545454546,0.16159336363636365,0.09829951515151515,0.37826981818181815,0.036355030303030306,-0.016074060606060606,0.010280878787878787,0.15974190909090913,-0.047230060606060595,-9.502130696969697,0.06793027272727273,-0.00485321212121212,0.009795212121212121,-1.9400836060606064,-2.048311303030303,-0.496467,-0.01898169696969697,6488.818181818182,-58.06060606060606,31.666666666666668,-455.2121212121212,-0.21474903030303027
0 days 00:01:20.084583,-5.932184151515152,-3.0470172727272726,0.20963630303030295,0.0927420606060606,0.027332303030303033,-0.06584548484848485,-0.5775895757575759,-0.14207521212121213,0.5302232424242425,0.01643269696969697,0.009096151515151515,0.09759933333333334,0.305428,1.0,-74.0,0.361288,0.198655,0.327516,-2.935091,0.361288,325.0,7813.757575757576,7391.939393939394,7720.636363636364,7410.424242424242,7882.848484848485,7409.636363636364,7730.272727272727,7338.575757575758,-1.9321841515151514,-2.0470172727272726,-0.490363696969697,0.0927420606060606,0.027332303030303033,-0.06584548484848485,0.01643269696969697,0.009096151515151515,0.09759933333333334,0.16179233333333334,0.09840966666666667,0.37828733333333336,0.036355,-0.016074333333333336,0.010282333333333334,-0.17717215151515148,-0.007605333333333336,-8.91249412121212,0.011911060606060606,-0.07482524242424242,0.010061363636363637,-1.9374293333333334,-2.047552,-0.49810433333333337,-0.018031000000000002,6481.666666666667,40.78787878787879,111.75757575757575,-610.4545454545455,-0.20963630303030295
0 days 00:01:20.149583,-5.927514787878788,-3.045108393939394,0.2046077878787878,0.06458415151515151,0.026868030303030303,-0.044274212121212124,-0.31692036363636367,-0.19121166666666664,-0.07653703030303037,0.017444060606060605,0.007827515151515151,0.09617878787878788,0.305428,1.0,-74.72727272727273,0.361288,0.198655,0.327516,-2.935091,0.361288,323.54545454545456,7766.69696969697,7441.484848484848,7767.151515151515,7402.757575757576,7756.787878787879,7405.030303030303,7756.181818181818,7476.757575757576,-1.927514787878788,-2.045108393939394,-0.49539221212121215,0.06458415151515151,0.026868030303030303,-0.044274212121212124,0.017444060606060605,0.007827515151515151,0.09617878787878788,0.162137,0.098595,0.378318,0.036355,-0.016075,0.010285,0.07688200000000008,-0.08460581818181818,-9.512310575757576,-0.015299515151515147,-0.005163939393939389,0.012850727272727272,-1.93269,-2.046168,-0.501021,-0.015945,6493.424242424242,36.06060606060606,-35.45454545454545,-445.57575757575756,-0.2046077878787878
0 days 00:01:20.214583,-5.924457764705882,-3.044030382352941,0.20070820588235289,0.04824132352941176,0.019324735294117646,-0.04676744117647059,-0.4218915588235294,-0.18232579411764704,-0.19607952941176474,0.01599258823529412,0.005502882352941176,0.09537726470588236,0.305428,1.0,-74.47058823529412,0.361288,0.198655,0.327516,-2.935091,0.361288,327.7647058823529,7838.705882352941,7412.911764705882,7737.176470588235,7397.558823529412,7804.029411764706,7456.176470588235,7717.941176470588,7404.911764705882,-1.9244577647058823,-2.044030382352941,-0.49929179411764707,0.04824132352941176,0.019324735294117646,-0.04676744117647059,0.01599258823529412,0.005502882352941176,0.09537726470588236,0.16239464705882356,0.09863523529411766,0.37833564705882355,0.03635570588235294,-0.016076411764705884,0.010287117647058823,-0.07215073529411764,-0.04081458823529412,-9.634334764705883,0.06153064705882352,-0.06611911764705883,-0.013793941176470589,-1.9289325882352941,-2.045799529411765,-0.5028901764705883,-0.01385135294117647,6489.323529411765,17.441176470588236,68.5,-466.61764705882354,-0.20070820588235289
0 days 00:01:20.279583,-5.922188696969696,-3.042959666666667,0.19694148484848484,0.036360666666666666,0.021593,-0.052861151515151514,0.044045181818181824,-0.07742418181818181,-0.377042696969697,0.01857993939393939,0.003160909090909091,0.09596415151515152,0.305428,1.6666666666666667,-73.0,0.361288,0.198655,0.327516,-2.935091,0.361288,331.6666666666667,7711.393939393939,7487.545454545455,7714.393939393939,7438.30303030303,7747.181818181818,7492.060606060606,7720.878787878788,7406.636363636364,-1.9221886969696969,-2.042959666666667,-0.5030585151515151,0.036360666666666666,0.021593,-0.052861151515151514,0.01857993939393939,0.003160909090909091,0.09596415151515152,0.1625068484848485,0.09862669696969698,0.37834436363636365,0.036356151515151515,-0.01607730303030303,0.010288454545454545,0.3684601212121212,0.0007990303030303048,-9.809925454545454,0.07410769696969698,-0.05913384848484849,0.03838924242424242,-1.9269088181818184,-2.0454643333333338,-0.5040950606060606,-0.012933090909090908,6483.545454545455,-29.393939393939394,55.75757575757576,-401.93939393939394,-0.19694148484848484
0 days 00:01:20.344583,-5.9205931212121214,-3.0419417272727274,0.19244230303030307,0.028119545454545456,0.02660942424242424,-0.06550163636363637,-1.0036609696969698,-0.1712481212121212,0.634196303030303,0.017677454545454545,0.001042,0.09681939393939394,0.5992029090909091,2.909090909090909,-68.84848484848484,0.3503398787878788,0.1926351515151515,0.3175912727272727,-2.8457992727272723,0.3503398787878788,320.969696969697,7841.909090909091,7424.818181818182,7695.878787878788,7364.606060606061,7806.151515151515,7401.121212121212,7760.515151515152,7365.575757575758,-1.9205931212121212,-2.0419417272727274,-0.5075576969696969,0.028119545454545456,0.02660942424242424,-0.06550163636363637,0.017677454545454545,0.001042,0.09681939393939394,0.162534,0.098485,0.378352,0.036357,-0.016079,0.010291,-0.7363280909090909,-0.018939454545454548,-8.810694878787878,0.045750484848484846,-0.0063476969696969745,0.005141757575757576,-1.924343,-2.044447,-0.506481,-0.012676,6471.757575757576,5.03030303030303,40.484848484848484,-564.7272727272727,-0.19244230303030307
0 days 00:01:20.409583,-5.920773352941176,-3.0410080588235293,0.18952073529411761,-0.015615617647058825,0.02131844117647059,-0.059928352941176474,-0.1386255882352941,-0.1823520882352941,-1.3725313235294119,0.021243264705882354,-0.001669,0.09614561764705883,10.0,3.5294117647058822,-57.411764705882355,0.0081875,-0.0011665,0.0,0.09096361764705883,0.0784965,277.3529411764706,8264.117647058823,7482.176470588235,7997.764705882353,8115.85294117647,8848.79411764706,7951.588235294118,8363.323529411764,8823.764705882353,-1.9207733529411763,-2.0410080588235293,-0.5104792647058823,-0.015615617647058825,0.02131844117647059,-0.059928352941176474,0.021243264705882354,-0.001669,0.09614561764705883,0.16242894117647058,0.09821229411764706,0.37833970588235294,0.03635811764705882,-0.016079558823529412,0.010292676470588236,0.08114082352941178,-0.13286985294117648,-10.805979970588236,0.3919462647058824,-0.2202148529411765,0.011998735294117647,-1.9230336764705882,-2.0442983529411767,-0.5062569117647059,-0.010334529411764706,8093.794117647059,687.4705882352941,-202.85294117647058,-520.5882352941177,-0.18952073529411761
0 days 00:01:20.474583,-5.922102636363636,-3.0397666666666665,0.1798847272727273,-0.02316660606060606,0.04633518181818182,-0.30259636363636366,-0.017025212121212146,0.8247241515151514,-5.4093483939393945,0.09226381818181818,-0.03062657575757576,0.09642012121212121,10.0,4.0,-71.0,0.009133787878787878,-0.002664818181818182,0.0,-0.17762084848484846,0.055480575757575756,336.0,9472.848484848484,9478.636363636364,9312.666666666666,9140.181818181818,9061.030303030304,9021.818181818182,8923.787878787878,8508.545454545454,-1.9221026363636362,-2.0397666666666665,-0.5201152727272726,-0.02316660606060606,0.04633518181818182,-0.30259636363636366,0.09226381818181818,-0.03062657575757576,0.09642012121212121,0.16230196969696967,0.09796969696969697,0.3783285151515151,0.03635909090909091,-0.016079969696969697,0.010294090909090909,-0.1703657878787879,-0.2558001818181818,-14.86715796969697,1.3279844545454544,-0.486846,0.09113103030303031,-1.9219218484848484,-2.0441371818181815,-0.5065000303030303,-0.005424,8694.545454545454,-188.66666666666666,325.6666666666667,-590.6060606060606,-0.1798847272727273
0 days 00:01:20.539583,-5.92229106060606,-3.035660303030303,0.1551118787878788,-0.01024339393939394,0.13015542424242424,-0.4946647878787879,0.15364393939393944,1.130365090909091,-0.10560545454545453,0.14709939393939395,-0.042459,0.09975787878787878,10.0,3.212121212121212,-74.87878787878788,-0.006451181818181818,-0.0032093636363636365,0.0,-1.2419498787878789,-0.15215172727272727,328.72727272727275,8379.969696969696,7835.090909090909,8345.39393939394,7714.060606060606,8138.363636363636,7051.060606060606,8261.39393939394,7394.515151515152,-1.9222910606060606,-2.035660303030303,-0.5448881212121212,-0.01024339393939394,0.13015542424242424,-0.4946647878787879,0.14709939393939395,-0.042459,0.09975787878787878,0.160893,0.097096,0.378281,0.036362,-0.016079,0.010297,0.02897127272727276,-0.07679333333333334,-9.599905303030303,0.6778897575757575,-0.07461824242424242,-0.03610324242424243,-1.919421,-2.042735,-0.519941,0.09256,6652.454545454545,110.0909090909091,-232.84848484848484,-1379.4848484848485,-0.1551118787878788
0 days 00:01:20.604583,-5.9218961212121215,-3.0252615757575754,0.12536760606060593,-0.004153242424242425,0.22236048484848484,-0.4732755454545455,0.020204969696969687,1.504963878787879,-0.0025472121212120865,0.17328348484848485,-0.054416818181818184,0.09224175757575757,10.0,12.0,-74.0,0.004247,-0.001023,0.0,-2.539992303030303,0.106311,334.0,7988.848484848485,7903.484848484848,8160.969696969697,7403.030303030303,8050.30303030303,8237.363636363636,8103.575757575758,7600.424242424242,-1.9218961212121213,-2.0252615757575754,-0.574632393939394,-0.004153242424242425,0.22236048484848484,-0.4732755454545455,0.17328348484848485,-0.054416818181818184,0.09224175757575757,0.16012136363636364,0.09653818181818183,0.3782511818181818,0.036363454545454546,-0.016077545454545455,0.01029809090909091,-0.18894999999999998,0.035481757575757576,-9.545158636363636,0.020648454545454543,-0.2697457272727273,0.028349909090909092,-1.9177013636363638,-2.037696090909091,-0.5354395454545455,0.10774545454545455,7057.0,-344.6666666666667,291.3636363636364,-223.06060606060606,-0.12536760606060593
0 days 00:01:20.669583,-5.91986155882353,-3.0087141176470587,0.09637017647058821,0.02243944117647059,0.31968438235294117,-0.502232294117647,0.5460713823529412,1.0569194117647058,-0.7831423823529411,0.14727476470588236,-0.06195594117647058,0.09365761764705882,10.0,16.323529411764707,-71.52941176470588,0.008265235294117646,0.0022681764705882353,0.0,-4.210494323529412,0.08490864705882353,336.47058823529414,8196.79411764706,7797.735294117647,8143.029411764706,7579.5,8181.470588235294,7916.176470588235,8188.176470588235,7543.794117647059,-1.9198615588235295,-2.0087141176470587,-0.6036298235294117,0.02243944117647059,0.31968438235294117,-0.502232294117647,0.14727476470588236,-0.06195594117647058,0.09365761764705882,0.158771,0.095562,0.378199,0.036366,-0.016075,0.0103,0.2230870588235294,-0.27929697058823527,-10.275649088235294,-0.49072982352941175,-0.04510852941176471,-0.0002297647058823527,-1.9146920000000003,-2.028878,-0.562562,0.13432,6999.823529411765,-189.08823529411765,182.47058823529412,-642.0588235294117,-0.09637017647058821
0 days 00:01:20.734583,-5.914695090909091,-2.9865469696969695,0.06566736363636361,0.046458393939393945,0.3884310606060606,-0.5159986363636363,-0.02606081818181822,0.7218677575757576,-0.07903,0.09770560606060606,-0.0592439696969697,0.09316966666666666,10.0,19.363636363636363,-70.0,0.011078,0.004572,0.0,-5.867356212121212,0.069927,338.0,8317.575757575758,7623.757575757576,7944.969696969697,7657.060606060606,8352.969696969696,7670.121212121212,7953.909090909091,7736.212121212121,-1.914695090909091,-1.9865469696969698,-0.6343326363636363,0.046458393939393945,0.3884310606060606,-0.5159986363636363,0.09770560606060606,-0.0592439696969697,0.09316966666666666,0.15765524242424242,0.09460490909090909,0.3781438484848485,0.03636769696969697,-0.016070757575757575,0.010304242424242424,-0.29548412121212125,0.04589848484848484,-9.527314121212122,-0.7206883333333334,0.10748848484848485,-0.013028212121212121,-1.9087186666666667,-2.002467212121212,-0.6040257575757576,0.1045441212121212,6958.818181818182,232.21212121212122,166.3030303030303,-635.6060606060606,-0.06566736363636361
0 days 00:01:20.799583,-5.909652727272727,-2.9606373030303033,0.03368699999999991,0.059583636363636366,0.4315249696969697,-0.523944787878788,0.17250830303030304,0.24854081818181814,-0.1877739393939394,0.0654720909090909,-0.051435969696969695,0.09128739393939395,10.0,22.0,-70.0,0.011078,0.004572,0.0,-7.3126373939393945,0.069927,338.0,8208.030303030304,7772.121212121212,7890.818181818182,7742.484848484848,8220.39393939394,7793.0,7871.69696969697,7876.878787878788,-1.9096527272727273,-1.960637303030303,-0.666313,0.059583636363636366,0.4315249696969697,-0.523944787878788,0.0654720909090909,-0.051435969696969695,0.09128739393939395,0.1572990303030303,0.09410521212121213,0.378114303030303,0.03636921212121212,-0.01606787878787879,0.010307121212121212,-0.05456915151515149,-0.14624757575757577,-9.621833575757575,-0.3857274242424243,0.13074109090909092,0.013013424242424241,-1.904403212121212,-1.986100393939394,-0.6261942424242424,0.08584639393939393,6976.0,215.87878787878788,132.1818181818182,-298.030303030303,-0.03368699999999991
0 days 00:01:20.864583,-5.902028794117648,-2.932785705882353,0.0010424705882352558,0.08569764705882353,0.4538215294117647,-0.5390944117647058,0.3174692941176471,0.20854552941176469,0.03455376470588239,0.059824352941176474,-0.042870470588235295,0.09070279411764706,10.0,16.529411764705884,-71.82352941176471,0.010061529411764705,0.011547882352941175,0.0,-8.467551676470588,0.008226705882352942,338.0,8156.5,7406.676470588235,7597.205882352941,7856.5,8060.088235294118,7478.029411764706,7522.0,7789.5,-1.9020287941176472,-1.932785705882353,-0.6989575294117647,0.08569764705882353,0.4538215294117647,-0.5390944117647058,0.059824352941176474,-0.042870470588235295,0.09070279411764706,0.156938,0.093349,0.378069,0.036372,-0.016063,0.010312,0.17721738235294116,-0.12020332352941177,-9.403693823529412,0.4549416176470588,0.0595990588235294,-0.025649058823529414,-1.8969310000000001,-1.9593040000000002,-0.660152,0.055071,6653.941176470588,423.97058823529414,113.05882352941177,-221.97058823529412,-0.0010424705882352558
0 days 00:01:20.929583,-5.892349060606061,-2.9029899696969697,-0.031312454545454615,0.10536224242424243,0.4963285454545454,-0.5130875151515152,-0.08517842424242422,0.7185507878787879,0.48651936363636367,0.11140818181818182,-0.040287,0.08967275757575759,10.0,13.878787878787879,-72.42424242424242,0.005299969696969698,0.014578484848484848,0.0,-9.473672151515151,-0.0521910606060606,335.45454545454544,7664.060606060606,7698.787878787879,7606.393939393939,7520.151515151515,7730.545454545455,7683.848484848485,7572.939393939394,7548.484848484848,-1.8923490606060607,-1.9029899696969699,-0.7313124545454546,0.10536224242424243,0.4963285454545454,-0.5130875151515152,0.11140818181818182,-0.040287,0.08967275757575759,0.1565078181818182,0.09234051515151515,0.37802251515151514,0.036374363636363635,-0.01605748484848485,0.010319878787878788,-0.16018584848484846,-0.020389393939393933,-8.967625363636364,0.7317115454545455,-0.003514151515151515,0.054902,-1.8863253636363635,-1.9244994545454546,-0.7007836969696969,0.06840033333333333,6543.242424242424,10.969696969696969,146.36363636363637,-50.333333333333336,0.031312454545454615
0 days 00:01:20.994583,-5.88381106060606,-2.8696279696969693,-0.06205812121212129,0.11400772727272727,0.5597156969696969,-0.46315612121212124,-0.002778606060606052,1.019961,0.7496000606060607,0.14837018181818182,-0.03855457575757575,0.09033660606060606,10.0,10.787878787878787,-72.57575757575758,0.002839181818181818,0.017935272727272727,0.0,-10.387800333333333,-0.077119,334.969696969697,7657.545454545455,7490.606060606061,7657.666666666667,7289.0,7605.090909090909,7633.393939393939,7757.181818181818,7333.484848484848,-1.8838110606060605,-1.8696279696969695,-0.7620581212121212,0.11400772727272727,0.5597156969696969,-0.46315612121212124,0.14837018181818182,-0.03855457575757575,0.09033660606060606,0.15626836363636365,0.09189215151515151,0.3780039393939394,0.03637548484848485,-0.01605515151515152,0.010323454545454545,-0.03157551515151514,-0.04347187878787878,-8.738577212121212,0.4976326060606061,0.04379,-0.015824787878787883,-1.8814554545454545,-1.9086782121212122,-0.7180033636363636,0.07585651515151515,6470.272727272727,-225.6969696969697,73.87878787878788,-279.1515151515151,0.06205812121212129
0 days 00:01:21.059583,-5.872100363636363,-2.833274545454546,-0.08837712121212127,0.12502642424242424,0.628604,-0.4229169393939394,0.006745393939393942,0.7350398181818182,0.4221412121212121,0.1506568181818182,-0.038689666666666664,0.09007663636363637,10.0,10.0,-71.0,0.023792,0.018499,0.0,-11.253232242424243,0.172028,346.0,7813.242424242424,7614.727272727273,7736.363636363636,7351.424242424242,7924.030303030303,7645.878787878788,7770.424242424242,7387.424242424242,-1.8721003636363636,-1.8332745454545456,-0.7883771212121212,0.12502642424242424,0.628604,-0.4229169393939394,0.1506568181818182,-0.038689666666666664,0.09007663636363637,0.155372,0.09061,0.37796,0.036379,-0.016049,0.010334,-0.0451587575757576,-0.4096235151515151,-9.025568090909092,-0.19093281818181818,-0.024325363636363635,-0.002877909090909091,-1.86685,-1.86191,-0.763536,0.103896,6611.0,-52.303030303030305,205.63636363636363,-466.72727272727275,0.08837712121212127
0 days 00:01:21.124583,-5.861161529411765,-2.7912511764705883,-0.11419094117647066,0.12969870588235294,0.6902773529411764,-0.3965182352941176,-0.08214329411764706,0.7073086764705883,0.085531,0.1244434705882353,-0.03665441176470589,0.08866870588235294,10.0,11.0,-69.0,0.016628088235294117,0.019770470588235296,0.0,-11.999871382352941,-0.05730744117647058,343.0,7942.558823529412,7532.441176470588,7748.882352941177,7561.823529411765,7962.235294117647,7586.176470588235,7765.588235294118,7614.470588235294,-1.8611615294117647,-1.7912511764705883,-0.8141909411764706,0.12969870588235294,0.6902773529411764,-0.3965182352941176,0.1244434705882353,-0.03665441176470589,0.08866870588235294,0.1548575,0.08998864705882352,0.37793961764705886,0.03638147058823529,-0.016044676470588236,0.010341411764705882,-0.07082952941176467,-0.16903152941176472,-9.369513911764706,-0.40260935294117645,0.008343941176470592,-0.010620117647058823,-1.856871294117647,-1.8241631176470587,-0.7896643235294117,0.0937239705882353,6681.85294117647,112.38235294117646,84.0,-372.05882352941177,0.11419094117647066
0 days 00:01:21.189583,-5.850308575757576,-2.7451045151515148,-0.1400057272727273,0.15219121212121212,0.7410987272727272,-0.40984369696969697,0.18591681818181816,0.3998583636363636,-0.09930672727272727,0.09937181818181817,-0.037279454545454546,0.0874579090909091,10.0,10.787878787878787,-68.78787878787878,0.02062663636363636,0.020873727272727273,0.0,-12.555815666666668,-0.010142272727272722,345.969696969697,7996.0,7539.484848484848,7648.181818181818,7652.636363636364,8018.333333333333,7626.0,7609.606060606061,7636.181818181818,-1.850308575757576,-1.745104515151515,-0.8400057272727273,0.15219121212121212,0.7410987272727272,-0.40984369696969697,0.09937181818181817,-0.037279454545454546,0.0874579090909091,0.154539,0.089604,0.377927,0.036383,-0.016042,0.010346,0.18788460606060609,-0.2560960303030303,-9.53823393939394,-0.21936409090909093,-0.08598187878787879,-0.008197272727272728,-1.850694,-1.800796,-0.805839,0.087427,6668.30303030303,209.06060606060606,198.93939393939394,-258.2121212121212,0.1400057272727273
0 days 00:01:21.254583,-5.835813484848485,-2.6986804848484844,-0.16508612121212118,0.17659321212121212,0.7749948787878788,-0.40573157575757574,0.14176360606060603,0.21308381818181818,-0.1220148484848484,0.09240584848484848,-0.03824642424242424,0.08598518181818182,10.0,10.0,-68.0,0.039597,0.025665,0.0,-13.105497242424242,0.233374,357.0,7917.878787878788,7515.666666666667,7529.121212121212,7712.575757575758,7828.272727272727,7524.0,7610.909090909091,7736.333333333333,-1.8358134848484848,-1.6986804848484847,-0.8650861212121211,0.17659321212121212,0.7749948787878788,-0.40573157575757574,0.09240584848484848,-0.03824642424242424,0.08598518181818182,0.15379524242424242,0.08877490909090908,0.3778988787878788,0.03638881818181818,-0.01603618181818182,0.010359575757575758,0.16287869696969703,-0.37952766666666665,-9.550337363636364,0.10728133333333334,0.0395360303030303,0.01144509090909091,-1.8325170303030303,-1.7292643636363636,-0.8473963333333333,0.06770433333333332,6601.0,214.5151515151515,2.484848484848485,-126.27272727272727,0.16508612121212118
0 days 00:01:21.319583,-5.822469470588235,-2.6478765294117648,-0.1913700882352941,0.20752735294117647,0.8065088823529412,-0.41456444117647057,0.2395487647058824,0.3461954705882353,0.05184635294117646,0.09936794117647059,-0.03932464705882353,0.08593438235294117,10.0,5.0,-65.0,0.029541705882352942,0.0305325,0.0,-13.539144323529413,-0.03343294117647059,354.0,7696.794117647059,7571.205882352941,7569.205882352941,7496.470588235294,7715.529411764706,7498.323529411765,7510.941176470588,7499.0,-1.8224694705882354,-1.6478765294117648,-0.8913700882352941,0.20752735294117647,0.8065088823529412,-0.41456444117647057,0.09936794117647059,-0.03932464705882353,0.08593438235294117,0.1533575294117647,0.0884775294117647,0.3778895882352941,0.036390529411764704,-0.016034852941176472,0.010364205882352942,0.27691294117647053,-0.3191060882352941,-9.384880617647058,-0.04183429411764705,-0.05252629411764706,0.03460338235294118,-1.8251939705882354,-1.6963685000000002,-0.8647989411764706,0.06685438235294117,6433.088235294118,102.5,101.67647058823529,-161.7058823529412,0.1913700882352941
0 days 00:01:21.384583,-5.806340363636363,-2.595398909090909,-0.2175693333333334,0.23521975757575758,0.8382896060606061,-0.40092960606060607,-0.06396757575757582,0.2566285454545455,0.1351182727272727,0.09430739393939393,-0.042058000000000005,0.08504551515151515,10.0,2.5454545454545454,-65.81818181818181,0.03233809090909091,0.03863521212121212,0.0,-13.998082515151516,0.04320181818181818,357.27272727272725,7890.121212121212,7343.393939393939,7427.666666666667,7578.454545454545,7856.181818181818,7402.727272727273,7449.636363636364,7643.515151515152,-1.8063403636363635,-1.595398909090909,-0.9175693333333333,0.23521975757575758,0.8382896060606061,-0.40092960606060607,0.09430739393939393,-0.042058000000000005,0.08504551515151515,0.152688,0.088039,0.377876,0.036393,-0.016033,0.010371,-0.030776515151515218,-0.3436611212121212,-9.293146333333334,0.15430436363636363,-0.022956636363636363,-0.01753369696969697,-1.814282,-1.64684,-0.890813,0.066477,6478.424242424242,323.06060606060606,82.75757575757575,-183.21212121212122,0.2175693333333334
0 days 00:01:21.449583,-5.791618424242424,-2.542432,-0.2408048484848485,0.2229868181818182,0.8751745151515152,-0.37047863636363637,-0.5000281515151516,0.5302038787878788,0.6722692424242425,0.11543830303030303,-0.04265009090909091,0.08411757575757575,10.0,2.0,-65.6969696969697,0.040720727272727276,0.04006927272727273,0.0,-14.376714878787878,0.12586590909090908,363.45454545454544,7711.848484848485,7505.212121212121,7519.212121212121,7596.242424242424,7684.060606060606,7635.787878787879,7595.545454545455,7546.363636363636,-1.7916184242424242,-1.542432,-0.9408048484848485,0.2229868181818182,0.8751745151515152,-0.37047863636363637,0.11543830303030303,-0.04265009090909091,0.08411757575757575,0.15149672727272728,0.08717090909090909,0.37783836363636364,0.03639627272727273,-0.016033818181818184,0.01037509090909091,-0.42365057575757575,-0.19661445454545454,-8.768406696969697,0.4449352121212121,-0.057217666666666674,0.01285069696969697,-1.7994581818181818,-1.5805967272727273,-0.9192227272727272,0.06820909090909091,6517.090909090909,-0.5454545454545454,88.78787878787878,-68.9090909090909,0.2408048484848485
0 days 00:01:21.514583,-5.777564878787879,-2.4851774545454544,-0.2624798181818182,0.2274878787878788,0.9352626060606061,-0.33205542424242424,0.0004908787878787969,0.8153176666666667,0.5454654848484849,0.12577666666666665,-0.044024818181818186,0.08458969696969697,10.0,1.9090909090909092,-64.81818181818181,0.06077551515151515,0.03839078787878788,0.0,-14.793421333333333,0.2713171818181818,376.3636363636364,7800.393939393939,7584.363636363636,7651.181818181818,7584.272727272727,7886.757575757576,7584.757575757576,7601.212121212121,7570.545454545455,-1.7775648787878788,-1.4851774545454544,-0.9624798181818182,0.2274878787878788,0.9352626060606061,-0.33205542424242424,0.12577666666666665,-0.044024818181818186,0.08458969696969697,0.15093672727272728,0.08675418181818181,0.37781963636363636,0.03639754545454545,-0.016034545454545454,0.010376363636363637,0.04160763636363635,-0.08697327272727273,-8.934895818181818,-0.04413775757575758,-0.06992045454545455,0.019523878787878788,-1.7927198181818182,-1.5488823636363636,-0.931412,0.07100345454545454,6581.151515151515,135.45454545454547,149.66666666666666,-234.87878787878788,0.2624798181818182
0 days 00:01:21.579583,-5.763280882352941,-2.4241082058823533,-0.281090088235294,0.24394305882352943,0.9863456470588235,-0.30816111764705884,0.04606594117647059,0.32950494117647056,0.20215797058823531,0.11494644117647058,-0.04389420588235294,0.08407370588235295,10.0,1.0,-63.0,0.059652,0.041627,0.0,-15.253521352941178,0.051809,380.0,7851.117647058823,7494.088235294118,7626.705882352941,7548.264705882353,7832.705882352941,7463.441176470588,7623.64705882353,7598.14705882353,-1.7632808823529411,-1.424108205882353,-0.981090088235294,0.24394305882352943,0.9863456470588235,-0.30816111764705884,0.11494644117647058,-0.04389420588235294,0.08407370588235295,0.149608,0.085747,0.377773,0.0364,-0.016037,0.010378,0.10314226470588231,-0.4712201470588235,-9.221622264705884,-0.19303635294117646,0.024327941176470587,-0.0019172647058823527,-1.777221,-1.472411,-0.9578540000000001,0.081846,6537.0,171.55882352941177,37.05882352941177,-278.5882352941176,0.281090088235294
0 days 00:01:21.644583,-5.7488011212121215,-2.360079393939394,-0.29919039393939406,0.25393227272727276,1.0216057272727272,-0.2918681515151515,-0.1503409696969697,0.3585699393939394,0.3315357878787879,0.09958030303030303,-0.04334912121212121,0.0833800303030303,10.0,1.606060606060606,-61.78787878787879,0.05662236363636364,0.042725545454545454,0.0,-15.603592727272726,0.021979575757575757,380.0,7887.272727272727,7479.181818181818,7579.090909090909,7617.272727272727,7854.030303030303,7563.757575757576,7628.060606060606,7604.484848484848,-1.7488011212121213,-1.360079393939394,-0.999190393939394,0.25393227272727276,1.0216057272727272,-0.2918681515151515,0.09958030303030303,-0.04334912121212121,0.0833800303030303,0.14887563636363635,0.08507163636363636,0.37773903030303035,0.03640230303030303,-0.016040454545454545,0.010377424242424244,-0.0810842727272727,-0.28687260606060605,-9.10174006060606,-0.11155751515151516,-0.025250151515151514,-0.009647272727272727,-1.7661745151515151,-1.4145703939393939,-0.9747070000000001,0.0709060303030303,6583.636363636364,133.15151515151516,92.48484848484848,-221.5151515151515,0.29919039393939406
0 days 00:01:21.709583,-5.733692242424242,-2.2946195454545455,-0.31600042424242436,0.26210136363636366,1.050132393939394,-0.27017775757575757,-0.11862378787878788,0.19671163636363637,0.31226384848484845,0.08405145454545454,-0.04195575757575758,0.08359684848484848,10.0,1.7272727272727273,-60.81818181818182,0.05439,0.043535,0.0,-15.898389242424242,0.0,380.54545454545456,7908.575757575758,7490.666666666667,7619.757575757576,7746.969696969697,7933.212121212121,7426.060606060606,7639.545454545455,7745.030303030303,-1.7336922424242425,-1.2946195454545455,-1.0160004242424243,0.26210136363636366,1.050132393939394,-0.27017775757575757,0.08405145454545454,-0.04195575757575758,0.08359684848484848,0.14831145454545455,0.08454387878787878,0.377712303030303,0.036404121212121214,-0.01604327272727273,0.010376939393939395,-0.030332545454545463,-0.32413003030303034,-9.114701757575759,-0.2063209696969697,0.01630572727272727,0.009306969696969697,-1.757477,-1.3688852424242424,-0.9878973333333333,0.06259678787878788,6616.727272727273,305.90909090909093,-12.666666666666666,-283.42424242424244,0.31600042424242436
