time,pos_x,pos_y,pos_z,vel_x,vel_y,vel_z,acc_x,acc_y,acc_z,att_phi,att_theta,att_psi,distance_est,centroid_x,centroid_y,divergence,true_divergence,divergence_sp,dt,raw_divergence,color_count,mu_x,p_output,i_output,mu_y, mu_z,rpm_obs_1,rpm_obs_2,rpm_obs_3,rpm_obs_4,rpm_ref_1,rpm_ref_2,rpm_ref_3,rpm_ref_4,ekf_X1,ekf_X2,ekf_X3,ekf_X4,ekf_X5,ekf_X6,ekf_X7,ekf_X8,ekf_X9,ekf_X10,ekf_X11,ekf_X12,ekf_X13,ekf_X14,ekf_X15,ekf_U1,ekf_U2,ekf_U3,ekf_U4,ekf_U5,ekf_U6,ekf_Z1,ekf_Z2,ekf_Z3,ekf_Z4,cmd_thrust,cmd_roll,cmd_pitch,cmd_yaw
0 days 00:00:20.004502,-3.8835098787878786,-1.7062913333333332,-0.2838631818181817,0.06117187878787879,-0.07453709090909091,0.017966727272727273,0.014600818181818196,0.23266718181818183,0.29960872727272736,0.02932921212121212,-0.01139160606060606,-0.17004636363636363,10.0,-11.818181818181818,-117.27272727272727,0.0,0.0,0.0,0.065,0.0,792.3636363636364,0.0,0.0,0.0,0.0,0.0,7620.30303030303,7671.30303030303,7553.969696969697,7566.424242424242,7628.69696969697,7679.0,7558.969696969697,7550.69696969697,0.016490121212121213,-2.206291333333333,-0.9838631818181817,0.06117187878787879,-0.07453709090909091,0.017966727272727273,0.02932921212121212,-0.01139160606060606,-0.17004636363636363,-0.14425333333333334,0.09906166666666666,0.19139466666666666,-0.0011993333333333335,-0.019636,0.002616,-0.4729522121212121,0.02290481818181821,-9.316051121212121,0.05909684848484849,-0.05327448484848485,0.01391609090909091,0.022857333333333334,-2.199846,-1.0042636666666667,0.015596,6501.424242424242,-29.303030303030305,98.96969696969697,29.606060606060606
0 days 00:00:20.069502,-3.876933424242424,-1.7103722424242425,-0.28689866666666675,0.05444633333333333,-0.06318781818181818,0.015637878787878787,-0.20122451515151513,0.4118740303030303,0.17944484848484848,0.030949454545454544,-0.015353333333333333,-0.16975754545454547,10.0,-14.0,-118.0,0.0,0.0,0.0,0.065,0.0,791.6363636363636,0.0,0.0,0.0,0.0,0.0,7683.0,7685.878787878788,7545.787878787879,7495.333333333333,7694.393939393939,7669.333333333333,7563.151515151515,7483.393939393939,0.023066575757575758,-2.2103722424242425,-0.9868986666666667,0.05444633333333333,-0.06318781818181818,0.015637878787878787,0.030949454545454544,-0.015353333333333333,-0.16975754545454547,-0.141344,0.095707,0.191682,-0.001206,-0.019614,0.00261,-0.7405599393939394,0.15462242424242423,-9.432291787878787,-0.001302121212121211,-0.06364672727272727,-0.0027447272727272724,0.028824,-2.204428,-1.007829,0.016372,6498.878787878788,-27.21212121212121,158.24242424242425,-73.93939393939394
0 days 00:00:20.134502,-3.8710387575757577,-1.7126891212121214,-0.29200903030303027,0.027407636363636363,-0.04600633333333333,0.005449515151515151,-0.3030707878787879,0.048051909090909124,-0.15268560606060605,0.028471606060606062,-0.016949454545454545,-0.16986954545454544,10.0,-14.0,-118.0,0.0,0.0,0.0,0.065,0.0,798.0,0.0,0.0,0.0,0.0,0.0,7638.727272727273,7670.30303030303,7536.939393939394,7537.393939393939,7632.757575757576,7677.060606060606,7522.545454545455,7552.545454545455,0.028961242424242424,-2.2126891212121214,-0.9920090303030302,0.027407636363636363,-0.04600633333333333,0.005449515151515151,0.028471606060606062,-0.016949454545454545,-0.16986954545454544,-0.13755260606060607,0.09151354545454546,0.1920972121212121,-0.0012182121212121213,-0.019588636363636364,0.002582757575757576,-0.8010475151515152,-0.22567466666666663,-9.752308303030302,-0.05375539393939394,-0.035592757575757576,0.013301969696969698,0.03564963636363636,-2.208038090909091,-1.0134822727272728,0.021268121212121214,6489.909090909091,-7.212121212121212,117.0909090909091,52.484848484848484
0 days 00:00:20.199502,-3.868048705882353,-1.7142337647058823,-0.29505361764705884,0.018450235294117646,-0.024013764705882353,-0.007101088235294118,0.3018039117647059,0.3828955,-0.17459670588235293,0.025316058823529414,-0.019884764705882352,-0.16905464705882353,10.0,-13.147058823529411,-118.0,0.0,0.0,0.0,0.065,0.0,793.7352941176471,0.0,0.0,0.0,0.0,0.0,7681.882352941177,7655.35294117647,7534.735294117647,7496.588235294118,7688.735294117647,7648.294117647059,7536.705882352941,7485.911764705882,0.03195129411764706,-2.2142337647058823,-0.9950536176470588,0.018450235294117646,-0.024013764705882353,-0.007101088235294118,0.025316058823529414,-0.019884764705882352,-0.16905464705882353,-0.13553700000000002,0.08964988235294118,0.19230888235294116,-0.001227235294117647,-0.019575058823529414,0.002564117647058824,-0.28690835294117656,0.22297220588235292,-9.800034470588235,-0.0505515,-0.06426647058823529,7.20588235294124e-06,0.03876317647058823,-2.2083961764705884,-1.0167577647058823,0.022179,6481.088235294118,-5.117647058823529,157.0,-64.29411764705883
0 days 00:00:20.264502,-3.8646367272727273,-1.7140416363636364,-0.2998472121212121,0.01617581818181818,-0.00883930303030303,-0.02147430303030303,0.0002498181818181928,0.21011148484848485,-0.04681218181818181,0.021869151515151515,-0.02329151515151515,-0.16951154545454544,10.0,-13.0,-118.66666666666667,0.0,0.0,0.0,0.065,0.0,798.3333333333334,0.0,0.0,0.0,0.0,0.0,7698.363636363636,7660.242424242424,7508.181818181818,7464.939393939394,7693.636363636364,7642.939393939394,7511.242424242424,7477.060606060606,0.03536327272727272,-2.2140416363636364,-0.9998472121212121,0.01617581818181818,-0.00883930303030303,-0.02147430303030303,0.021869151515151515,-0.02329151515151515,-0.16951154545454544,-0.133007,0.087374,0.192573,-0.001239,-0.019558,0.00254,-0.5949336666666667,0.04125230303030299,-9.656368393939395,-0.06232248484848485,-0.02339309090909091,-0.011437666666666665,0.042582,-2.208575,-1.020916,0.023029,6468.727272727273,8.242424242424242,173.87878787878788,-59.90909090909091
0 days 00:00:20.329502,-3.8604626666666664,-1.7120605757575755,-0.3068664545454547,0.01787406060606061,0.007039545454545455,-0.03682175757575757,0.2527220909090909,0.11944424242424241,-0.46173063636363637,0.018134969696969698,-0.022986848484848485,-0.17024666666666666,10.0,-13.0,-118.24242424242425,0.0,0.0,0.0,0.065,0.0,810.8484848484849,0.0,0.0,0.0,0.0,0.0,7656.878787878788,7633.787878787879,7496.878787878788,7510.636363636364,7642.030303030303,7656.272727272727,7464.393939393939,7519.454545454545,0.039537333333333334,-2.2120605757575755,-1.0068664545454546,0.01787406060606061,0.007039545454545455,-0.03682175757575757,0.018134969696969698,-0.022986848484848485,-0.17024666666666666,-0.12925984848484848,0.08476136363636365,0.19293593939393938,-0.0012592121212121213,-0.01953339393939394,0.0024951818181818183,-0.3294271212121212,0.0013020909090908765,-10.082149606060606,-0.04060136363636364,-0.02396278787878788,-0.011792727272727272,0.0472870303030303,-2.206733060606061,-1.026947121212121,0.023236393939393942,6453.606060606061,20.454545454545453,157.0,49.03030303030303
0 days 00:00:20.394502,-3.857787909090909,-1.7106021212121214,-0.3122847272727274,0.02578666666666667,0.013556272727272728,-0.0674800909090909,0.2839780606060606,0.08646418181818186,-0.2986112424242425,0.016969454545454548,-0.023119,-0.17005636363636364,10.0,-13.242424242424242,-118.24242424242425,0.0,0.0,0.0,0.065,0.0,811.0909090909091,0.0,0.0,0.0,0.0,0.0,7620.121212121212,7666.060606060606,7436.818181818182,7504.181818181818,7618.878787878788,7648.939393939394,7449.030303030303,7500.878787878788,0.042212090909090914,-2.2106021212121214,-1.0122847272727273,0.02578666666666667,0.013556272727272728,-0.0674800909090909,0.016969454545454548,-0.023119,-0.17005636363636364,-0.12793524242424242,0.08393242424242425,0.19306321212121214,-0.0012681515151515153,-0.019524060606060604,0.0024754242424242425,-0.28672469696969693,-0.00671757575757572,-9.917406545454545,-0.0063550303030303,0.005060393939393941,0.006754515151515152,0.049155696969696974,-2.205441727272727,-1.0295491515151516,0.022993909090909093,6430.939393939394,10.848484848484848,158.6060606060606,58.0
0 days 00:00:20.459502,-3.852928558823529,-1.7071290294117647,-0.3218950294117646,0.02993755882352941,0.02287294117647059,-0.09376638235294119,-0.02179579411764704,0.09160349999999999,-0.20698023529411763,0.01669744117647059,-0.021460323529411768,-0.16938158823529412,10.0,-14.058823529411764,-119.0,0.0,0.0,0.0,0.065,0.0,802.5294117647059,0.0,0.0,0.0,0.0,0.0,7589.85294117647,7635.176470588235,7433.735294117647,7492.0,7585.529411764706,7622.588235294118,7442.411764705882,7497.676470588235,0.047071441176470594,-2.2071290294117647,-1.0218950294117646,0.02993755882352941,0.02287294117647059,-0.09376638235294119,0.01669744117647059,-0.021460323529411768,-0.16938158823529412,-0.124935,0.082192,0.19335,-0.001291,-0.019502,0.002425,-0.559082,-0.0345243823529412,-9.814654235294118,-0.015732676470588236,0.023487794117647058,0.0072092647058823525,0.053686,-2.201589,-1.036124,0.021987,6406.441176470588,9.176470588235293,133.7058823529412,65.20588235294117
0 days 00:00:20.524502,-3.849603242424242,-1.7035624242424245,-0.3302601212121212,0.016199,0.02751187878787879,-0.09447760606060607,-0.19338190909090916,-0.06553036363636369,0.18193245454545456,0.01602242424242424,-0.020986484848484848,-0.1687952727272727,10.0,-15.0,-119.0,0.0,0.0,0.0,0.065,0.0,811.0,0.0,0.0,0.0,0.0,0.0,7592.30303030303,7627.151515151515,7425.484848484848,7479.545454545455,7604.393939393939,7628.848484848485,7431.666666666667,7468.757575757576,0.050396757575757574,-2.2035624242424245,-1.0302601212121212,0.016199,0.02751187878787879,-0.09447760606060607,0.01602242424242424,-0.020986484848484848,-0.1687952727272727,-0.12351518181818182,0.08149360606060606,0.1934950909090909,-0.0013094242424242424,-0.01948933333333333,0.00238469696969697,-0.6880622424242424,-0.19217566666666666,-9.415660484848484,-0.01655709090909091,-0.041940303030303036,-0.00039948484848484887,0.05637306060606061,-2.1976640606060607,-1.0405930303030304,0.020417484848484848,6401.333333333333,6.363636363636363,166.15151515151516,43.39393939393939
0 days 00:00:20.589502,-3.8475093636363638,-1.6998540303030305,-0.33789048484848494,-0.0033083333333333333,0.036626848484848484,-0.08562342424242424,-0.26536957575757575,0.18348218181818185,0.14169254545454543,0.01502730303030303,-0.021929151515151516,-0.16884266666666667,10.0,-15.0,-118.15151515151516,0.0,0.0,0.0,0.065,0.0,820.3333333333334,0.0,0.0,0.0,0.0,0.0,7591.666666666667,7613.727272727273,7443.454545454545,7471.30303030303,7592.848484848485,7621.212121212121,7438.636363636364,7486.090909090909,0.052490636363636364,-2.1998540303030305,-1.037890484848485,-0.0033083333333333333,0.036626848484848484,-0.08562342424242424,0.01502730303030303,-0.021929151515151516,-0.16884266666666667,-0.12237851515151514,0.08094881818181818,0.19361121212121213,-0.0013253030303030302,-0.01947860606060606,0.0023505757575757575,-0.8039772121212122,0.027728424242424277,-9.463127272727274,-0.028949121212121214,-0.04142254545454546,-0.006821151515151515,0.05860669696969697,-2.1942415757575757,-1.0442589696969697,0.019248515151515152,6403.090909090909,9.545454545454545,144.3939393939394,53.60606060606061
0 days 00:00:20.654502,-3.845358264705882,-1.6934449411764705,-0.3447579999999999,-0.018844911764705884,0.044487970588235295,-0.03425408823529412,0.06941955882352939,0.1157646176470588,1.5024615588235295,0.013929764705882352,-0.025857735294117647,-0.16784020588235293,10.0,-11.911764705882353,-93.70588235294117,0.0,-0.0037385,0.0,0.01978194117647059,0.0,646.2941176470588,-1.2,0.0,0.0,17.224473352941175,7.677556823529411,6993.35294117647,7064.735294117647,6827.14705882353,6918.264705882353,7491.64705882353,7145.617647058823,7311.35294117647,7658.205882352941,0.05464173529411765,-2.1934449411764705,-1.0447579999999999,-0.018844911764705884,0.044487970588235295,-0.03425408823529412,0.013929764705882352,-0.025857735294117647,-0.16784020588235293,-0.12097600000000001,0.080481,0.193754,-0.001361,-0.019457,0.002282,-0.4558823529411765,0.04943123529411764,-8.109260088235294,-0.03392847058823529,-0.06815114705882352,0.019545558823529412,0.062539,-2.18602,-1.05004,0.019055,6588.35294117647,351.38235294117646,-171.05882352941177,103.91176470588235
0 days 00:00:20.719502,-3.8445151515151514,-1.687876272727273,-0.3478539393939395,-0.015068848484848485,0.06145030303030303,-0.12189912121212121,0.45667551515151517,0.3651245151515151,-4.04194796969697,0.025149727272727275,-0.044674424242424245,-0.17026863636363634,10.0,-15.0,-118.0,0.004333212121212121,-0.004989181818181818,0.0,0.0030855454545454545,0.017843636363636364,815.1818181818181,-1.5,0.0,0.0,16.813347454545454,9.123840848484848,9009.242424242424,8332.939393939394,8749.666666666666,9215.60606060606,8483.818181818182,8207.69696969697,8135.757575757576,9146.515151515152,0.055484848484848484,-2.187876272727273,-1.0478539393939394,-0.015068848484848485,0.06145030303030303,-0.12189912121212121,0.025149727272727275,-0.044674424242424245,-0.17026863636363634,-0.12091327272727273,0.08044499999999999,0.19380145454545455,-0.0013833636363636366,-0.019443363636363634,0.0022372727272727275,-0.5925071515151515,0.09028766666666664,-13.667140151515152,0.7529148484848485,-0.7697975757575758,-0.10293854545454545,0.0641720909090909,-2.1809101818181817,-1.0505374545454547,0.026163363636363634,8302.242424242424,668.6969696969697,-321.2121212121212,895.7878787878788
0 days 00:00:20.784502,-3.8428021515151514,-1.6805410303030301,-0.3623983636363637,0.028117212121212123,0.1151979393939394,-0.2754420909090909,1.262793787878788,1.1728677272727273,-0.34496024242424245,0.12380103030303032,-0.11723821212121212,-0.17488621212121214,10.0,-15.0,-118.0,-0.005721181818181818,-0.00013509090909090906,0.0,0.002057,-0.07400157575757577,808.0909090909091,-1.5,0.0,0.0,1.8,9.76,7571.242424242424,8510.30303030303,7193.848484848485,8012.787878787879,7321.121212121212,8563.939393939394,6880.454545454545,7763.969696969697,0.05719784848484848,-2.18054103030303,-1.0623983636363636,0.028117212121212123,0.1151979393939394,-0.2754420909090909,0.12380103030303032,-0.11723821212121212,-0.17488621212121214,-0.120861,0.080415,0.193841,-0.001402,-0.019432,0.0022,-0.3909208787878788,0.1143762121212121,-10.101089,1.7178918484848484,-1.1127337575757574,0.2058401212121212,0.065533,-2.176652,-1.050952,0.032087,6541.0,-179.3939393939394,619.2424242424242,1500.909090909091
0 days 00:00:20.849502,-3.8342213333333333,-1.6663905757575757,-0.3784776363636364,0.10513615151515152,0.1907189393939394,-0.2507362727272727,1.2840182727272726,1.3979199393939394,0.5223010606060606,0.1997699696969697,-0.15526790909090907,-0.16339354545454546,10.0,-14.424242424242424,-118.03030303030303,-0.020719,0.004214,0.0,0.0,-0.183236,800.6060606060606,-1.5,0.0,0.0,1.8,9.76,7481.484848484848,8182.848484848485,7271.0,7272.909090909091,7691.242424242424,7954.515151515152,7613.272727272727,7270.424242424242,0.06577866666666667,-2.1663905757575757,-1.0784776363636364,0.10513615151515152,0.1907189393939394,-0.2507362727272727,0.1997699696969697,-0.15526790909090907,-0.16339354545454546,-0.128644,0.080957,0.193918,-0.001448,-0.019404,0.002101,-0.6170099393939394,-0.28654696969696974,-9.27550890909091,0.6204870303030302,-0.08015212121212122,0.14522663636363636,0.073148,-2.16183,-1.06656,0.196878,6541.0,-302.5151515151515,380.4848484848485,-56.18181818181818
0 days 00:00:20.914502,-3.822165911764706,-1.6481029999999999,-0.39410864705882354,0.20132744117647058,0.3091055882352941,-0.27356532352941176,1.440878617647059,1.9260761176470587,-1.3296443529411766,0.2037030294117647,-0.14111879411764705,-0.15783538235294117,10.0,4.0,-119.0,0.05957300000000001,0.032696,0.0,0.001996441176470588,0.465573,852.0,-1.5,0.0,0.0,2.035981,11.349548,8337.79411764706,8162.823529411765,8268.941176470587,7748.0,8622.85294117647,8265.117647058823,8537.176470588236,8042.382352941177,0.07783408823529411,-2.148103,-1.0941086470588235,0.20132744117647058,0.3091055882352941,-0.27356532352941176,0.2037030294117647,-0.14111879411764705,-0.15783538235294117,-0.1326938823529412,0.08115323529411765,0.1939504705882353,-0.001471058823529412,-0.019389882352941173,0.0020515882352941175,-0.6811811470588235,-0.15128102941176472,-11.189481852941176,-0.3429243235294117,0.3436495882352941,-0.045582500000000005,0.08172211764705883,-2.1487918823529415,-1.0769035294117646,0.20270482352941177,7578.0,-68.41176470588235,154.0,-601.7647058823529
0 days 00:00:20.979502,-3.8033635151515153,-1.6210074848484846,-0.41483351515151523,0.3000597272727273,0.44195493939393937,-0.3969180303030303,1.6221309090909093,1.844375212121212,-2.187328212121212,0.16993054545454545,-0.11768200000000001,-0.15824369696969698,10.0,25.21212121212121,-113.06060606060606,0.04750154545454545,0.05600354545454545,0.0,0.0030855151515151516,0.08464963636363637,852.0,-1.5,0.0,0.0,0.9255503636363636,11.413435727272727,8466.39393939394,8240.272727272728,8512.515151515152,8115.030303030303,8420.69696969697,8250.30303030303,8516.787878787878,8154.818181818182,0.09663648484848486,-2.1210074848484846,-1.1148335151515152,0.3000597272727273,0.44195493939393937,-0.3969180303030303,0.16993054545454545,-0.11768200000000001,-0.15824369696969698,-0.13725,0.081374,0.193987,-0.001497,-0.019374,0.001996,-0.3558534848484849,0.04607584848484851,-12.053947696969697,-0.6850733939393939,0.25870021212121214,-0.08582657575757575,0.091368,-2.134124,-1.08854,0.20926,7533.818181818182,-95.66666666666667,-0.24242424242424243,-375.8484848484849
0 days 00:00:21.044502,-3.7781965454545454,-1.5851592121212121,-0.4420958181818182,0.3762429393939394,0.5403351818181817,-0.48711490909090904,0.7878018484848486,0.7323275757575757,-0.27008251515151516,0.11222636363636362,-0.10841318181818181,-0.15930533333333333,10.0,23.363636363636363,-111.06060606060606,0.04325990909090909,0.07715663636363637,0.0,0.002057060606060606,0.03132636363636363,855.7575757575758,-1.5,0.0,0.0,1.4017370909090907,9.855296636363637,8004.242424242424,7690.363636363636,7781.090909090909,8011.606060606061,7888.787878787879,7327.666666666667,7437.484848484848,7938.121212121212,0.12180345454545455,-2.085159212121212,-1.1420958181818182,0.3762429393939394,0.5403351818181817,-0.48711490909090904,0.11222636363636362,-0.10841318181818181,-0.15930533333333333,-0.1422711818181818,0.08305618181818182,0.19395427272727275,-0.0015362727272727273,-0.019353545454545453,0.0019068181818181816,-0.7012902121212121,-0.21798060606060604,-9.932409999999999,-0.9228737272727273,-0.03979490909090909,-0.02942990909090909,0.11803827272727274,-2.093407181818182,-1.1180608181818183,0.159688,6563.090909090909,530.0,-79.42424242424242,-42.60606060606061
0 days 00:00:21.109502,-3.7507076176470586,-1.546080264705882,-0.4720799117647059,0.41042817647058827,0.5752510294117646,-0.4620709117647059,0.6972846470588235,0.38879852941176474,0.6216297352941177,0.0923855294117647,-0.11976149999999999,-0.16205170588235293,10.0,18.58823529411765,-111.44117647058823,0.0401664705882353,0.0847089411764706,0.0,0.001996470588235294,0.020269999999999996,856.0,-1.5,0.0,0.0,1.6621862352941177,9.535557588235294,7678.264705882353,7351.882352941177,7107.205882352941,7866.735294117647,7658.558823529412,7486.235294117647,7119.294117647059,7824.676470588235,0.14929238235294118,-2.046080264705882,-1.1720799117647058,0.41042817647058827,0.5752510294117646,-0.4620709117647059,0.0923855294117647,-0.11976149999999999,-0.16205170588235293,-0.14493464705882353,0.08464088235294118,0.1939140588235294,-0.0015597058823529411,-0.019342529411764706,0.0018525882352941178,-0.7526998529411765,-0.27139823529411766,-9.00511255882353,0.2891055588235294,-0.3134622058823529,-0.028722441176470586,0.13621794117647057,-2.066340764705882,-1.137170411764706,0.14777347058823528,6385.470588235294,438.05882352941177,100.26470588235294,376.1764705882353
0 days 00:00:21.174502,-3.7196218787878785,-1.5033914545454548,-0.49884660606060605,0.46789872727272724,0.6225844545454546,-0.41407430303030307,1.0568303333333335,0.8927881515151516,0.7970027272727274,0.1373588484848485,-0.1339009393939394,-0.16325848484848485,10.0,10.575757575757576,-112.0,0.0465949393939394,0.09716293939393938,0.0,0.002571272727272727,0.0578009090909091,865.939393939394,-0.9404645757575757,0.0,0.0,1.884103878787879,9.313447121212121,7482.0,7641.333333333333,6858.727272727273,7500.030303030303,7513.606060606061,7708.575757575758,6979.636363636364,7429.606060606061,0.1803781212121212,-2.0033914545454548,-1.198846606060606,0.46789872727272724,0.6225844545454546,-0.41407430303030307,0.1373588484848485,-0.1339009393939394,-0.16325848484848485,-0.148649,0.087547,0.193835,-0.001595,-0.019327,0.00177,-0.5651041818181819,-0.10532084848484846,-8.912523727272728,0.8624599696969697,-0.014611484848484846,-0.006088636363636365,0.165625,-2.023097,-1.167289,0.145617,6224.030303030303,127.27272727272727,405.72727272727275,455.1515151515151
0 days 00:00:21.239502,-3.684910393939394,-1.456246090909091,-0.521514606060606,0.5332241818181819,0.7138226666666667,-0.36256530303030304,1.150028181818182,1.4253480303030304,0.6097362424242424,0.1841749696969697,-0.11187566666666666,-0.15960981818181819,10.0,4.666666666666667,-111.66666666666667,0.09245990909090909,0.11699603030303031,0.0,0.002057,0.25324151515151516,905.6666666666666,-0.8316995454545455,0.0,0.0,1.6384924242424244,9.656058090909092,7354.575757575758,7601.606060606061,7201.666666666667,7410.454545454545,7473.969696969697,7681.757575757576,7445.727272727273,7548.0,0.21508960606060606,-1.956246090909091,-1.221514606060606,0.5332241818181819,0.7138226666666667,-0.36256530303030304,0.1841749696969697,-0.11187566666666666,-0.15960981818181819,-0.15437627272727272,0.0898409393939394,0.19379333333333332,-0.001635909090909091,-0.01931109090909091,0.0016624242424242426,-0.36292615151515145,-0.018761848484848482,-9.179125272727273,0.4837757575757576,0.5213067575757576,-0.032988666666666666,0.20347272727272728,-1.9705363939393938,-1.196092787878788,0.17402836363636365,6406.878787878788,-52.696969696969695,80.93939393939394,218.93939393939394
0 days 00:00:21.304502,-3.6472251515151513,-1.4046287575757577,-0.542870787878788,0.5824257878787878,0.8051715454545455,-0.3519691818181818,0.2765056363636364,1.0925495757575758,-0.2962506666666666,0.19065127272727272,-0.07813357575757576,-0.15502718181818184,10.0,8.0,-111.0,0.107182,0.128894,0.0,0.0,0.20897,923.0,-0.7798125757575758,0.0,0.0,1.474025,10.358292,7733.757575757576,7861.575757575758,7802.666666666667,7824.787878787879,7801.151515151515,7828.242424242424,7824.090909090909,7915.848484848485,0.2527748484848485,-1.9046287575757577,-1.242870787878788,0.5824257878787878,0.8051715454545455,-0.3519691818181818,0.19065127272727272,-0.07813357575757576,-0.15502718181818184,-0.15777063636363634,0.09077884848484849,0.19377639393939394,-0.0016600303030303032,-0.019301969696969696,0.0015970303030303033,-0.9369969696969697,-0.6365116060606061,-9.918146303030303,-0.27214290909090905,0.42397612121212125,-0.03949166666666667,0.2279190606060606,-1.936383303030303,-1.2124262424242425,0.17394724242424242,6837.393939393939,32.24242424242424,-55.303030303030305,84.0
0 days 00:00:21.369502,-3.6059241764705883,-1.3445008529411764,-0.5644850882352943,0.6054503823529411,0.8950333235294118,-0.37722097058823534,0.25090311764705886,1.121068882352941,-0.4821977647058824,0.16011850000000002,-0.0556695294117647,-0.15225455882352942,10.0,11.294117647058824,-109.3529411764706,0.107182,0.128894,0.0,-0.027415235294117647,0.20897,948.5294117647059,-0.7304552647058823,0.0,0.0,1.4502014705882351,10.390056705882353,7853.441176470588,7694.941176470588,7763.823529411765,8052.117647058823,7881.823529411765,7685.0,7731.14705882353,8116.529411764706,0.29407582352941175,-1.8445008529411764,-1.2644850882352943,0.6054503823529411,0.8950333235294118,-0.37722097058823534,0.16011850000000002,-0.0556695294117647,-0.15225455882352942,-0.163571,0.091536,0.193763,-0.001701,-0.019287,0.001482,-0.7493967352941177,-0.30035044117647064,-10.14094094117647,-0.5367647352941177,0.19177967647058822,-0.040893529411764704,0.273735,-1.872001,-1.238858,0.139877,6853.35294117647,290.52941176470586,-140.23529411764707,133.14705882352942
0 days 00:00:21.434502,-3.564130212121212,-1.279315696969697,-0.5876300000000001,0.6096699090909091,0.9708268484848486,-0.37925148484848487,0.21685548484848488,0.6751529696969697,0.3109606666666667,0.13386075757575755,-0.051535363636363636,-0.15244339393939393,10.0,1.6666666666666667,-106.18181818181819,0.15096109090909093,0.1438949090909091,0.0,0.0030855151515151516,0.2786209090909091,1008.4848484848485,-0.6841832424242424,0.0,0.0,0.934385,9.650992,7599.090909090909,7518.424242424242,7383.636363636364,7855.757575757576,7489.121212121212,7453.939393939394,7269.30303030303,7733.848484848485,0.33586978787878785,-1.779315696969697,-1.28763,0.6096699090909091,0.9708268484848486,-0.37925148484848487,0.13386075757575755,-0.051535363636363636,-0.15244339393939393,-0.16763642424242425,0.09220857575757577,0.19373581818181818,-0.0017379393939393939,-0.019273757575757576,0.001378848484848485,-0.6489405151515152,-0.3596413939393939,-9.310428575757577,-0.30515366666666666,-0.06834463636363637,-0.011333969696969697,0.3175458181818182,-1.8052856666666666,-1.2632212727272727,0.11267845454545455,6335.181818181818,249.42424242424244,-30.060606060606062,303.1212121212121
0 days 00:00:21.499502,-3.52382303030303,-1.2135036363636365,-0.6099155757575758,0.6108109393939394,1.0106356666666667,-0.33204381818181816,0.0852026666666667,0.4631513333333333,0.9827087575757576,0.11564121212121212,-0.05626375757575757,-0.15239745454545456,10.0,-5.545454545454546,-104.54545454545455,0.1716362424242424,0.14693669696969694,0.0,0.002056969696969697,0.2836365757575757,1041.090909090909,-0.641473,0.0,0.0,1.0678552121212121,9.291064787878788,7425.727272727273,7294.454545454545,7038.515151515152,7619.181818181818,7432.606060606061,7251.484848484848,7013.606060606061,7610.333333333333,0.37617696969696973,-1.7135036363636365,-1.3099155757575758,0.6108109393939394,1.0106356666666667,-0.33204381818181816,0.11564121212121212,-0.05626375757575757,-0.15239745454545456,-0.169404,0.092501,0.193724,-0.001754,-0.019268,0.001334,-0.7538470303030302,-0.3396069696969697,-8.615796696969696,-0.2200447878787879,-0.07178481818181817,0.001324242424242424,0.336594,-1.776279,-1.273814,0.100853,6109.818181818182,388.1515151515151,30.03030303030303,293.4848484848485
0 days 00:00:21.564502,-3.4812062647058823,-1.1417222941176473,-0.6268349117647058,0.6270433823529412,1.049449294117647,-0.26612841176470586,0.2793529705882353,0.20609599999999995,0.8494586470588236,0.11601576470588235,-0.05695573529411765,-0.1518529411764706,10.0,-8.941176470588236,-103.29411764705883,0.18462752941176472,0.14986779411764703,0.0,0.0019965588235294116,0.2928253529411765,1063.5294117647059,-0.6008348823529411,0.0,0.0,1.093289794117647,9.234659235294117,7314.794117647059,7203.705882352941,6924.411764705882,7538.5,7346.058823529412,7286.705882352941,7003.058823529412,7568.411764705882,0.4187937352941176,-1.6417222941176473,-1.3268349117647058,0.6270433823529412,1.049449294117647,-0.26612841176470586,0.11601576470588235,-0.05695573529411765,-0.1518529411764706,-0.17514114705882353,0.09247770588235295,0.19368517647058822,-0.0017928235294117649,-0.01925247058823529,0.0012233529411764706,-0.5416474705882353,-0.5802216470588235,-8.738511029411764,0.1504481470588235,-0.008537705882352939,-0.012120882352941178,0.403211294117647,-1.6672130294117646,-1.3085940588235292,0.08993388235294118,6073.235294117647,311.8529411764706,30.647058823529413,357.1470588235294
0 days 00:00:21.629502,-3.4378761818181816,-1.068085,-0.641409484848485,0.6447792121212121,1.0941252121212122,-0.21936118181818182,0.37152496969696974,0.39335909090909094,0.36424100000000004,0.12675333333333333,-0.05287603030303031,-0.15071781818181818,10.0,-12.666666666666666,-100.0,0.2085808484848485,0.16015284848484848,0.0,0.002571212121212121,0.29883336363636365,1115.3333333333333,-0.5627948787878787,0.0,0.0,0.9086274242424242,9.542881757575758,7354.787878787879,7407.969696969697,7132.757575757576,7609.757575757576,7405.545454545455,7452.333333333333,7210.393939393939,7659.272727272727,0.4621238181818182,-1.568085,-1.341409484848485,0.6447792121212121,1.0941252121212122,-0.21936118181818182,0.12675333333333333,-0.05287603030303031,-0.15071781818181818,-0.17827351515151516,0.09224775757575758,0.193701,-0.0018238787878787877,-0.019241696969696968,0.0011494242424242424,-0.48182993939393937,-0.5222834242424242,-9.242394636363636,0.08791278787878788,0.06716833333333333,0.007834666666666667,0.43927584848484846,-1.6051482727272728,-1.3223969696969697,0.09303545454545455,6257.939393939394,200.6969696969697,-5.878787878787879,349.8181818181818
0 days 00:00:21.694502,-3.3939816666666665,-0.9927277272727273,-0.6538893333333333,0.6725417272727273,1.1413106363636365,-0.20031442424242424,0.49102184848484853,0.6168272727272727,0.3521497575757576,0.12456730303030303,-0.045664363636363635,-0.14859554545454545,10.0,-14.424242424242424,-96.72727272727273,0.22322527272727272,0.16821966666666668,0.0,0.002056969696969697,0.2796260909090909,1169.030303030303,-0.5276625757575758,0.0,0.0,0.8996934848484849,9.665615757575758,7455.484848484848,7421.454545454545,7285.878787878788,7720.242424242424,7480.69696969697,7417.575757575758,7309.515151515152,7740.545454545455,0.5060183333333333,-1.4927277272727273,-1.3538893333333333,0.6725417272727273,1.1413106363636365,-0.20031442424242424,0.12456730303030303,-0.045664363636363635,-0.14859554545454545,-0.181058,0.092032,0.193717,-0.001852,-0.019232,0.001083,-0.31824090909090913,-0.2554155151515151,-9.291666575757576,-0.12354254545454545,0.09710139393939395,0.0016793939393939393,0.471319,-1.549845,-1.334396,0.096266,6335.848484848485,246.6969696969697,-75.78787878787878,259.6969696969697
0 days 00:00:21.759502,-3.3474480606060606,-0.910092606060606,-0.6639607878787879,0.6854676666666666,1.2020135757575758,-0.16904730303030302,-0.009291575757575759,0.4511439090909091,0.602548818181818,0.11676087878787879,-0.041533878787878786,-0.14664069696969698,10.0,-15.0,-95.0,0.241598,0.175093,0.0,0.0,0.365797,1203.0,-0.4947233333333334,0.0,0.0,0.792065,9.68634,7487.727272727273,7452.060606060606,7319.939393939394,7701.878787878788,7503.484848484848,7442.515151515152,7305.090909090909,7713.818181818182,0.5525519393939394,-1.410092606060606,-1.3639607878787878,0.6854676666666666,1.2020135757575758,-0.16904730303030302,0.11676087878787879,-0.041533878787878786,-0.14664069696969698,-0.18664442424242425,0.09007030303030304,0.19377130303030304,-0.0019092121212121213,-0.01921648484848485,0.0009472424242424243,-0.7408558787878787,-0.3667436363636363,-8.997602939393941,-0.17763827272727273,0.021994909090909093,-0.0031293333333333334,0.5369170606060606,-1.432478696969697,-1.352389696969697,0.08534430303030302,6341.757575757576,234.4848484848485,-36.36363636363637,245.45454545454547
0 days 00:00:21.824502,-3.3017585,-0.8268757647058824,-0.6731881764705883,0.6871789411764706,1.2429914705882352,-0.14484585294117647,0.10827614705882353,0.3356029117647058,-0.05636485294117649,0.10339458823529413,-0.038501352941176466,-0.14590473529411763,10.0,-17.735294117647058,-91.3529411764706,0.27070770588235293,0.18280564705882352,0.0,0.0019965588235294116,0.4004928823529412,1265.9117647058824,-0.4633900882352941,0.0,0.0,0.5441776470588235,9.529890882352943,7433.264705882353,7390.441176470588,7268.323529411765,7658.794117647059,7407.470588235294,7372.117647058823,7234.588235294118,7629.058823529412,0.5982415,-1.3268757647058824,-1.3731881764705882,0.6871789411764706,1.2429914705882352,-0.14484585294117647,0.10339458823529413,-0.038501352941176466,-0.14590473529411763,-0.18915326470588237,0.08855708823529412,0.19380167647058824,-0.0019361470588235294,-0.01921158823529412,0.000884764705882353,-0.6220129411764705,-0.4008788235294118,-9.659265764705882,-0.21967626470588236,0.00877470588235294,-0.01071335294117647,0.5689321470588234,-1.3725111470588236,-1.3593733235294119,0.07839505882352941,6228.176470588235,214.52941176470588,-42.029411764705884,253.44117647058823
0 days 00:00:21.889502,-3.255733909090909,-0.7402980303030302,-0.6809859393939395,0.688685303030303,1.277568909090909,-0.11671148484848484,0.25282590909090913,0.09302481818181818,0.742357,0.08562821212121212,-0.03640290909090909,-0.14503348484848486,10.0,-21.636363636363637,-85.9090909090909,0.28209606060606063,0.18629360606060605,0.0,0.0030854545454545453,0.3381694848484848,1333.090909090909,-0.4340459393939394,0.0,0.0,0.33524012121212116,9.45706284848485,7382.545454545455,7337.090909090909,7191.0,7613.424242424242,7380.666666666667,7330.272727272727,7177.484848484848,7601.060606060606,0.6442660909090909,-1.2402980303030302,-1.3809859393939394,0.688685303030303,1.277568909090909,-0.11671148484848484,0.08562821212121212,-0.03640290909090909,-0.14503348484848486,-0.19211,0.086718,0.193838,-0.001968,-0.019206,0.000811,-0.4001243333333333,-0.38828718181818184,-8.863429272727272,-0.3010327878787879,0.007479545454545457,-0.0030406666666666668,0.606888,-1.301198,-1.367507,0.070025,6173.969696969697,236.6060606060606,-33.666666666666664,263.45454545454544
0 days 00:00:21.954502,-3.210448,-0.6520182727272728,-0.6852519393939394,0.706039787878788,1.300286575757576,-0.07377342424242424,0.01572121212121206,0.08384987878787876,0.7667679393939394,0.0661320303030303,-0.034461060606060606,-0.14401563636363637,10.0,-24.636363636363637,-80.72727272727273,0.2955409696969697,0.194584696969697,0.0,0.002057,0.33811403030303033,1410.0,-0.4069457878787879,0.0,0.0,0.3275750303030303,9.49609193939394,7388.030303030303,7324.939393939394,7139.060606060606,7618.909090909091,7428.393939393939,7339.484848484848,7136.69696969697,7653.151515151515,0.689552,-1.1520182727272728,-1.3852519393939393,0.706039787878788,1.300286575757576,-0.07377342424242424,0.0661320303030303,-0.034461060606060606,-0.14401563636363637,-0.195967,0.08300951515151515,0.19385469696969698,-0.0020084242424242425,-0.019206,0.0007073030303030303,-0.6130444848484848,-0.25195324242424244,-8.83655896969697,-0.3088231212121212,-0.007982666666666673,-0.006214484848484848,0.6658397272727273,-1.1844185151515154,-1.3754169696969698,0.05631942424242424,6197.969696969697,302.2121212121212,-10.909090909090908,301.8181818181818
0 days 00:00:22.019502,-3.165430909090909,-0.5649010606060605,-0.6875594848484847,0.6940754545454545,1.3253856363636365,-0.025369030303030303,-0.07916054545454551,-0.06483130303030304,0.6569003636363636,0.052595333333333334,-0.032152878787878786,-0.1440917575757576,10.0,-25.90909090909091,-78.48484848484848,0.2903235454545454,0.19695745454545455,0.0,0.002057090909090909,0.29604518181818185,1431.6969696969697,-0.3815489393939394,0.0,0.0,0.26539318181818183,9.484415363636364,7410.272727272727,7344.757575757576,7116.30303030303,7690.333333333333,7369.424242424242,7350.727272727273,7129.757575757576,7682.151515151515,0.734569090909091,-1.0649010606060605,-1.3875594848484847,0.6940754545454545,1.3253856363636365,-0.025369030303030303,0.052595333333333334,-0.032152878787878786,-0.1440917575757576,-0.19740336363636365,0.08100318181818182,0.1938550909090909,-0.0020270909090909094,-0.019207636363636364,0.0006646363636363637,-0.6741240606060606,-0.27823154545454554,-8.941199121212122,-0.0896810303030303,0.04774063636363637,-0.015787727272727273,0.6931104545454545,-1.129345090909091,-1.3771710000000001,0.05009890909090909,6189.0,285.09090909090907,-45.63636363636363,376.72727272727275
0 days 00:00:22.084502,-3.1205667352941173,-0.47305370588235296,-0.6859915000000001,0.6863836176470589,1.3356192352941176,0.016521058823529413,0.052333352941176484,-0.2638110588235294,0.3900401764705882,0.04960238235294118,-0.028549323529411766,-0.14338494117647058,10.0,-29.235294117647058,-71.70588235294117,0.2882022058823529,0.198347,0.0,0.0024955588235294115,0.2717265882352941,1502.1764705882354,-0.3573785294117647,0.0,0.0,-0.11402723529411764,9.414456764705882,7248.705882352941,7401.970588235294,7126.411764705882,7608.0,7248.176470588235,7419.382352941177,7140.029411764706,7589.970588235294,0.7794332647058824,-0.973053705882353,-1.3859915,0.6863836176470589,1.3356192352941176,0.016521058823529413,0.04960238235294118,-0.028549323529411766,-0.14338494117647058,-0.199815,0.077017,0.19385,-0.002062,-0.019212,0.000589,-0.4954905588235294,-0.4518325,-9.209731176470587,-0.1063519705882353,0.011273470588235296,0.005622500000000001,0.744149,-1.025436,-1.378939,0.038552,6141.5,139.2058823529412,-31.147058823529413,438.4117647058824
0 days 00:00:22.149502,-3.077044818181818,-0.3831251818181818,-0.6825315757575758,0.680430606060606,1.3306544545454546,0.046390999999999995,0.0346043636363636,-0.3856583333333333,0.5509744545454546,0.0310500303030303,-0.025752272727272728,-0.14190360606060606,10.0,-32.03030303030303,-64.42424242424242,0.3218240606060606,0.20122745454545454,0.0,0.002057,0.3971994242424242,1610.1515151515152,-0.3347463636363637,0.0,0.0,-0.2656275454545454,9.427805545454547,7242.848484848485,7404.0,7168.0,7589.666666666667,7306.121212121212,7342.181818181818,7144.363636363636,7631.939393939394,0.8229551818181818,-0.8831251818181818,-1.3825315757575758,0.680430606060606,1.3306544545454546,0.046390999999999995,0.0310500303030303,-0.025752272727272728,-0.14190360606060606,-0.2010183636363636,0.07358063636363638,0.1938111818181818,-0.0020823636363636365,-0.019221545454545456,0.0005425454545454545,-0.46333448484848483,-0.39710590909090904,-9.055989545454546,-0.47895954545454544,0.024450909090909093,0.01627609090909091,0.7877863636363637,-0.9345677272727272,-1.3760721818181818,0.030900363636363636,6150.969696969697,225.45454545454547,-64.03030303030303,369.57575757575756
0 days 00:00:22.214502,-3.034543606060606,-0.29580536363636356,-0.6770584545454545,0.667183,1.303872787878788,0.08429445454545455,-0.30331566666666665,-0.9052976363636365,0.7331453333333333,0.000984909090909091,-0.024824666666666665,-0.1411831515151515,10.0,-33.0,-62.0,0.324763,0.203864,0.0,0.0,0.343907,1647.0,-0.313844,0.0,0.0,-0.144875,9.432683,7414.636363636364,7278.151515151515,7057.878787878788,7662.666666666667,7427.909090909091,7280.606060606061,7044.909090909091,7671.424242424242,0.865456393939394,-0.7958053636363636,-1.3770584545454545,0.667183,1.303872787878788,0.08429445454545455,0.000984909090909091,-0.024824666666666665,-0.1411831515151515,-0.20174478787878788,0.07090524242424243,0.1937742121212121,-0.0020977575757575757,-0.01922918181818182,0.0005104242424242423,-0.7356179696969697,-0.6816701818181818,-8.88387787878788,-0.35377457575757576,-0.0255459393939394,-0.012125636363636366,0.8202795757575758,-0.8664371818181817,-1.3730410303030303,0.024042060606060605,6151.090909090909,386.27272727272725,-3.909090909090909,338.3333333333333
0 days 00:00:22.279502,-2.993684470588235,-0.2074923823529412,-0.6677019117647061,0.6425675588235294,1.2733357647058823,0.12075000000000001,-0.08993223529411763,-0.8748269411764706,0.18763735294117645,-0.009108117647058824,-0.024089117647058823,-0.1422235882352941,10.0,-35.23529411764706,-54.94117647058823,0.29787867647058824,0.1990013529411765,0.0,-0.024919588235294117,0.20985808823529412,1707.4117647058824,-0.29398035294117647,0.0,0.0,-0.4585766176470588,9.4115105,7333.323529411765,7380.264705882353,7035.0,7653.176470588235,7289.764705882353,7443.35294117647,7042.382352941177,7627.823529411765,0.9063155294117646,-0.7074923823529412,-1.367701911764706,0.6425675588235294,1.2733357647058823,0.12075000000000001,-0.009108117647058824,-0.024089117647058823,-0.1422235882352941,-0.202026,0.065745,0.193667,-0.002125,-0.019245,0.00047000000000000004,-0.5423942647058824,-0.5363051470588235,-9.441348705882353,-0.007819676470588234,-0.023372911764705885,-0.024557676470588236,0.875072,-0.748945,-1.362942,0.006019,6143.558823529412,215.55882352941177,31.294117647058822,521.5882352941177
0 days 00:00:22.344502,-2.9537919393939394,-0.12350178787878785,-0.6570271212121213,0.627360696969697,1.2374187272727273,0.14860663636363636,-0.10196736363636363,-0.7635685151515151,0.49412454545454537,-0.012565363636363637,-0.02139587878787879,-0.14233224242424244,7.016685151515151,-37.0,-45.93939393939394,0.2979350909090909,0.19800127272727275,0.12602715151515154,0.0015428181818181819,0.22713927272727275,1820.939393939394,-0.34390045454545454,0.002345818181818182,-0.17725963636363634,-1.1133323636363635,9.383760545454544,7201.090909090909,7486.363636363636,7071.878787878788,7636.69696969697,7197.0,7511.424242424242,7187.242424242424,7676.818181818182,0.9462080606060606,-0.6235017878787878,-1.3570271212121212,0.627360696969697,1.2374187272727273,0.14860663636363636,-0.012565363636363637,-0.02139587878787879,-0.14233224242424244,-0.20185327272727274,0.06214939393939394,0.19356336363636362,-0.002137666666666667,-0.01925939393939394,0.0004682727272727273,-0.5340021818181818,-0.40971230303030304,-9.139411757575758,-0.13367812121212122,0.06222624242424242,0.013590484848484848,0.9098114848484848,-0.67456,-1.352527696969697,0.0026128181818181814,6203.212121212121,87.39393939393939,-77.72727272727273,567.5454545454545
0 days 00:00:22.409502,-2.9156303939393937,-0.043351121212121146,-0.6449254848484849,0.5974248787878788,1.2005240303030302,0.17444230303030303,-0.510093696969697,-0.7206764545454546,0.38341630303030305,-0.037133,-0.02014042424242424,-0.14092924242424243,2.394800181818182,-37.0,-42.0,0.301855,0.194164,0.297064,0.0,0.323184,1869.0,-0.437026,0.012902,-0.449928,-3.464683,9.343587,7300.575757575758,7740.878787878788,7536.030303030303,7740.757575757576,7398.30303030303,7704.848484848485,7535.848484848485,7777.121212121212,0.9843696060606061,-0.5433511212121211,-1.3449254848484848,0.5974248787878788,1.2005240303030302,0.17444230303030303,-0.037133,-0.02014042424242424,-0.14092924242424243,-0.2016869696969697,0.05931218181818181,0.19347933333333334,-0.0021475454545454545,-0.019270757575757573,0.00046796969696969695,-0.9405480606060606,-0.1910511212121212,-9.244969242424242,-0.7709960909090909,-0.06761215151515151,0.03668030303030303,0.9371411515151515,-0.6160299090909092,-1.3441388181818181,-0.0005608484848484849,6501.0,-32.57575757575758,-104.66666666666667,386.6969696969697
0 days 00:00:22.474502,-2.8814749393939394,0.03547775757575761,-0.6291180303030304,0.558654606060606,1.1499791515151514,0.18673966666666666,-0.08875327272727274,-1.5555564242424242,-0.031131666666666693,-0.10301084848484848,-0.027213363636363636,-0.1395449696969697,2.349412424242424,-36.303030303030305,-37.81818181818182,0.30492966666666665,0.186648,0.297064,0.0020569090909090906,0.32126533333333335,1927.5454545454545,-0.4286513333333334,0.021182666666666666,-0.449834,-1.658833,9.530303666666667,7662.818181818182,7445.454545454545,7335.0,7800.363636363636,7704.757575757576,7305.848484848485,7194.121212121212,7826.030303030303,1.0185250606060607,-0.4645222424242424,-1.3291180303030303,0.558654606060606,1.1499791515151514,0.18673966666666666,-0.10301084848484848,-0.027213363636363636,-0.1395449696969697,-0.200438,0.053302,0.193234,-0.002165,-0.019295,0.000499,-0.5288530909090908,-0.30584157575757576,-9.761659515151516,-1.0147075757575756,-0.13958187878787878,-0.010239030303030304,0.99257,-0.49698699999999996,-1.321253,-0.021804,6365.0,514.6363636363636,-4.757575757575758,164.45454545454547
0 days 00:00:22.539502,-2.846881588235294,0.10823155882352942,-0.614282705882353,0.5372328823529412,1.053592794117647,0.2063134705882353,-0.1453890294117647,-1.6382501470588235,0.4670008823529412,-0.13117494117647058,-0.03269473529411765,-0.14214052941176472,2.3041918235294117,-36.0,-27.264705882352942,0.26499164705882355,0.17990917647058824,0.297064,0.002994764705882353,0.20096676470588234,2006.2058823529412,-0.5366723529411764,-0.0863714705882353,-0.45030164705882353,-1.1073415882352942,9.567332235294119,7581.176470588235,7281.411764705882,7121.029411764706,7837.117647058823,7463.264705882353,7387.382352941177,7163.617647058823,7797.882352941177,1.0531184117647059,-0.3917684411764706,-1.314282705882353,0.5372328823529412,1.053592794117647,0.2063134705882353,-0.13117494117647058,-0.03269473529411765,-0.14214052941176472,-0.19926717647058823,0.051312352941176476,0.1930815294117647,-0.0021678235294117646,-0.019304411764705882,0.000523,-0.6069910294117647,-0.19924752941176463,-9.283605147058823,0.1809369411764706,-0.09135879411764705,-0.06282305882352941,1.0181107058823529,-0.4445578235294118,-1.3093904117647057,-0.03388023529411765,6287.823529411765,354.5882352941176,-55.411764705882355,394.1764705882353
0 days 00:00:22.604502,-2.814331939393939,0.17474475757575758,-0.5973057272727273,0.5027325454545455,0.959128,0.2379789696969697,-0.27638039393939395,-1.4998534242424242,0.35084754545454544,-0.10494578787878787,-0.039110484848484846,-0.14370866666666665,2.2598060303030305,-34.78787878787879,-19.545454545454547,0.26406354545454547,0.17191824242424242,0.297064,0.002056969696969697,0.2604031212121212,2076.969696969697,-0.5395399696969697,-0.08887081818181818,-0.45066957575757577,-1.5052704848484848,9.646335181818182,7307.484848484848,7634.242424242424,7261.818181818182,7714.363636363636,7299.121212121212,7735.818181818182,7340.090909090909,7682.090909090909,1.0856680606060607,-0.3252552424242424,-1.2973057272727273,0.5027325454545455,0.959128,0.2379789696969697,-0.10494578787878787,-0.039110484848484846,-0.14370866666666665,-0.19795,0.049074,0.19291,-0.002171,-0.019315,0.00055,-0.8088009393939394,-0.3442235454545455,-9.367246696969698,0.4328613333333333,-0.12178187878787879,-7.42424242424249e-06,1.046844,-0.385575,-1.296045,-0.047466,6374.242424242424,-47.36363636363637,6.393939393939394,549.6969696969697
0 days 00:00:22.669502,-2.783492303030303,0.2350460909090909,-0.5774095454545454,0.49616909090909095,0.8829260606060606,0.23904842424242423,-0.12194112121212124,-1.401472515151515,-0.26183684848484845,-0.10017533333333332,-0.04190163636363636,-0.14202784848484848,2.2169655151515153,-33.72727272727273,-15.636363636363637,0.27259560606060607,0.16656636363636365,0.297064,0.0020575454545454547,0.3270037272727273,2121.0,-0.5167424545454545,-0.06589360606060606,-0.45084884848484846,-1.6554622424242424,9.723597606060606,7339.787878787879,7780.818181818182,7461.060606060606,7653.545454545455,7428.636363636364,7697.090909090909,7434.121212121212,7680.606060606061,1.116507696969697,-0.2649539090909091,-1.2774095454545453,0.49616909090909095,0.8829260606060606,0.23904842424242423,-0.10017533333333332,-0.04190163636363636,-0.14202784848484848,-0.19829536363636363,0.04440236363636363,0.19267009090909093,-0.0021753939393939397,-0.019325545454545456,0.0005842727272727272,-0.7333688181818182,-0.2223011515151515,-9.964932575757576,-0.3395848181818182,-0.046290575757575766,0.04460369696969697,1.0945156060606063,-0.2959606060606061,-1.2695785454545454,-0.024576212121212124,6439.030303030303,-10.969696969696969,5.575757575757576,363.5151515151515
0 days 00:00:22.734502,-2.752107264705882,0.29007673529411765,-0.5594720294117648,0.4725573235294118,0.7863524705882352,0.23741035294117646,-0.0964008235294118,-1.8903695588235294,0.0767936176470588,-0.12979494117647059,-0.039042617647058825,-0.14052123529411764,2.174303411764706,-30.176470588235293,-10.970588235294118,0.2579214705882353,0.1634861176470588,0.297064,0.002495088235294118,0.22726476470588233,2196.3529411764707,-0.5568940588235295,-0.10541088235294119,-0.451483,-0.686975294117647,9.830593823529412,7668.323529411765,7368.088235294118,7331.705882352941,7838.323529411765,7678.294117647059,7311.823529411765,7332.705882352941,7898.705882352941,1.1478927352941177,-0.20992326470588235,-1.2594720294117647,0.4725573235294118,0.7863524705882352,0.23741035294117646,-0.12979494117647059,-0.039042617647058825,-0.14052123529411764,-0.19850676470588235,0.04227741176470588,0.19253111764705882,-0.002175647058823529,-0.019328058823529413,0.0005868823529411764,-0.6155790294117648,-0.4538143235294118,-9.704474941176471,-0.23674467647058825,0.06471885294117648,-0.007029823529411765,1.1188679411764706,-0.25469694117647057,-1.2553284705882353,-0.028511352941176474,6432.294117647059,465.4117647058824,-120.44117647058823,140.8235294117647
0 days 00:00:22.799502,-2.722266121212121,0.3379611212121212,-0.540351909090909,0.45284606060606064,0.6800407575757575,0.2375820303030303,0.19332742424242422,-1.4504637272727274,-0.205382,-0.11232454545454545,-0.03898621212121212,-0.14276339393939394,2.1324396060606063,-26.696969696969695,-5.181818181818182,0.20220145454545457,0.15842,0.297064,0.002057060606060606,0.10283390909090909,2234.878787878788,-0.7085095454545455,-0.25546700000000006,-0.4530418181818182,-0.8941048181818182,9.834274909090908,7544.424242424242,7431.878787878788,7449.242424242424,7873.363636363636,7447.818181818182,7534.181818181818,7486.939393939394,7814.30303030303,1.1777338787878788,-0.1620388787878788,-1.240351909090909,0.45284606060606064,0.6800407575757575,0.2375820303030303,-0.11232454545454545,-0.03898621212121212,-0.14276339393939394,-0.198807,0.039563,0.192337,-0.002175,-0.01933,0.000583,-0.3763908181818182,-0.14254860606060604,-9.927734363636363,0.6354832424242424,-0.09788560606060606,-0.03526721212121212,1.151459,-0.201708,-1.235896,-0.041514,6454.090909090909,120.3030303030303,-159.33333333333334,292.030303030303
0 days 00:00:22.864502,-2.692617393939394,0.3789287272727273,-0.5204468484848486,0.45291621212121214,0.609466606060606,0.24474212121212122,0.17634833333333338,-1.1053479696969697,0.09876406060606066,-0.07643736363636364,-0.04909666666666667,-0.14193918181818183,2.092006545454545,-26.0,-1.0,0.20008,0.156308,0.297064,0.0,0.192191,2276.0,-0.715279,-0.261179,-0.4541,-1.280811,9.723656,7312.242424242424,7677.909090909091,7549.0,7609.818181818182,7351.333333333333,7684.848484848485,7546.090909090909,7573.393939393939,1.207382606060606,-0.12107127272727272,-1.2204468484848485,0.45291621212121214,0.609466606060606,0.24474212121212122,-0.07643736363636364,-0.04909666666666667,-0.14193918181818183,-0.2011731818181818,0.035298636363636365,0.19213163636363637,-0.002171727272727273,-0.019325909090909088,0.0005380000000000001,-0.5297999393939394,-0.20851090909090914,-9.57753309090909,0.27684060606060606,-0.20689066666666667,0.018709969696969697,1.1907022727272727,-0.14654699999999998,-1.2110772727272727,-0.01725490909090909,6409.0,-152.87878787878788,-41.60606060606061,254.6969696969697
0 days 00:00:22.929502,-2.663052151515151,0.41578339393939395,-0.5021324545454546,0.45421921212121213,0.5467072424242424,0.25039854545454543,0.0016171818181817828,-1.0022030606060606,0.1386553636363637,-0.0829819696969697,-0.057157848484848485,-0.13970284848484849,2.0523020303030304,-25.21212121212121,1.3636363636363635,0.1902860606060606,0.16164209090909093,0.297064,0.0015426969696969697,0.15011221212121212,2301.212121212121,-0.742904,-0.2875555151515151,-0.45534924242424246,-0.9801435757575757,9.74983706060606,7476.30303030303,7532.424242424242,7535.242424242424,7589.090909090909,7528.272727272727,7460.242424242424,7513.939393939394,7642.30303030303,1.2369478484848486,-0.08421660606060606,-1.2021324545454546,0.45421921212121213,0.5467072424242424,0.25039854545454543,-0.0829819696969697,-0.057157848484848485,-0.13970284848484849,-0.20244542424242423,0.03340142424242424,0.19202563636363637,-0.0021685757575757576,-0.019323060606060604,0.0005047272727272728,-0.7871685151515151,-0.08108427272727275,-9.51686787878788,-0.3352864545454546,-0.08935545454545454,0.008130636363636364,1.2110186363636364,-0.12093796969696968,-1.198190606060606,-0.009273212121212121,6405.212121212121,98.06060606060606,-83.75757575757575,42.72727272727273
0 days 00:00:22.994502,-2.6326307352941174,0.4480459705882353,-0.4815190588235294,0.4545118823529412,0.4740917647058823,0.24855973529411765,0.36116479411764707,-1.290968088235294,-0.1515629117647059,-0.09838879411764706,-0.060457441176470596,-0.13899394117647057,2.012829705882353,-20.58823529411765,5.529411764705882,0.20451702941176472,0.16092323529411767,0.297064,0.002994735294117647,0.22130226470588235,2409.470588235294,-0.7061244411764706,-0.2492300882352941,-0.45689450000000004,-0.6837779705882353,9.926512235294117,7672.176470588235,7444.029411764706,7498.382352941177,7719.0,7670.64705882353,7483.794117647059,7510.058823529412,7752.294117647059,1.2673692647058825,-0.051954029411764704,-1.1815190588235294,0.4545118823529412,0.4740917647058823,0.24855973529411765,-0.09838879411764706,-0.060457441176470596,-0.13899394117647057,-0.204778,0.030434,0.191837,-0.002161,-0.019317,0.000432,-0.4558535882352941,-0.15857655882352945,-9.855296382352941,-0.010103117647058825,-0.037123764705882356,-0.018195500000000003,1.247255,-0.079216,-1.175155,-0.001177,6501.235294117647,214.2058823529412,-53.94117647058823,39.14705882352941
0 days 00:00:23.059502,-2.6014280303030306,0.4752587878787879,-0.4613083636363635,0.46812236363636367,0.4061919696969697,0.2516902424242424,0.15966657575757573,-0.8094201818181818,-0.07847957575757575,-0.08458169696969696,-0.05909724242424243,-0.13907803030303031,1.9740794242424242,-18.0,9.0,0.21231487878787877,0.17102039393939394,0.297064,0.0015427575757575758,0.23110187878787877,2481.0,-0.6865528181818181,-0.22823027272727273,-0.4583225454545454,-0.978603303030303,9.92730306060606,7546.545454545455,7594.969696969697,7601.848484848485,7709.424242424242,7497.363636363636,7641.030303030303,7626.181818181818,7694.242424242424,1.2985719696969695,-0.02474121212121212,-1.1613083636363635,0.46812236363636367,0.4061919696969697,0.2516902424242424,-0.08458169696969696,-0.05909724242424243,-0.13907803030303031,-0.2067969090909091,0.027924909090909094,0.19166027272727273,-0.0021515454545454546,-0.019309727272727274,0.0003454545454545455,-0.6750119393939393,0.14062500000000003,-9.719016272727272,0.29827321212121216,0.02224642424242424,-0.0060961515151515145,1.2819488181818182,-0.04712290909090909,-1.153640818181818,-0.0006490000000000001,6516.060606060606,-37.696969696969695,-90.87878787878788,149.3030303030303
0 days 00:00:23.124502,-2.570460606060606,0.4990031818181818,-0.4439809696969699,0.47979242424242424,0.3524313333333333,0.22971960606060604,0.4366417878787878,-0.8796340303030302,-0.36560139393939395,-0.07384966666666666,-0.05538966666666666,-0.13823966666666668,1.936630090909091,-17.03030303030303,10.93939393939394,0.20661272727272725,0.17424218181818182,0.297064,0.0025713636363636364,0.20618154545454545,2517.848484848485,-0.702612909090909,-0.2435869090909091,-0.45902554545454544,-0.9358009090909091,9.899796909090908,7463.606060606061,7609.939393939394,7670.272727272727,7685.0,7474.666666666667,7590.333333333333,7661.393939393939,7676.969696969697,1.329539393939394,-0.0009968181818181818,-1.1439809696969698,0.47979242424242424,0.3524313333333333,0.22971960606060604,-0.07384966666666666,-0.05538966666666666,-0.13823966666666668,-0.207698,0.026827454545454547,0.19158060606060603,-0.002146727272727273,-0.019306393939393943,0.00030554545454545456,-0.3760949696969697,0.007575848484848484,-10.028852939393941,0.031212969696969694,0.0117039696969697,0.01546221212121212,1.2980986363636364,-0.03300321212121213,-1.143831303030303,-0.00025396969696969696,6496.454545454545,-49.90909090909091,-136.45454545454547,92.54545454545455
0 days 00:00:23.189502,-2.537459529411765,0.5169893823529412,-0.4246020294117647,0.48991438235294116,0.2883158823529412,0.22209970588235295,0.24974591176470592,-1.1239910588235293,-0.25289126470588236,-0.0795235588235294,-0.05603476470588235,-0.13593523529411766,1.8993710000000001,-15.705882352941176,13.882352941176471,0.19391444117647058,0.1795375588235294,0.297064,0.0024955588235294115,0.16689582352941176,2575.235294117647,-0.7380803529411765,-0.27778438235294123,-0.4602952352941176,-0.8372172352941176,9.854898588235294,7525.117647058823,7516.0,7633.029411764706,7648.5,7534.264705882353,7490.264705882353,7626.382352941177,7659.0,1.3625404705882351,0.016989382352941177,-1.1246020294117647,0.48991438235294116,0.2883158823529412,0.22209970588235295,-0.0795235588235294,-0.05603476470588235,-0.13593523529411766,-0.20993,0.024401,0.191373,-0.002127,-0.019297,0.00019,-0.5375114411764707,-0.22616032352941173,-9.929945970588236,-0.12474149999999999,-0.0454604705882353,0.008487470588235296,1.346763,-0.000689,-1.116835,0.0028,6463.470588235294,38.26470588235294,-130.23529411764707,-8.205882352941176
0 days 00:00:23.254502,-2.5047712424242423,0.5317194848484849,-0.4072831212121213,0.483341,0.21815760606060608,0.2348350303030303,-0.00948339393939393,-1.2674025454545454,0.12137703030303032,-0.085797,-0.061099121212121216,-0.13515051515151513,1.8627649696969697,-15.0,16.78787878787879,0.1788679090909091,0.18350081818181818,0.297064,0.002057030303030303,0.15653881818181817,2645.3939393939395,-0.7805498181818182,-0.318305,-0.46224481818181823,-0.7191136363636363,9.797499636363636,7577.363636363636,7438.30303030303,7560.272727272727,7632.333333333333,7573.212121212121,7465.454545454545,7530.69696969697,7623.121212121212,1.3952287575757576,0.03171948484848485,-1.1072831212121212,0.483341,0.21815760606060608,0.2348350303030303,-0.085797,-0.061099121212121216,-0.13515051515151513,-0.21083278787878787,0.023383060606060605,0.19124633333333332,-0.0021143333333333335,-0.019291818181818184,0.00012609090909090909,-0.797378,-0.3780777272727273,-9.558682545454547,-0.012858030303030303,-0.13384084848484848,-0.020707606060606062,1.3750384545454546,0.012531545454545457,-1.102259696969697,0.0020607272727272727,6422.090909090909,99.9090909090909,-57.54545454545455,-10.848484848484848
0 days 00:00:23.319502,-2.4729723636363636,0.5420253636363637,-0.3902969696969696,0.49193251515151515,0.1522402121212121,0.2302412121212121,0.333648393939394,-0.5467343636363636,0.039884787878787915,-0.07832921212121212,-0.06608351515151516,-0.13534251515151516,1.827462818181818,-15.0,18.0,0.180126,0.181572,0.297064,0.0,0.184892,2686.0,-0.778278,-0.314917,-0.463361,-0.681943,9.76,7492.181818181818,7489.69696969697,7513.393939393939,7598.0,7461.606060606061,7512.060606060606,7531.69696969697,7613.454545454545,1.4270276363636363,0.04202536363636364,-1.0902969696969695,0.49193251515151515,0.1522402121212121,0.2302412121212121,-0.07832921212121212,-0.06608351515151516,-0.13534251515151516,-0.211498,0.022633,0.191153,-0.002105,-0.019288,7.9e-05,-0.5944307575757575,0.3051017272727273,-9.592595939393938,0.19541606060606062,-0.03935106060606061,-0.014130484848484849,1.395873,0.022273,-1.09152,0.001516,6396.0,15.575757575757576,-85.66666666666667,93.21212121212122
0 days 00:00:23.384502,-2.4392821515151515,0.5469909393939394,-0.37176487878787867,0.5146553333333334,0.10999930303030303,0.23132357575757576,0.38940330303030307,-0.6014037272727273,0.058970787878787886,-0.06677069696969697,-0.0666880909090909,-0.13406669696969697,1.7928213333333332,-12.363636363636363,19.757575757575758,0.180126,0.181572,0.297064,-0.028246,0.184892,2765.969696969697,-0.778278,-0.314917,-0.463361,-0.7073975454545455,9.785454545454543,7422.818181818182,7544.909090909091,7555.848484848485,7597.909090909091,7448.848484848485,7580.151515151515,7560.69696969697,7579.242424242424,1.4607178484848484,0.04699093939393939,-1.0717648787878786,0.5146553333333334,0.10999930303030303,0.23132357575757576,-0.06677069696969697,-0.0666880909090909,-0.13406669696969697,-0.212595,0.021743,0.190975,-0.002083,-0.019279,-2.2e-05,-0.5477035454545455,0.12647966666666668,-9.582918969696971,0.1513819393939394,-0.05630027272727273,0.0065474848484848485,1.446868,0.03573,-1.067097,0.011897,6413.818181818182,-56.333333333333336,-55.303030303030305,105.84848484848484
