time,pos_x,pos_y,pos_z,vel_x,vel_y,vel_z,acc_x,acc_y,acc_z,att_phi,att_theta,att_psi,distance_est,centroid_x,centroid_y,divergence,true_divergence,divergence_sp,dt,raw_divergence,color_count,mu_x,p_output,i_output,mu_y, mu_z,rpm_obs_1,rpm_obs_2,rpm_obs_3,rpm_obs_4,rpm_ref_1,rpm_ref_2,rpm_ref_3,rpm_ref_4,ekf_X1,ekf_X2,ekf_X3,ekf_X4,ekf_X5,ekf_X6,ekf_X7,ekf_X8,ekf_X9,ekf_X10,ekf_X11,ekf_X12,ekf_X13,ekf_X14,ekf_X15,ekf_U1,ekf_U2,ekf_U3,ekf_U4,ekf_U5,ekf_U6,ekf_Z1,ekf_Z2,ekf_Z3,ekf_Z4,cmd_thrust,cmd_roll,cmd_pitch,cmd_yaw
0 days 00:00:21.048840,-3.9166457575757576,-0.5413017272727274,-0.4690257272727274,0.008406363636363635,0.03341578787878788,0.043636696969696964,0.055450969696969714,-0.2103301818181818,0.8818154545454546,0.005916848484848484,-0.026532939393939393,-0.08859921212121212,10.0,-14.181818181818182,-50.90909090909091,0.0,0.0005863030303030303,0.0,0.05277433333333334,0.0,942.7272727272727,0.0,0.0,0.0,0.2672727272727273,4.155757575757575,7349.484848484848,7441.181818181818,7100.212121212121,7160.666666666667,5907.090909090909,5939.818181818182,5504.878787878788,5551.484848484848,-0.016645757575757574,-1.0413017272727274,-1.1690257272727274,0.008406363636363635,0.03341578787878788,0.043636696969696964,0.005916848484848484,-0.026532939393939393,-0.08859921212121212,-0.29085448484848486,0.07924090909090908,0.2185767878787879,-0.0019226363636363638,-0.019508242424242424,0.004719848484848484,-0.6784742121212121,-0.02657421212121214,-8.70422,-0.027469363636363636,-0.025168636363636365,0.006096181818181819,-0.008548424242424243,-1.0410481515151515,-1.1842387575757578,0.01855212121212121,3669.6363636363635,7.090909090909091,395.030303030303,96.9090909090909
0 days 00:00:21.113840,-3.9143005757575757,-0.538941181818182,-0.4615946060606062,0.023346696969696972,0.03126069696969697,0.3234139393939394,0.46374963636363636,-0.1509840606060606,7.274324484848485,0.006462666666666667,-0.02282018181818182,-0.08894357575757575,10.0,-15.575757575757576,-55.57575757575758,0.006098969696969697,0.0028785757575757573,0.0,0.002571272727272727,0.026631484848484845,1042.090909090909,-1.5,0.003572846153846154,0.0,4.69428996969697,9.405739515151515,4943.515151515152,4485.333333333333,4203.666666666667,5600.636363636364,5732.121212121212,5462.090909090909,5218.575757575758,5488.666666666667,-0.014300575757575757,-1.038941181818182,-1.1615946060606062,0.023346696969696972,0.03126069696969697,0.3234139393939394,0.006462666666666667,-0.02282018181818182,-0.08894357575757575,-0.290314,0.07904,0.21868,-0.0019249999999999998,-0.019498,0.004723,0.06161212121212118,0.0028113030303030234,-2.335256878787879,0.014108333333333334,0.15366063636363636,-0.010231787878787878,-0.006899,-1.039888,-1.185367,0.018248,3291.6363636363635,269.5151515151515,243.87878787878788,185.06060606060606
0 days 00:00:21.178840,-3.9092392647058825,-0.5364717647058823,-0.43451700000000004,0.029683470588235297,0.02670044117647059,0.5848869411764706,-0.2694539705882353,-0.4022634411764706,0.25277576470588237,-0.02093970588235294,0.012266823529411764,-0.0998949705882353,10.0,-15.529411764705882,-55.0,0.012778,0.007531,0.0,0.001996529411764706,0.026769499999999998,1047.9411764705883,-1.5,0.0,0.0,5.7164065,9.276225499999999,7448.0,6805.058823529412,7319.205882352941,7898.117647058823,7653.588235294118,6511.823529411765,7786.382352941177,9800.0,-0.009239264705882353,-1.0364717647058823,-1.134517,0.029683470588235297,0.02670044117647059,0.5848869411764706,-0.02093970588235294,0.012266823529411764,-0.0998949705882353,-0.28862364705882354,0.07788423529411766,0.21901317647058824,-0.001928764705882353,-0.019476352941176472,0.004729588235294117,-0.6114143529411764,0.03463929411764709,-9.347713764705883,-0.7631620588235295,0.6673655,-0.23698882352941175,-0.0030364117647058825,-1.0361656470588236,-1.1715759411764706,0.005846117647058824,7729.0,1669.4117647058824,-1802.1470588235295,1738.235294117647
0 days 00:00:21.243840,-3.9074769393939395,-0.5349505454545456,-0.4007692121212121,-0.007995545454545455,0.016294848484848485,0.5326381212121213,0.1298921818181818,-0.02453366666666669,-0.523293212121212,0.017904333333333335,-0.024670939393939394,-0.09903457575757575,10.0,-16.060606060606062,-55.0,0.010074,0.009881,0.0,0.0,-0.014064,1047.3030303030303,-1.5,0.0,0.0,0.855,9.676343,6890.424242424242,7264.30303030303,6828.151515151515,9194.363636363636,6871.848484848485,7997.666666666667,6662.393939393939,8499.90909090909,-0.007476939393939394,-1.0349505454545456,-1.100769212121212,-0.007995545454545455,0.016294848484848485,0.5326381212121213,0.017904333333333335,-0.024670939393939394,-0.09903457575757575,-0.2883941212121212,0.07703478787878788,0.2192041212121212,-0.001930272727272727,-0.019468636363636365,0.004735939393939394,-0.6400922727272729,0.0042022424242424096,-10.14201590909091,2.410785060606061,-2.079612090909091,0.3153778484848485,-0.002009727272727273,-1.0348503333333334,-1.1495875757575758,0.009274818181818181,6406.0,355.3333333333333,-146.1818181818182,2173.2727272727275
0 days 00:00:21.308840,-3.905509515151515,-0.5322453939393941,-0.3708214545454547,0.04790045454545455,0.07598336363636364,0.5016541212121213,1.889720484848485,1.4345032727272728,-0.7183692424242425,0.19203033333333333,-0.17375887878787877,-0.09144460606060606,10.0,-18.0,-55.0,0.021068,0.000894,0.0,0.002056969696969697,0.069852,1057.0,-1.5,0.0,0.0,0.855,9.582682,7471.393939393939,8822.454545454546,6926.060606060606,7022.333333333333,7765.787878787879,8732.787878787878,7253.545454545455,6225.030303030303,-0.0055095151515151515,-1.032245393939394,-1.0708214545454546,0.04790045454545455,0.07598336363636364,0.5016541212121213,0.19203033333333333,-0.17375887878787877,-0.09144460606060606,-0.288226,0.07598,0.219435,-0.0019319999999999997,-0.01946,0.004744,-0.6933297272727272,-0.241862,-10.559925484848486,2.044159848484848,-1.7010905151515152,0.231941,-0.000944,-1.033381,-1.120916,0.01498,6346.0,-996.060606060606,1507.5757575757575,-43.57575757575758
0 days 00:00:21.373840,-3.8969009999999997,-0.5227095757575757,-0.34294581818181813,0.16598039393939393,0.19187884848484849,0.4784287575757576,2.004994212121212,1.7721758181818181,0.019657151515151492,0.2268960606060606,-0.19863269696969696,-0.09329478787878788,10.0,-9.818181818181818,-56.63636363636363,0.12553836363636364,0.023686545454545457,0.0,0.0030855151515151516,0.39167212121212125,1147.8181818181818,-1.5,0.0,0.0,1.1107706666666666,10.164428848484848,8058.212121212121,8243.90909090909,7821.060606060606,6310.818181818182,8231.90909090909,7941.666666666667,8032.181818181818,6874.030303030303,0.0030989999999999998,-1.0227095757575757,-1.042945818181818,0.16598039393939393,0.19187884848484849,0.4784287575757576,0.2268960606060606,-0.19863269696969696,-0.09329478787878788,-0.2965270303030303,0.07575766666666667,0.21983836363636364,-0.0019416666666666668,-0.019455606060606062,0.004742242424242424,-0.6861684242424242,-0.08389557575757577,-9.922259727272728,-0.9091130909090909,0.6443906666666667,-0.07509912121212121,0.004283030303030302,-1.0248242424242424,-1.0752858181818181,0.257548303030303,6735.212121212121,-433.09090909090907,632.6363636363636,-1022.3636363636364
0 days 00:00:21.438840,-3.8814999705882354,-0.5058491176470588,-0.3157620294117649,0.28410829411764704,0.29957661764705884,0.37254811764705886,1.8306452647058824,0.8642212647058823,-3.373342058823529,0.12112647058823528,-0.12881976470588236,-0.09035491176470589,10.0,29.38235294117647,-50.61764705882353,0.04078029411764706,0.054206823529411766,0.0,0.001996470588235294,-0.4131454705882353,1095.0588235294117,-1.5,0.0,0.0,-0.5378503529411764,12.914273294117647,8958.882352941177,8315.970588235294,8906.64705882353,8158.882352941177,9215.14705882353,8707.941176470587,9337.764705882353,8793.235294117647,0.018500029411764707,-1.0058491176470588,-1.0157620294117649,0.28410829411764704,0.29957661764705884,0.37254811764705886,0.12112647058823528,-0.12881976470588236,-0.09035491176470589,-0.2988117941176471,0.07578135294117648,0.22001273529411766,-0.001945264705882353,-0.01945435294117647,0.004745558823529412,-0.5387752647058823,-0.25453811764705886,-13.118910823529411,-1.8835664411764705,1.0683665294117646,-0.1738999411764706,0.011556441176470589,-1.0156635,-1.0560938529411763,0.24581994117647057,8490.882352941177,-18.676470588235293,-103.73529411764706,-742.5588235294117
0 days 00:00:21.503840,-3.859432909090909,-0.48394754545454555,-0.3030162121212123,0.3657109090909091,0.3347133939393939,0.09305263636363637,1.1981769696969697,-0.6462,-4.1924762424242425,-0.0002846969696969695,-0.08254533333333333,-0.0963920606060606,10.0,33.0,-49.57575757575758,0.027804666666666665,0.07018106060606061,0.0,0.002057,-0.3012089393939394,1091.3939393939395,-1.5,0.0,0.0,-0.25044348484848483,12.070324848484848,9267.575757575758,8757.969696969696,8976.787878787878,9198.515151515152,8850.212121212122,8259.09090909091,8340.39393939394,9043.787878787878,0.04056709090909091,-0.9839475454545455,-1.0030162121212123,0.3657109090909091,0.3347133939393939,0.09305263636363637,-0.0002846969696969695,-0.08254533333333333,-0.0963920606060606,-0.301195,0.075895,0.220261,-0.0019499999999999997,-0.019453,0.004753,-0.5248579090909091,-0.16503909090909089,-13.854137090909092,-1.6281072424242424,0.26429342424242425,-0.11625530303030304,0.025257,-0.9989769999999999,-1.029125,0.15134,7940.060606060606,646.1212121212121,-137.36363636363637,79.3030303030303
0 days 00:00:21.568840,-3.8340451818181815,-0.4622162121212121,-0.30673627272727266,0.414792696969697,0.2920268181818182,-0.06785790909090908,0.7662394848484848,-0.9718382424242424,-0.6111875151515151,-0.054580303030303035,-0.08545072727272728,-0.102509,10.0,27.060606060606062,-50.27272727272727,0.030998,0.089755,0.0,-0.02721748484848485,0.053865,1095.1515151515152,-1.5,0.0,0.0,0.5603886363636363,10.18909090909091,8043.939393939394,7596.787878787879,7252.666666666667,8524.848484848484,7917.151515151515,7611.787878787879,7038.0,8474.939393939394,0.06595481818181817,-0.9622162121212121,-1.0067362727272726,0.414792696969697,0.2920268181818182,-0.06785790909090908,-0.054580303030303035,-0.08545072727272728,-0.102509,-0.2998130909090909,0.0770330909090909,0.22044672727272727,-0.0019606363636363636,-0.019452181818181816,0.004754636363636364,-0.5520241212121213,-0.030036606060606093,-10.269472060606061,0.07762190909090909,-0.341782,-0.06272933333333333,0.052329,-0.9702097272727274,-1.0219618181818182,0.05801654545454546,6721.818181818182,869.7272727272727,7.9393939393939394,798.7575757575758
0 days 00:00:21.633840,-3.8062011515151513,-0.4438509090909091,-0.3135101818181818,0.4596869393939394,0.2624754242424242,-0.09399539393939393,1.308300606060606,-0.27345881818181816,-0.16708612121212124,0.012182939393939394,-0.11276442424242425,-0.10351463636363635,10.0,3.1818181818181817,-55.303030303030305,0.031473909090909094,0.09658900000000001,0.0,0.002057,0.05016709090909091,1093.8181818181818,-1.094252393939394,0.0,0.0,1.1202431818181817,9.260622818181817,7530.181818181818,7936.666666666667,6767.151515151515,7953.515151515152,7299.121212121212,7848.333333333333,6643.909090909091,7648.939393939394,0.09379884848484848,-0.9438509090909091,-1.0135101818181818,0.4596869393939394,0.2624754242424242,-0.09399539393939393,0.012182939393939394,-0.11276442424242425,-0.10351463636363635,-0.2997425151515152,0.0774740303030303,0.22053103030303028,-0.001965575757575757,-0.019454272727272726,0.00474969696969697,-0.3079722424242425,0.010594212121212096,-9.854048333333333,1.580203909090909,-0.3651973636363636,0.00517139393939394,0.0646919696969697,-0.9586874545454546,-1.0222684848484849,0.048807393939393935,6156.545454545455,227.45454545454547,426.5151515151515,1097.2121212121212
0 days 00:00:21.698840,-3.7755681176470586,-0.42405279411764707,-0.32181688235294126,0.5206197647058823,0.2854273823529412,-0.027615294117647057,1.3068101176470588,0.5266978235294117,1.9833825294117648,0.11316999999999999,-0.11112129411764705,-0.10092726470588236,10.0,-1.0,-56.0,0.032743,0.114813,0.0,0.0,0.040306,1098.0,-0.8440295294117647,0.0,0.0,2.416825,7.395617,6509.294117647059,7109.64705882353,6093.823529411765,6956.264705882353,6324.85294117647,6944.764705882353,6232.0,6945.205882352941,0.12443188235294118,-0.9240527941176471,-1.0218168823529412,0.5206197647058823,0.2854273823529412,-0.027615294117647057,0.11316999999999999,-0.11112129411764705,-0.10092726470588236,-0.301067,0.078527,0.220772,-0.00198,-0.019467,0.00472,-0.09403723529411756,-0.017405764705882325,-7.733053764705883,1.4497428823529412,0.3093047352941176,0.03866755882352941,0.100235,-0.929962,-1.0329,0.113372,5100.117647058823,46.55882352941177,46.11764705882353,941.0294117647059
0 days 00:00:21.763840,-3.741378606060606,-0.40129045454545464,-0.32187684848484843,0.5827478181818182,0.3602126666666666,0.09471227272727273,0.8314465151515151,1.307899696969697,1.0477987272727274,0.1902970606060606,-0.0912639393939394,-0.09458160606060606,10.0,6.363636363636363,-55.18181818181818,0.041702757575757574,0.13653875757575756,0.0,0.002057030303030303,0.08184454545454546,1109.4545454545455,-0.7905742727272728,0.0,0.0,1.0121970606060604,9.961973,6737.121212121212,7604.787878787879,7048.151515151515,7154.727272727273,7320.575757575758,8157.969696969697,7643.666666666667,7505.69696969697,0.15862139393939392,-0.9012904545454546,-1.0218768484848484,0.5827478181818182,0.3602126666666666,0.09471227272727273,0.1902970606060606,-0.0912639393939394,-0.09458160606060606,-0.30457145454545453,0.07806118181818182,0.22101381818181817,-0.0019927272727272727,-0.019486090909090908,0.004672909090909091,-0.601385,-0.05276396969696969,-8.673532151515152,0.6564201515151514,0.216057,0.04359757575757576,0.1295350909090909,-0.9081945454545455,-1.036464909090909,0.14367054545454544,6575.69696969697,-486.8181818181818,164.3939393939394,493.6666666666667
0 days 00:00:21.828840,-3.704197636363636,-0.3730482121212121,-0.3179519393939394,0.6173755151515151,0.47388196969696966,0.06900563636363637,0.3459028181818182,1.250681303030303,-0.6756335454545455,0.17001275757575757,-0.0715619696969697,-0.08808066666666667,10.0,11.636363636363637,-52.57575757575758,0.046703606060606064,0.15180336363636363,0.0,0.002571272727272727,0.07578463636363636,1119.2727272727273,-0.7412161212121212,0.0,0.0,0.31958260606060607,10.509345242424242,7729.454545454545,8091.757575757576,7931.818181818182,7733.060606060606,7811.69696969697,7927.212121212121,7932.939393939394,7793.272727272727,0.19580236363636364,-0.8730482121212121,-1.0179519393939394,0.6173755151515151,0.47388196969696966,0.06900563636363637,0.17001275757575757,-0.0715619696969697,-0.08808066666666667,-0.3070089090909091,0.07777027272727273,0.22118345454545454,-0.0020013636363636366,-0.019500545454545454,0.004637818181818181,-1.0623816060606062,-0.20203009090909094,-10.318803363636363,-1.102953303030303,0.35306439393939393,0.023607727272727273,0.151025,-0.8916928181818182,-1.038051909090909,0.1570901818181818,6871.242424242424,-127.42424242424242,6.2727272727272725,-17.0
0 days 00:00:21.893840,-3.667736588235294,-0.3370042352941177,-0.3189793529411764,0.6322254411764705,0.537998,0.011758323529411766,0.7569423235294117,0.06362758823529413,-0.8252931764705882,0.07699005882352941,-0.050949117647058825,-0.08534170588235294,10.0,13.294117647058824,-48.88235294117647,0.0755994705882353,0.16017511764705883,0.0,0.001996470588235294,0.19313655882352943,1152.235294117647,-0.6942849999999999,0.0,0.0,0.08733061764705884,10.107793235294118,7847.735294117647,7494.558823529412,7650.705882352941,7798.64705882353,7881.5,7428.941176470588,7535.882352941177,7858.764705882353,0.23226341176470588,-0.8370042352941177,-1.0189793529411764,0.6322254411764705,0.537998,0.011758323529411766,0.07699005882352941,-0.050949117647058825,-0.08534170588235294,-0.311358,0.077523,0.221498,-0.002015,-0.019536,0.004556,-0.3394128823529412,-0.3689970294117647,-10.428079029411764,-1.483563617647059,0.18061382352941174,-0.03790644117647059,0.198495,-0.851061,-1.033551,0.118152,6602.941176470588,386.9117647058824,-42.0,-91.41176470588235
0 days 00:00:21.958840,-3.629056333333333,-0.30114354545454536,-0.3210333030303032,0.6434802121212122,0.5402251212121212,-0.017252969696969697,0.43185554545454546,-0.5244927575757576,-0.3053061515151515,0.00739869696969697,-0.04416615151515152,-0.08852181818181817,10.0,11.090909090909092,-47.57575757575758,0.09336572727272728,0.16186063636363637,0.0,0.0025712424242424242,0.24480818181818184,1172.4848484848485,-0.6503010606060606,0.0,0.0,0.13786027272727275,9.866944272727272,7818.181818181818,7333.636363636364,7233.939393939394,7915.969696969697,7765.121212121212,7389.515151515152,7165.333333333333,7938.30303030303,0.2709436666666667,-0.8011435454545454,-1.0210333030303032,0.6434802121212122,0.5402251212121212,-0.017252969696969697,0.00739869696969697,-0.04416615151515152,-0.08852181818181817,-0.3125361818181818,0.07790936363636364,0.22162254545454546,-0.002015,-0.019559636363636366,0.004520545454545455,-0.5026928787878787,-0.221561303030303,-9.908854090909092,-0.5643421515151515,-0.0008433939393939401,-0.06381687878787878,0.2237131818181818,-0.8265123636363636,-1.034701,0.081272,6445.242424242424,573.4545454545455,25.454545454545453,280.42424242424244
0 days 00:00:22.023840,-3.591863939393939,-0.2663687272727273,-0.32476712121212126,0.6419196666666667,0.5235967575757576,-0.018269151515151516,0.29200206060606065,-0.5162110606060606,0.40993851515151514,0.0063563939393939395,-0.04425363636363636,-0.09082881818181819,10.0,1.5757575757575757,-45.696969696969695,0.11910790909090908,0.16736836363636365,0.0,0.002571272727272727,0.19058181818181816,1214.909090909091,-0.6097174242424241,0.0,0.0,0.41056163636363635,9.413913181818181,7445.424242424242,7319.969696969697,6833.545454545455,7800.878787878788,7402.878787878788,7404.090909090909,6863.393939393939,7762.363636363636,0.30813606060606064,-0.7663687272727273,-1.0247671212121212,0.6419196666666667,0.5235967575757576,-0.018269151515151516,0.0063563939393939395,-0.04425363636363636,-0.09082881818181819,-0.3140290303030303,0.07841881818181817,0.2217791212121212,-0.0020154545454545455,-0.019589242424242426,0.004474606060606061,-0.6094637878787879,-0.22076236363636367,-9.189305121212122,0.4379808787878788,-0.04413769696969697,-0.015284727272727271,0.255688696969697,-0.7953673333333333,-1.0361864545454544,0.03720536363636364,6153.848484848485,448.24242424242425,90.36363636363636,635.3939393939394
0 days 00:00:22.088840,-3.55597496969697,-0.22989987878787876,-0.32827430303030325,0.6405932121212121,0.5294123333333334,0.010276090909090908,0.19020415151515152,-0.08008124242424239,0.5384097272727273,0.05189181818181818,-0.04278651515151515,-0.08891924242424243,10.0,-4.090909090909091,-44.81818181818182,0.1300059696969697,0.17017284848484848,0.0,0.002056969696969697,0.17249975757575756,1242.7272727272727,-0.5716564545454546,0.0,0.0,0.5103324242424242,9.422090999999998,7229.787878787879,7509.484848484848,6904.848484848485,7659.333333333333,7241.787878787879,7569.818181818182,7015.0,7625.575757575758,0.34402503030303033,-0.7298998787878788,-1.0282743030303032,0.6405932121212121,0.5294123333333334,0.010276090909090908,0.05189181818181818,-0.04278651515151515,-0.08891924242424243,-0.316558,0.079885,0.222007,-0.00203,-0.019629,0.004366,-0.7462417272727272,-0.21969703030303034,-9.035333727272729,0.8059378484848485,0.026596545454545453,0.03004409090909091,0.310527,-0.741394,-1.039561,0.043265,6160.787878787879,141.0909090909091,85.42424242424242,662.4848484848485
0 days 00:00:22.153840,-3.5162314705882354,-0.19369782352941178,-0.32791108823529425,0.6516376470588235,0.5654283529411765,0.022363441176470586,0.7109063823529411,0.568106294117647,-0.06242679411764708,0.09192688235294118,-0.03709414705882353,-0.0855030588235294,10.0,-5.0,-43.0,0.138639,0.171922,0.0,0.0,0.175038,1270.0,-0.5354471470588236,0.0,0.0,0.233044,9.786341,7262.0,7716.382352941177,7293.382352941177,7577.294117647059,7354.323529411765,7738.676470588235,7397.323529411765,7608.558823529412,0.3837685294117647,-0.6936978235294118,-1.0279110882352942,0.6516376470588235,0.5654283529411765,0.022363441176470586,0.09192688235294118,-0.03709414705882353,-0.0855030588235294,-0.31830682352941175,0.07994217647058822,0.2220984117647059,-0.0020328235294117644,-0.01964664705882353,0.004332117647058824,-0.2757353529411764,0.05799055882352944,-9.69350294117647,0.28157323529411765,0.08269188235294117,0.055434264705882356,0.3320624117647059,-0.7204801176470589,-1.039324176470588,0.05345476470588235,6389.029411764706,-86.38235294117646,43.529411764705884,420.4117647058824
0 days 00:00:22.218840,-3.477775818181818,-0.15369833333333327,-0.32892345454545446,0.6568926363636364,0.6130622121212121,0.006784909090909091,0.15214230303030304,0.3059549696969697,-0.34817206060606065,0.08262363636363637,-0.030432151515151516,-0.08113924242424243,10.0,-3.787878787878788,-41.78787878787879,0.13053118181818182,0.17610890909090907,0.0,0.002057,0.11404857575757577,1277.2727272727273,-0.5015224545454545,0.0,0.0,0.21577472727272728,9.925084757575759,7534.939393939394,7604.30303030303,7456.393939393939,7598.363636363636,7629.606060606061,7567.939393939394,7485.575757575758,7667.30303030303,0.42222418181818183,-0.6536983333333333,-1.0289234545454544,0.6568926363636364,0.6130622121212121,0.006784909090909091,0.08262363636363637,-0.030432151515151516,-0.08113924242424243,-0.321513,0.080047,0.222266,-0.002038,-0.019679,0.00427,-0.7502662424242424,-0.1908439696969697,-9.93051603030303,-0.45842948484848484,0.06628054545454545,0.02950409090909091,0.371544,-0.682138,-1.03889,0.072136,6477.818181818182,121.60606060606061,22.303030303030305,84.72727272727273
0 days 00:00:22.283840,-3.440375181818182,-0.11179987878787878,-0.33107878787878775,0.6608944848484849,0.655206393939394,-0.034983121212121215,0.4664298484848485,0.21339027272727276,-0.5141334545454546,0.05013854545454545,-0.024891666666666666,-0.08003860606060606,10.0,-3.0,-38.21212121212121,0.153725,0.18182866666666667,0.0,0.0030855151515151516,0.199495,1332.1818181818182,-0.47023048484848484,0.0,0.0,0.06484066666666667,9.929105666666667,7723.818181818182,7507.0,7482.333333333333,7709.424242424242,7706.0,7501.484848484848,7438.212121212121,7706.909090909091,0.45962481818181816,-0.6117998787878788,-1.0310787878787877,0.6608944848484849,0.655206393939394,-0.034983121212121215,0.05013854545454545,-0.024891666666666666,-0.08003860606060606,-0.3245122424242424,0.08033260606060606,0.2223947878787879,-0.0020410303030303028,-0.019713848484848483,0.0042215151515151515,-0.3921638181818182,0.05826821212121211,-10.120620242424241,-0.45592896969696967,0.015410363636363639,-0.012569545454545453,0.4183121818181818,-0.6342251212121213,-1.037315,0.05495266666666667,6478.575757575758,236.24242424242425,31.09090909090909,45.333333333333336
0 days 00:00:22.348840,-3.4003816176470587,-0.06808770588235291,-0.33463273529411763,0.6648766176470589,0.6617827352941177,-0.058635470588235296,0.6991491470588236,-0.2647497941176471,-0.5125365882352941,0.02950544117647059,-0.02302623529411765,-0.08095682352941176,10.0,-4.5,-35.5,0.18205535294117647,0.18593,0.0,0.001996529411764706,0.28400235294117643,1383.0,-0.440452294117647,0.0,0.0,-0.06009976470588235,9.761895529411765,7633.5,7502.5,7341.264705882353,7660.35294117647,7573.35294117647,7498.470588235294,7315.470588235294,7652.941176470588,0.49961838235294115,-0.5680877058823529,-1.0346327352941176,0.6648766176470589,0.6617827352941177,-0.058635470588235296,0.02950544117647059,-0.02302623529411765,-0.08095682352941176,-0.3262487058823529,0.08042776470588234,0.2224489411764706,-0.002041529411764706,-0.019735823529411764,0.0041963529411764705,-0.09262979411764712,-0.18141085294117648,-10.112275970588236,-0.19190170588235292,0.007360088235294117,-0.014555029411764706,0.44695917647058825,-0.603802411764706,-1.0366719411764704,0.044694235294117646,6368.35294117647,205.88235294117646,51.64705882352941,185.41176470588235
0 days 00:00:22.413840,-3.3619136363636364,-0.024344060606060536,-0.33915178787878797,0.6708681515151516,0.6646990606060605,-0.06862687878787878,0.33309248484848486,-0.49361436363636363,0.0835273939393939,0.02082269696969697,-0.020287969696969697,-0.081055,10.0,-6.0,-34.0,0.19752,0.189062,0.0,0.0,0.305731,1412.0,-0.41254648484848483,0.0,0.0,-0.122915,9.629028,7474.969696969697,7463.424242424242,7214.939393939394,7586.515151515152,7480.333333333333,7499.30303030303,7213.484848484848,7600.757575757576,0.5380863636363636,-0.5243440606060605,-1.039151787878788,0.6708681515151516,0.6646990606060605,-0.06862687878787878,0.02082269696969697,-0.020287969696969697,-0.081055,-0.328773,0.08044,0.222491,-0.00204,-0.019771,0.004165,-0.42012903030303034,-0.31616954545454545,-9.517725969696968,-0.08337769696969696,-0.0018124545454545472,0.001435181818181818,0.491423,-0.554758,-1.03622,0.029225,6281.393939393939,183.72727272727272,82.45454545454545,286.72727272727275
0 days 00:00:22.478840,-3.3235157878787875,0.017296424242424224,-0.34270151515151515,0.6821771818181818,0.6417801515151514,-0.0773929393939394,0.44588242424242425,-0.5172682424242424,-0.11306878787878782,0.01814060606060606,-0.016986666666666664,-0.08040690909090908,10.0,-7.0,-31.727272727272727,0.20647860606060608,0.19776339393939393,0.0,0.0046282121212121215,0.24156081818181818,1463.1818181818182,-0.38680366666666666,0.0,0.0,0.05417251515151516,9.766643272727272,7526.272727272727,7515.212121212121,7221.515151515152,7651.848484848485,7562.848484848485,7534.424242424242,7255.424242424242,7692.818181818182,0.5764842121212121,-0.4827035757575758,-1.042701515151515,0.6821771818181818,0.6417801515151514,-0.0773929393939394,0.01814060606060606,-0.016986666666666664,-0.08040690909090908,-0.33111830303030304,0.07986987878787878,0.22245127272727272,-0.0020344242424242425,-0.019805848484848485,0.004154545454545454,-0.29222899999999996,-0.30903766666666665,-9.712387636363635,-0.0038470303030303035,0.042014454545454535,0.012902424242424243,0.5316374545454545,-0.5109632121212121,-1.035531393939394,0.025043878787878785,6370.151515151515,232.5151515151515,74.33333333333333,288.8181818181818
0 days 00:00:22.543840,-3.2833235454545453,0.0581011818181818,-0.3467171212121214,0.6777634848484849,0.6334678787878788,-0.0820979696969697,0.25336342424242425,-0.28654345454545455,-0.19203157575757576,0.024542181818181817,-0.01163890909090909,-0.08004990909090909,10.0,-7.0,-29.0,0.177877,0.193825,0.0,0.0,0.095623,1485.0,-0.3626588484848485,0.0,0.0,-0.065341,9.84,7526.363636363636,7596.727272727273,7313.878787878788,7683.848484848485,7506.363636363636,7615.69696969697,7363.030303030303,7693.121212121212,0.6166764545454545,-0.4418988181818182,-1.0467171212121213,0.6777634848484849,0.6334678787878788,-0.0820979696969697,0.024542181818181817,-0.01163890909090909,-0.08004990909090909,-0.33268557575757574,0.07935109090909091,0.22241021212121212,-0.002030636363636364,-0.019829484848484846,0.004149393939393939,-0.4669743333333333,-0.14414648484848486,-9.784712363636364,0.1445460909090909,0.08434690909090908,0.010594242424242423,0.5576397272727274,-0.48235048484848486,-1.0349497272727273,0.022566454545454546,6417.0,110.18181818181819,32.93939393939394,310.3030303030303
0 days 00:00:22.608840,-3.2471244705882354,0.09900049999999999,-0.3494352647058825,0.6540986764705883,0.6288425882352942,-0.09051105882352942,0.010407558823529405,-0.4358382647058824,-0.06287514705882356,0.02893564705882353,-0.003666470588235294,-0.07850955882352942,10.0,-8.764705882352942,-26.352941176470587,0.177877,0.193825,0.0,-0.02741520588235294,0.095623,1532.6470588235295,-0.3396925,0.0,0.0,-0.10372335294117646,9.82294117647059,7481.117647058823,7569.941176470588,7412.294117647059,7688.029411764706,7504.794117647059,7555.911764705882,7422.058823529412,7663.764705882353,0.6528755294117647,-0.4009995,-1.0494352647058824,0.6540986764705883,0.6288425882352942,-0.09051105882352942,0.02893564705882353,-0.003666470588235294,-0.07850955882352942,-0.335752,0.077834,0.222277,-0.002023,-0.019877,0.004146,-0.6222713823529411,-0.37284585294117645,-9.645565235294116,-0.003762647058823528,0.04221482352941177,0.026431852941176472,0.605339,-0.42875,-1.033369,0.018873,6405.911764705882,95.20588235294117,-12.676470588235293,206.61764705882354
0 days 00:00:22.673840,-3.21044103030303,0.13943975757575755,-0.35221933333333344,0.6442018181818181,0.6150401212121211,-0.0913309393939394,0.44292060606060607,-0.630761606060606,-0.02309599999999997,0.02478312121212121,-0.001026151515151515,-0.07752624242424243,10.0,-9.0,-24.818181818181817,0.16352281818181819,0.1922319090909091,0.0,0.002057,0.060851,1539.0,-0.31816551515151514,0.0,0.0,-0.41598063636363636,9.766430545454545,7516.424242424242,7542.181818181818,7452.030303030303,7612.666666666667,7486.090909090909,7556.666666666667,7471.30303030303,7557.151515151515,0.6895589696969697,-0.36056024242424245,-1.0522193333333334,0.6442018181818181,0.6150401212121211,-0.0913309393939394,0.02478312121212121,-0.001026151515151515,-0.07752624242424243,-0.33781127272727274,0.07618263636363637,0.2221140909090909,-0.002017909090909091,-0.019913909090909093,0.004160636363636364,-0.13677796969696973,-0.4920987878787879,-9.620087545454545,-0.11334775757575757,-0.020241575757575757,0.01940548484848485,0.640444,-0.38931518181818187,-1.0322948181818183,0.017033272727272727,6379.212121212121,7.636363636363637,7.0606060606060606,110.33333333333333
0 days 00:00:22.738840,-3.1725276969696967,0.17867633333333333,-0.3560399393939393,0.6344776666666667,0.6081534848484847,-0.0854058787878788,0.08105939393939394,-0.4449438484848484,0.09434503030303029,0.002511818181818182,-0.000906878787878788,-0.07591369696969696,10.0,-9.969696969696969,-20.575757575757574,0.1443457272727273,0.190809,0.0,0.0030854848484848482,0.08044181818181817,1566.6363636363637,-0.2983162121212121,0.0,0.0,-0.7170940909090909,9.685913545454547,7500.69696969697,7505.121212121212,7478.121212121212,7474.242424242424,7584.0,7416.030303030303,7429.242424242424,7515.969696969697,0.727472303030303,-0.3213236666666667,-1.0560399393939393,0.6344776666666667,0.6081534848484847,-0.0854058787878788,0.002511818181818182,-0.000906878787878788,-0.07591369696969696,-0.338988,0.075239,0.222021,-0.002015,-0.019935,0.004169,-0.5365175454545454,-0.09629493939393939,-9.504024636363637,-0.6200061818181819,-0.016727363636363637,0.034483,0.660504,-0.366781,-1.031681,0.015982,6334.727272727273,127.0909090909091,27.363636363636363,-57.36363636363637
0 days 00:00:22.803840,-3.142144,0.21742329411764705,-0.3549715294117646,0.5959212058823529,0.5855050882352941,-0.07220088235294117,-0.14901814705882352,-0.8102252058823529,0.11825211764705884,-0.03538408823529412,0.0017961470588235293,-0.07657594117647058,8.851187970588235,-11.294117647058824,-17.11764705882353,0.16587223529411763,0.1889904705882353,0.042382735294117645,0.001996529411764706,0.2322529117647059,1621.5882352941176,-0.33733323529411763,0.0,-0.10588235294117646,-0.42899735294117647,9.705641529411764,7711.5,7273.5,7350.911764705882,7602.029411764706,7675.088235294118,7281.911764705882,7349.117647058823,7642.235294117647,0.757856,-0.28257670588235295,-1.0549715294117645,0.5959212058823529,0.5855050882352941,-0.07220088235294117,-0.03538408823529412,0.0017961470588235293,-0.07657594117647058,-0.3407816470588235,0.07263588235294118,0.2216725588235294,-0.002007235294117647,-0.019998088235294118,0.004229176470588235,-0.7119715882352942,-0.13149123529411763,-9.5018095,-0.3469380588235294,0.006814470588235292,-0.018454205882352942,0.7146579705882353,-0.3036287058823529,-1.0304929999999999,-0.0027649117647058825,6335.882352941177,342.55882352941177,-17.029411764705884,-70.61764705882354
0 days 00:00:22.868840,-3.108768606060606,0.2545264242424242,-0.35587103030303036,0.5690224545454545,0.5483635757575758,-0.06349996969696971,0.18843893939393944,-0.8018582121212121,0.011622030303030315,-0.03768742424242424,-0.0001546969696969697,-0.07875430303030304,3.4628286666666668,-12.0,-14.636363636363637,0.20495693939393939,0.17890566666666666,0.205859,0.002056969696969697,0.3710551818181818,1686.0,-0.6035190909090908,-0.0035055757575757573,-0.6000135151515151,-0.42494518181818186,9.720807060606061,7580.242424242424,7302.363636363636,7396.454545454545,7691.393939393939,7553.424242424242,7383.363636363636,7394.818181818182,7666.969696969697,0.7912313939393939,-0.24547357575757578,-1.0558710303030303,0.5690224545454545,0.5483635757575758,-0.06349996969696971,-0.03768742424242424,-0.0001546969696969697,-0.07875430303030304,-0.34093830303030304,0.07113154545454546,0.22146321212121212,-0.002004090909090909,-0.020028121212121212,0.004279484848484849,-0.42868130303030305,-0.06187854545454547,-9.611357818181817,0.23116421212121213,-0.16965551515151517,-0.018258757575757577,0.7407290606060606,-0.27409560606060607,-1.0295420909090909,-0.009632151515151515,6353.636363636364,220.8181818181818,-62.484848484848484,72.12121212121212
0 days 00:00:22.933840,-3.077383818181818,0.288771,-0.3563673939393939,0.5546772727272727,0.5143605454545455,-0.06334433333333334,0.2771620606060605,-0.8902003333333334,-0.020830606060606,-0.016670030303030305,-0.015614757575757577,-0.07974409090909092,3.4171827575757576,-12.0,-11.0,0.190975,0.171414,0.205859,0.0,0.14234,1716.0,-0.658065,-0.057842,-0.600223,-0.688913,9.79,7517.242424242424,7598.0,7471.454545454545,7538.818181818182,7528.757575757576,7659.030303030303,7467.939393939394,7502.606060606061,0.8226161818181819,-0.211229,-1.0563673939393938,0.5546772727272727,0.5143605454545455,-0.06334433333333334,-0.016670030303030305,-0.015614757575757577,-0.07974409090909092,-0.341047,0.069617,0.221252,-0.002001,-0.020058,0.004331,-0.4869792121212121,-0.35987806060606053,-9.640565787878787,0.26561009090909093,-0.3099772121212121,0.010498060606060606,0.766686,-0.24475000000000002,-1.02857,-0.016325,6410.0,-47.90909090909091,108.3030303030303,116.45454545454545
0 days 00:00:22.998840,-3.050793818181818,0.3207912121212121,-0.35281621212121217,0.524171696969697,0.493927696969697,-0.04240578787878788,0.232796,-0.38287948484848483,-0.061890060606060615,-0.01589112121212121,-0.028870363636363635,-0.08034012121212121,3.372151939393939,-11.121212121212121,-7.484848484848484,0.17885948484848482,0.16723181818181818,0.205859,0.0030854848484848482,0.14966666666666667,1763.4545454545455,-0.7055190606060606,-0.10492442424242424,-0.6005946363636364,-0.4898211212121212,9.840150545454545,7619.181818181818,7593.606060606061,7474.69696969697,7524.545454545455,7645.818181818182,7549.363636363636,7470.666666666667,7569.484848484848,0.8492061818181817,-0.17920878787878788,-1.0528162121212121,0.524171696969697,0.493927696969697,-0.04240578787878788,-0.01589112121212121,-0.028870363636363635,-0.08034012121212121,-0.34149972727272726,0.0666679090909091,0.22085563636363637,-0.001993727272727273,-0.02010981818181818,0.004450999999999999,-0.6904001818181819,0.1171579090909091,-9.656190818181818,-0.15961609090909093,-0.1571600303030303,0.01283590909090909,0.8103632727272727,-0.19783454545454546,-1.0253854545454544,0.018084090909090907,6437.151515151515,97.48484848484848,77.33333333333333,1.6363636363636365
0 days 00:00:23.063840,-3.020068,0.35190176470588236,-0.352695,0.5237800294117647,0.46142955882352943,-0.06360020588235293,0.2826984705882353,-0.9519830588235294,-0.4179736176470589,-0.02444105882352941,-0.03451329411764706,-0.081343,3.3270193529411762,-8.088235294117647,-6.029411764705882,0.181928,0.16696123529411763,0.205859,0.0014973823529411765,0.20418629411764705,1806.8823529411766,-0.693993,-0.09299882352941177,-0.6009941764705883,-0.19108123529411766,10.108424588235295,7811.470588235294,7572.764705882353,7497.558823529412,7690.735294117647,7848.058823529412,7622.558823529412,7499.35294117647,7740.441176470588,0.8799319999999999,-0.14809823529411764,-1.052695,0.5237800294117647,0.46142955882352943,-0.06360020588235293,-0.02444105882352941,-0.03451329411764706,-0.081343,-0.3413480882352941,0.06531617647058824,0.22064852941176472,-0.0019903235294117644,-0.020132205882352944,0.004516147058823529,-0.6742302647058824,-0.32780908823529414,-10.050264205882353,-0.017987499999999997,-0.08476702941176471,-0.007345794117647059,0.8334146764705883,-0.1750405,-1.024401705882353,0.022467882352941174,6604.823529411765,232.88235294117646,115.17647058823529,11.0
0 days 00:00:23.128840,-2.9903497878787877,0.3807490606060606,-0.35321054545454555,0.5289153333333333,0.4295779090909091,-0.09437633333333333,0.5057692121212122,-0.652495,-0.3680271515151515,-0.01265890909090909,-0.03572506060606061,-0.08358218181818182,3.2825240606060606,-6.545454545454546,-4.545454545454546,0.17416227272727275,0.16951145454545455,0.205859,0.002057,0.16263427272727274,1821.090909090909,-0.7244752727272727,-0.12317800000000001,-0.6012972727272727,-0.36249245454545453,10.10478790909091,7765.363636363636,7712.393939393939,7542.575757575758,7736.242424242424,7702.333333333333,7754.666666666667,7557.333333333333,7705.666666666667,0.9096502121212122,-0.11925093939393938,-1.0532105454545455,0.5289153333333333,0.4295779090909091,-0.09437633333333333,-0.01265890909090909,-0.03572506060606061,-0.08358218181818182,-0.34103,0.063609,0.220378,-0.001986,-0.02016,0.004602,-0.5096176666666666,-0.13802087878787878,-9.988725212121212,0.29857654545454543,-0.023526242424242425,-0.004764393939393941,0.863596,-0.145798,-1.023327,0.023991,6608.181818181818,47.878787878787875,96.78787878787878,141.5151515151515
0 days 00:00:23.193840,-2.961472545454545,0.40740463636363633,-0.35366339393939406,0.5255776363636364,0.41412503030303033,-0.1120309696969697,0.6763141212121211,-0.4305255757575757,-0.484443,-0.0013765454545454545,-0.034301757575757576,-0.08443263636363636,3.239234666666667,-4.424242424242424,-0.696969696969697,0.1556948181818182,0.17147072727272727,0.205859,0.0030855454545454545,0.11535318181818183,1861.4848484848485,-0.7970512727272726,-0.19494509090909093,-0.6021061818181818,-0.5804702727272728,9.992682272727272,7602.818181818182,7756.242424242424,7627.272727272727,7657.545454545455,7591.424242424242,7697.242424242424,7618.30303030303,7630.606060606061,0.9385274545454546,-0.09259536363636364,-1.053663393939394,0.5255776363636364,0.41412503030303033,-0.1120309696969697,-0.0013765454545454545,-0.034301757575757576,-0.08443263636363636,-0.3407381212121212,0.06087433333333334,0.22001824242424245,-0.001978363636363636,-0.020192242424242425,0.004711454545454546,-0.3556759393939394,-0.033972575757575806,-10.107895484848484,0.0035437878787878798,-0.011681727272727272,0.02880109090909091,0.9052667878787879,-0.10951509090909091,-1.0247142727272727,0.034257666666666665,6543.818181818182,-46.72727272727273,19.87878787878788,83.36363636363636
0 days 00:00:23.258840,-2.928844735294118,0.4338795588235294,-0.35902382352941187,0.5320457647058824,0.4035192058823529,-0.13178908823529412,0.2679074411764706,-0.4568027647058823,-0.16092864705882354,-0.013408382352941176,-0.036618235294117646,-0.08379191176470588,3.1959163529411767,-4.0,2.1470588235294117,0.15850058823529412,0.1722944117647059,0.205859,0.001996470588235294,0.1710034117647059,1907.3823529411766,-0.7866920588235293,-0.18404123529411764,-0.6026504705882353,-0.6161436470588236,9.90177382352941,7638.558823529412,7598.058823529412,7583.794117647059,7582.735294117647,7667.176470588235,7575.294117647059,7564.735294117647,7565.588235294118,0.9711552647058823,-0.06612044117647059,-1.0590238235294118,0.5320457647058824,0.4035192058823529,-0.13178908823529412,-0.013408382352941176,-0.036618235294117646,-0.08379191176470588,-0.34051902941176465,0.05977411764705882,0.21986464705882353,-0.0019745294117647057,-0.020204176470588236,0.004755088235294118,-0.7624368823529412,-0.0005743823529411737,-9.756950735294119,-0.30531226470588235,-0.09387211764705883,0.012781500000000001,0.9238647647058823,-0.09455076470588236,-1.0261859705882352,0.03521229411764706,6485.705882352941,46.35294117647059,55.88235294117647,-64.20588235294117
0 days 00:00:23.323840,-2.898335757575757,0.45864542424242427,-0.36168824242424247,0.5263935151515151,0.3805188181818182,-0.12831763636363636,0.3768044848484849,-0.8344606363636363,0.007045121212121231,-0.03393366666666666,-0.03978821212121212,-0.08512621212121213,3.1531436363636365,-4.0,4.0,0.177022,0.175432,0.205859,0.0,0.262988,1950.0,-0.714996,-0.112065,-0.60293,-0.692934,9.87,7696.151515151515,7549.181818181818,7510.848484848485,7542.727272727273,7690.454545454545,7544.272727272727,7513.727272727273,7565.818181818182,1.0016642424242426,-0.04135457575757576,-1.0616882424242424,0.5263935151515151,0.3805188181818182,-0.12831763636363636,-0.03393366666666666,-0.03978821212121212,-0.08512621212121213,-0.339875,0.057414,0.21952,-0.001965,-0.020228,0.004848,-0.6393228787878787,-0.17601790909090909,-9.623934575757575,-0.28745703030303027,-0.02853487878787879,-0.003995030303030302,0.966898,-0.061821999999999995,-1.030907,0.031823,6465.0,99.06060606060606,77.48484848484848,-66.36363636363636
0 days 00:00:23.388840,-2.8664292424242426,0.48117554545454544,-0.3653541515151515,0.5280035757575757,0.3446982727272727,-0.13407778787878788,0.19078154545454543,-0.7881141515151515,-0.0036505454545454484,-0.04735245454545455,-0.03762669696969697,-0.0869420606060606,3.1115907575757578,-4.878787878787879,5.757575757575758,0.1434550909090909,0.1770941818181818,0.205859,0.002057,0.05584060606060606,1954.3939393939395,-0.8463134545454545,-0.2425119090909091,-0.6038005454545454,-0.5308869696969697,9.799017454545455,7631.969696969697,7468.757575757576,7468.878787878788,7647.818181818182,7596.939393939394,7468.151515151515,7460.787878787879,7658.393939393939,1.0335707575757576,-0.018824454545454544,-1.0653541515151514,0.5280035757575757,0.3446982727272727,-0.13407778787878788,-0.04735245454545455,-0.03762669696969697,-0.0869420606060606,-0.33868248484848484,0.055930848484848486,0.2192237878787879,-0.001957333333333333,-0.020240545454545456,0.004897484848484848,-0.8095703030303031,-0.03287769696969694,-9.613370121212121,-0.06788593939393939,-0.014737212121212123,-0.01678651515151515,1.0035063333333334,-0.037083060606060606,-1.0358924242424241,0.025132787878787876,6419.181818181818,162.9090909090909,-27.03030303030303,48.63636363636363
0 days 00:00:23.453840,-2.833769424242424,0.5015631515151515,-0.37149645454545466,0.5206544848484849,0.3012712121212121,-0.1301289696969697,0.46834048484848484,-0.8090129090909091,-0.16770196969696968,-0.04127366666666667,-0.040206454545454545,-0.08766836363636364,3.0705897575757577,-4.03030303030303,8.909090909090908,0.1698080909090909,0.1757761818181818,0.205859,0.00257130303030303,0.23158233333333333,2036.4545454545455,-0.744532393939394,-0.14009724242424243,-0.6044350909090909,-0.6272454242424242,9.920284545454546,7591.575757575758,7613.545454545455,7479.666666666667,7631.636363636364,7608.636363636364,7662.363636363636,7509.484848484848,7623.030303030303,1.0662305757575758,0.001563151515151515,-1.0714964545454546,0.5206544848484849,0.3012712121212121,-0.1301289696969697,-0.04127366666666667,-0.040206454545454545,-0.08766836363636364,-0.33812063636363643,0.05522075757575758,0.21908257575757575,-0.0019534242424242426,-0.02024639393939394,0.00492030303030303,-0.5796639090909091,-0.05832742424242418,-9.799153636363636,0.1677541515151515,-0.052815787878787886,0.014071393939393939,1.0210814848484848,-0.025456666666666666,-1.0383034242424243,0.022382727272727273,6496.484848484848,29.939393939393938,69.0909090909091,117.96969696969697
0 days 00:00:23.518840,-2.802395882352941,0.517577794117647,-0.3735570882352941,0.5187187058823529,0.26633076470588235,-0.13743223529411766,0.44602761764705884,-0.6748505294117647,-0.23011232352941177,-0.03380864705882353,-0.039233823529411765,-0.08741694117647059,3.029490264705882,-4.764705882352941,10.529411764705882,0.1782310294117647,0.17627273529411766,0.205859,0.001996441176470588,0.21578861764705884,2083.3529411764707,-0.7121088823529411,-0.10736420588235294,-0.6047454117647059,-0.5924128235294118,9.824083352941175,7562.882352941177,7624.941176470588,7524.323529411765,7592.588235294118,7548.64705882353,7582.441176470588,7519.764705882353,7566.205882352941,1.0976041176470588,0.01757779411764706,-1.073557088235294,0.5187187058823529,0.26633076470588235,-0.13743223529411766,-0.03380864705882353,-0.039233823529411765,-0.08741694117647059,-0.336733,0.053133,0.218685,-0.001935,-0.020259,0.004962,-0.5889821470588236,-0.02159923529411767,-9.84673711764706,0.058787617647058824,0.025081852941176472,0.017793470588235296,1.074153,0.002394,-1.046093,0.027462,6430.676470588235,6.4411764705882355,22.529411764705884,56.61764705882353
0 days 00:00:23.583840,-2.7682754545454547,0.5326477878787879,-0.37884245454545473,0.5113091818181819,0.229658,-0.12917900000000002,0.09680548484848482,-0.9165278181818183,0.20497112121212124,-0.0340019696969697,-0.035920545454545455,-0.08667878787878787,2.988974181818182,-5.0,12.151515151515152,0.180512,0.176489,0.205859,-0.027731666666666665,0.205162,2116.0,-0.703345,-0.0985,-0.604846,-0.5933266363636365,9.78634,7529.151515151515,7529.242424242424,7516.090909090909,7551.212121212121,7531.818181818182,7520.515151515152,7532.424242424242,7561.030303030303,1.1317245454545455,0.03264778787878788,-1.0788424545454547,0.5113091818181819,0.229658,-0.12917900000000002,-0.0340019696969697,-0.035920545454545455,-0.08667878787878787,-0.335913,0.05220693939393939,0.21846560606060605,-0.001927121212121212,-0.020255969696969696,0.004948060606060606,-0.8405539696969697,-0.32676375757575754,-9.410718575757576,-0.031701181818181816,0.039891090909090904,0.010919757575757576,1.1079105757575756,0.01663339393939394,-1.0516596666666667,0.026705636363636365,6405.545454545455,19.818181818181817,-20.606060606060606,12.181818181818182
0 days 00:00:23.648840,-2.7351642121212123,0.5451833636363637,-0.38408563636363624,0.5091323030303031,0.18987336363636365,-0.11910784848484848,0.27087696969696967,-0.7237787878787879,0.14370854545454548,-0.03644424242424243,-0.03382851515151515,-0.08651227272727273,2.9495803333333335,-5.363636363636363,14.454545454545455,0.18203466666666668,0.17697233333333334,0.205859,0.002571212121212121,0.20153433333333334,2156.181818181818,-0.697532,-0.09258266666666667,-0.60495,-0.833207,9.787917666666667,7518.969696969697,7540.333333333333,7536.30303030303,7548.363636363636,7509.818181818182,7586.333333333333,7569.181818181818,7524.212121212121,1.1648357878787878,0.04518336363636363,-1.0840856363636362,0.5091323030303031,0.18987336363636365,-0.11910784848484848,-0.03644424242424243,-0.03382851515151515,-0.08651227272727273,-0.3353017575757576,0.05154863636363636,0.21830330303030301,-0.0019213939393939396,-0.020253030303030304,0.004934818181818182,-0.6877959393939395,-0.08277103030303033,-9.471354151515152,-0.05166169696969697,-0.011925878787878787,0.004438939393939394,1.1333432424242424,0.027023848484848484,-1.055820424242424,0.026045878787878788,6421.0,-60.666666666666664,1.303030303030303,22.363636363636363
0 days 00:00:23.713840,-2.6999951515151515,0.5540930303030303,-0.38637293939393946,0.5078931212121213,0.13681966666666667,-0.10728163636363636,0.22040996969696972,-1.1480584545454544,0.12337096969696969,-0.05009575757575757,-0.03387054545454546,-0.08499087878787878,2.9106842424242427,-6.909090909090909,17.454545454545453,0.1995661818181818,0.17897754545454547,0.205859,0.002056939393939394,0.2437982727272727,2245.6363636363635,-0.629526303030303,-0.024453575757575757,-0.6050727272727272,-0.9358163333333334,9.745087666666667,7502.393939393939,7607.333333333333,7601.909090909091,7498.969696969697,7567.939393939394,7525.424242424242,7510.454545454545,7522.757575757576,1.2000048484848485,0.0540930303030303,-1.0863729393939394,0.5078931212121213,0.13681966666666667,-0.10728163636363636,-0.05009575757575757,-0.03387054545454546,-0.08499087878787878,-0.334089,0.050675,0.217998,-0.001912,-0.020238,0.00487,-0.6670218181818182,-0.39654354545454545,-9.514441303030303,-0.41131036363636364,-0.028253757575757574,0.02074457575757576,1.187442,0.044614,-1.064228,0.02344,6398.818181818182,27.272727272727273,29.96969696969697,-21.272727272727273
0 days 00:00:23.778840,-2.6647289117647057,0.5608616764705883,-0.3911842352941175,0.5191598235294118,0.0915505588235294,-0.10191991176470588,0.5053231176470588,-0.7102905588235294,-0.06801223529411761,-0.07162508823529412,-0.03178582352941177,-0.08428491176470587,2.871739882352941,-8.0,18.0,0.219226,0.180387,0.205859,0.0,0.311003,2298.0,-0.553011,0.051946,-0.604957,-0.460981,9.682679,7641.794117647059,7357.5,7361.970588235294,7575.323529411765,7607.058823529412,7361.5,7362.882352941177,7594.705882352941,1.2352710882352942,0.06086167647058824,-1.0911842352941175,0.5191598235294118,0.0915505588235294,-0.10191991176470588,-0.07162508823529412,-0.03178582352941177,-0.08428491176470587,-0.33329047058823535,0.050690441176470584,0.21786785294117647,-0.0019102352941176473,-0.02022697058823529,0.004828529411764706,-0.4032629117647059,0.29437614705882353,-9.700109235294118,-0.08585861764705882,0.07294779411764706,-0.009916411764705882,1.2145130294117648,0.05062061764705882,-1.0685109411764706,0.014638529411764705,6328.0,238.14705882352942,5.588235294117647,-9.705882352941176
0 days 00:00:23.843840,-2.628211606060606,0.5650451818181819,-0.39541103030303026,0.5227141818181819,0.053786545454545455,-0.1034120303030303,0.3146625757575758,-0.8864302424242423,-0.010259363636363624,-0.05725324242424242,-0.027741181818181818,-0.08498875757575756,2.8333377878787878,-9.030303030303031,19.09090909090909,0.19678666666666667,0.18857569696969698,0.205859,0.004628333333333333,0.14428427272727273,2343.939393939394,-0.6403669090909091,-0.03525657575757576,-0.6051103333333333,-0.4799901515151515,9.742627969696969,7516.69696969697,7473.060606060606,7386.69696969697,7609.151515151515,7479.333333333333,7542.636363636364,7428.363636363636,7595.939393939394,1.271788393939394,0.06504518181818182,-1.0954110303030302,0.5227141818181819,0.053786545454545455,-0.1034120303030303,-0.05725324242424242,-0.027741181818181818,-0.08498875757575756,-0.332279,0.05071,0.217703,-0.0019079999999999998,-0.020213,0.004776,-0.5590079696969696,-0.041104454545454534,-9.644501636363636,0.45107569696969696,0.011415484848484848,-0.006673121212121213,1.248803,0.058229,-1.073936,0.00349,6370.454545454545,52.06060606060606,-1.2424242424242424,162.93939393939394
0 days 00:00:23.908840,-2.5900552727272728,0.5665001515151515,-0.39829854545454535,0.5258267575757576,0.030313424242424242,-0.09628281818181818,0.24524078787878786,-0.3660764848484848,0.013873181818181807,-0.028237696969696968,-0.027134242424242422,-0.08297178787878788,2.795994151515152,-10.0,21.0,0.213638,0.188624,0.205859,0.0,0.24885500000000002,2441.0,-0.574776,0.030231,-0.605007,-0.638553,9.751075,7389.636363636364,7659.515151515152,7499.151515151515,7513.424242424242,7398.121212121212,7661.757575757576,7527.0,7483.787878787879,1.3099447272727271,0.06650015151515151,-1.0982985454545453,0.5258267575757576,0.030313424242424242,-0.09628281818181818,-0.028237696969696968,-0.027134242424242422,-0.08297178787878788,-0.3315908181818182,0.050461818181818184,0.21748754545454543,-0.0019043636363636363,-0.020187545454545455,0.004675090909090909,-0.6676728787878787,0.1741240303030303,-9.581321060606061,0.31968372727272726,0.003240393939393942,0.03209345454545454,1.3020711818181818,0.06264627272727273,-1.081415090909091,0.010838181818181818,6379.0,-153.15151515151516,24.545454545454547,155.6060606060606
0 days 00:00:23.973840,-2.5532315294117645,0.5673895294117647,-0.4028184411764706,0.520338705882353,0.011542411764705883,-0.0908849411764706,-0.13921055882352942,-0.5650196764705883,0.25693958823529406,-0.023203617647058826,-0.02527829411764706,-0.08007458823529412,2.7585814705882354,-11.705882352941176,21.852941176470587,0.226182,0.19261564705882356,0.205859,0.001996470588235294,0.2639239411764706,2518.6176470588234,-0.5257422352941177,0.07898064705882354,-0.6047228823529411,-0.5417265294117648,9.661809352941177,7437.85294117647,7569.411764705882,7520.5,7428.764705882353,7470.029411764706,7508.235294117647,7499.205882352941,7413.382352941177,1.3467684705882355,0.0673895294117647,-1.1028184411764705,0.520338705882353,0.011542411764705883,-0.0908849411764706,-0.023203617647058826,-0.02527829411764706,-0.08007458823529412,-0.3314818529411765,0.05043929411764706,0.217388,-0.0019028529411764708,-0.020173147058823532,0.004620647058823529,-0.9934513529411765,-0.1270681470588235,-9.33263444117647,-0.12001658823529411,0.01685282352941176,0.03344011764705883,1.3299931470588235,0.0635919411764706,-1.0849675588235295,0.015354470588235292,6315.588235294118,-61.94117647058823,32.6764705882353,-33.55882352941177
0 days 00:00:24.038840,-2.516221424242424,0.5662385454545454,-0.4060238181818183,0.5095709696969697,-0.02573187878787879,-0.07555430303030303,0.22629951515151514,-0.7427320000000001,0.04275330303030302,-0.035224454545454545,-0.022532575757575758,-0.07844909090909091,2.721658393939394,-12.727272727272727,22.363636363636363,0.23246433333333333,0.193015,0.205859,0.002057,0.26679166666666665,2566.181818181818,-0.501098,0.10339533333333334,-0.604493,-0.525977,9.636015333333333,7517.333333333333,7436.545454545455,7471.787878787879,7412.727272727273,7515.424242424242,7433.484848484848,7459.30303030303,7430.909090909091,1.3837785757575758,0.06623854545454545,-1.1060238181818183,0.5095709696969697,-0.02573187878787879,-0.07555430303030303,-0.035224454545454545,-0.022532575757575758,-0.07844909090909091,-0.331417,0.050443,0.217262,-0.001901,-0.020154,0.004549,-0.5903468181818182,-0.15548048484848487,-9.572946212121211,-0.17885884848484848,0.03413530303030303,-0.0037878787878787876,1.366493,0.064406,-1.089498,0.021463,6297.333333333333,26.727272727272727,29.242424242424242,-77.96969696969697
0 days 00:00:24.103840,-2.4782632424242426,0.5624411212121212,-0.40838206060606064,0.5276645454545454,-0.06308193939393938,-0.07455478787878787,0.4810710303030302,-0.6964112727272728,0.06868548484848488,-0.041732757575757576,-0.01910981818181818,-0.07772351515151515,2.685804333333333,-14.909090909090908,23.90909090909091,0.22746239393939394,0.19845221212121214,0.205859,0.0030854848484848482,0.22732421212121212,2669.6363636363635,-0.5201673333333333,0.08395642424242424,-0.6041227575757575,-0.5799519696969696,9.635031575757576,7467.151515151515,7439.727272727273,7443.363636363636,7451.151515151515,7447.242424242424,7442.909090909091,7466.69696969697,7488.393939393939,1.4217367575757576,0.06244112121212122,-1.1083820606060606,0.5276645454545454,-0.06308193939393938,-0.07455478787878787,-0.041732757575757576,-0.01910981818181818,-0.07772351515151515,-0.3312435454545455,0.05079072727272727,0.21711554545454545,-0.0018993636363636363,-0.02012781818181818,0.004453272727272728,-0.2924361212121212,-0.018258848484848475,-9.554746666666666,-0.04197,0.055345878787878784,0.0025968181818181815,1.414246181818182,0.061730545454545455,-1.0948865454545456,0.010562363636363635,6299.454545454545,12.969696969696969,-32.42424242424242,12.212121212121213
0 days 00:00:24.168840,-2.4416195454545453,0.5571515151515152,-0.4115088181818183,0.5283057878787878,-0.08950924242424242,-0.063221,0.2740579090909091,-0.6067454545454546,0.09148472727272725,-0.04249175757575758,-0.017887242424242424,-0.07714287878787879,2.650403363636364,-16.545454545454547,25.0,0.21276327272727272,0.20478172727272728,0.205859,0.0015427878787878787,0.20161951515151516,2756.909090909091,-0.5771800909090908,0.026832939393939395,-0.6040125454545455,-0.48785333333333325,9.646638515151515,7436.484848484848,7444.575757575758,7475.121212121212,7508.242424242424,7448.242424242424,7437.484848484848,7463.878787878788,7514.818181818182,1.4583804545454546,0.057151515151515155,-1.1115088181818182,0.5283057878787878,-0.08950924242424242,-0.063221,-0.04249175757575758,-0.017887242424242424,-0.07714287878787879,-0.3311799090909091,0.05100927272727273,0.21703663636363635,-0.001899272727272727,-0.02011327272727273,0.004406090909090909,-0.4921875151515151,0.06184899999999999,-9.525449848484849,0.009277242424242426,-0.044352212121212126,0.0013390606060606051,1.4407675454545452,0.05930381818181819,-1.097317,0.007256090909090909,6306.242424242424,30.727272727272727,-46.42424242424242,28.333333333333332
0 days 00:00:24.233840,-2.4027637352941174,0.5503009705882353,-0.4134372352941176,0.5246688235294118,-0.1064215,-0.05862614705882353,-0.11556217647058825,-0.46954729411764706,0.1912812352941176,-0.038738529411764706,-0.022892882352941176,-0.07671338235294119,2.6149167647058826,-17.11764705882353,25.058823529411764,0.21483914705882354,0.20262129411764707,0.205859,0.0019965,0.22766723529411764,2791.764705882353,-0.5690401470588236,0.0349009705882353,-0.6039410882352941,-0.35194044117647055,9.639758411764705,7467.794117647059,7450.294117647059,7392.5,7529.058823529412,7464.441176470588,7493.911764705882,7369.529411764706,7509.794117647059,1.4972362647058823,0.050300970588235294,-1.1134372352941175,0.5246688235294118,-0.1064215,-0.05862614705882353,-0.038738529411764706,-0.022892882352941176,-0.07671338235294119,-0.331113,0.051386,0.216913,-0.0019000000000000002,-0.02009,0.004337,-0.9434742647058824,0.10937494117647058,-9.393956823529413,0.1329919705882353,-0.12693873529411764,-0.01400214705882353,1.483193,0.054418,-1.100605,0.004899,6296.85294117647,55.3235294117647,39.5,119.73529411764706
0 days 00:00:24.298840,-2.3651189393939394,0.5423047575757576,-0.41491360606060623,0.5217730606060605,-0.12838763636363637,-0.045585545454545455,0.3697541515151515,-0.5139152727272727,0.12447318181818184,-0.02843439393939394,-0.027543606060606064,-0.07574587878787878,2.5799450303030302,-19.0,26.0,0.22956736363636362,0.20352263636363638,0.205859,0.0030854848484848482,0.2567878181818182,2910.818181818182,-0.5114212727272728,0.09213690909090909,-0.6035573030303031,-0.5541901515151515,9.590539606060606,7388.878787878788,7561.636363636364,7350.363636363636,7449.272727272727,7394.151515151515,7554.69696969697,7370.969696969697,7439.757575757576,1.5348810606060606,0.04230475757575758,-1.1149136060606062,0.5217730606060605,-0.12838763636363637,-0.045585545454545455,-0.02843439393939394,-0.027543606060606064,-0.07574587878787878,-0.33152766666666666,0.051853333333333335,0.21680366666666667,-0.0019006666666666666,-0.02007,0.004284333333333333,-0.5032848787878788,0.015832212121212122,-9.482806636363636,0.0873209393939394,-0.025005909090909093,0.021425181818181815,1.5235636666666668,0.04625666666666667,-1.1025223333333334,0.014322333333333333,6269.30303030303,-45.696969696969695,69.0909090909091,161.9090909090909
0 days 00:00:24.363840,-2.329255,0.5330069393939394,-0.41662918181818176,0.5303332727272727,-0.15327351515151516,-0.041845151515151516,0.36555272727272725,-0.5873383636363637,-0.07714151515151516,-0.029685848484848485,-0.02288469696969697,-0.07394136363636364,2.545953878787879,-19.0,26.0,0.255206,0.211901,0.205859,0.0,0.288179,3061.0,-0.411134,0.191773,-0.602907,-0.36,9.72,7509.242424242424,7496.969696969697,7386.30303030303,7509.060606060606,7527.363636363636,7486.272727272727,7421.69696969697,7536.060606060606,1.5707449999999998,0.033006939393939394,-1.1166291818181817,0.5303332727272727,-0.15327351515151516,-0.041845151515151516,-0.029685848484848485,-0.02288469696969697,-0.07394136363636364,-0.331735,0.052087,0.216749,-0.001901,-0.02006,0.004258,-0.46978569696969696,-0.027077363636363625,-9.693655272727273,-0.04541760606060607,0.11482,0.018288333333333334,1.543749,0.042176,-1.103481,0.019034,6344.0,77.66666666666667,27.78787878787879,51.75757575757576
