time,pos_x,pos_y,pos_z,vel_x,vel_y,vel_z,acc_x,acc_y,acc_z,att_phi,att_theta,att_psi,distance_est,centroid_x,centroid_y,divergence,true_divergence,divergence_sp,dt,raw_divergence,color_count,mu_x,p_output,i_output,mu_y, mu_z,rpm_obs_1,rpm_obs_2,rpm_obs_3,rpm_obs_4,rpm_ref_1,rpm_ref_2,rpm_ref_3,rpm_ref_4,ekf_X1,ekf_X2,ekf_X3,ekf_X4,ekf_X5,ekf_X6,ekf_X7,ekf_X8,ekf_X9,ekf_X10,ekf_X11,ekf_X12,ekf_X13,ekf_X14,ekf_X15,ekf_U1,ekf_U2,ekf_U3,ekf_U4,ekf_U5,ekf_U6,ekf_Z1,ekf_Z2,ekf_Z3,ekf_Z4,cmd_thrust,cmd_roll,cmd_pitch,cmd_yaw
0 days 00:00:23.863095,-5.949549090909091,-1.6104082121212122,-0.2641053636363637,0.30051900000000004,0.3380734848484849,0.2115988484848485,1.7993095757575757,2.5676817272727273,-1.679495606060606,0.2593458484848485,-0.1838259090909091,-0.09459072727272728,10.0,2.1515151515151514,-87.0909090909091,0.095159,0.02313630303030303,0.0,0.00257130303030303,0.5563366666666667,436.6666666666667,-1.5,0.0,0.0,2.334238393939394,11.294300939393938,8804.484848484848,8161.454545454545,8791.121212121212,7600.121212121212,8732.060606060606,7941.909090909091,8868.333333333334,7952.393939393939,-2.0495490909090908,-2.110408212121212,-0.9641053636363637,0.30051900000000004,0.3380734848484849,0.2115988484848485,0.2593458484848485,-0.1838259090909091,-0.09459072727272728,0.013137,0.174437,0.219653,-0.002554,-0.018653,0.00214,-0.5516394545454545,0.16403290909090912,-11.69637787878788,-0.7057069696969698,1.3231830303030303,-0.21423718181818183,-2.063065,-2.123235,-0.967007,0.310887,7592.787878787879,-62.75757575757576,-73.24242424242425,-1214.939393939394
0 days 00:00:23.928095,-5.92807405882353,-1.5830670294117648,-0.25310705882352935,0.3751380588235294,0.5064731176470588,0.05930067647058824,0.8897271176470588,1.8234665588235295,-3.669718794117647,0.18215150000000002,-0.11843761764705883,-0.09258314705882353,10.0,51.0,-73.0,0.038583,0.054826,0.0,0.0,-0.30761,416.0,-1.5,0.0,0.0,-1.526645,13.484123,9006.0,8903.558823529413,9523.323529411764,8660.058823529413,9168.264705882353,9263.058823529413,9653.735294117647,8947.941176470587,-2.0280740588235298,-2.083067029411765,-0.9531070588235293,0.3751380588235294,0.5064731176470588,0.05930067647058824,0.18215150000000002,-0.11843761764705883,-0.09258314705882353,0.00786970588235294,0.1739095294117647,0.21974564705882352,-0.002549676470588235,-0.018662264705882354,0.0021523529411764703,-0.824620794117647,-0.018612088235294116,-13.398437382352942,-1.8037395294117646,0.503669294117647,-0.13558426470588236,-2.0455855882352942,-2.1019348235294117,-0.9533693529411764,0.2330270294117647,8898.0,-399.55882352941177,-84.88235294117646,-554.5294117647059
0 days 00:00:23.993095,-5.9028062424242425,-1.5471871212121213,-0.2567086666666667,0.4107877575757576,0.579947696969697,-0.20253566666666667,0.02456951515151507,-0.3496769393939394,-2.726533121212121,0.022829333333333333,-0.10513339393939394,-0.09631012121212121,10.0,42.21212121212121,-72.12121212121212,0.009467242424242425,0.06250733333333333,0.0,0.0025712424242424242,-0.2192411515151515,403.6969696969697,-1.5,0.0,0.0,0.5605131818181819,10.299427606060606,8869.69696969697,8384.939393939394,8587.545454545454,8741.030303030304,8395.09090909091,7060.575757575758,7323.909090909091,8530.969696969696,-2.0028062424242425,-2.0471871212121213,-0.9567086666666667,0.4107877575757576,0.579947696969697,-0.20253566666666667,0.022829333333333333,-0.10513339393939394,-0.09631012121212121,0.004327666666666666,0.1739352424242424,0.21979427272727273,-0.002545909090909091,-0.018668242424242424,0.002161818181818182,-1.1815815151515152,-0.2485499696969697,-12.270389424242424,-2.566598515151515,-0.060731818181818185,-0.06795984848484848,-2.029750090909091,-2.082493121212121,-0.9459942727272727,0.16879575757575754,6816.666666666667,1268.7575757575758,-199.21212121212122,-90.03030303030303
0 days 00:00:24.058095,-5.87602303030303,-1.5123006969696968,-0.27062912121212124,0.4322533636363637,0.5316963030303031,-0.2514576060606061,0.31722839393939395,-1.123540515151515,0.5663896969696969,-0.06629224242424243,-0.12584654545454546,-0.10153918181818182,10.0,29.0,-74.66666666666667,0.00396,0.06697490909090908,0.0,0.002057,-0.07398581818181818,402.0,-1.2447497575757576,0.0,0.0,1.64638,9.147452545454545,8166.515151515152,6701.090909090909,6560.787878787879,8429.969696969696,8062.515151515152,6908.30303030303,6142.151515151515,8241.151515151516,-1.9760230303030302,-2.012300696969697,-0.9706291212121212,0.4322533636363637,0.5316963030303031,-0.2514576060606061,-0.06629224242424243,-0.12584654545454546,-0.10153918181818182,0.002288,0.176489,0.219731,-0.002538,-0.01867,0.002175,-0.651189606060606,-0.05980703030303031,-9.070697090909091,0.37458569696969696,-0.628188606060606,-0.15937948484848485,-1.993392,-2.037138,-0.953732,0.052562,6126.151515151515,1623.969696969697,293.3333333333333,666.9090909090909
0 days 00:00:24.123095,-5.846110588235295,-1.4794838235294117,-0.2842910294117649,0.4768587647058823,0.5041133235294117,-0.1846080588235294,1.114161911764706,0.07694682352941178,0.8812041470588234,0.07663464705882353,-0.15625723529411764,-0.10727552941176471,10.0,14.529411764705882,-77.88235294117646,0.01626929411764706,0.07235635294117648,0.0,0.0024956176470588235,0.08823882352941176,408.5882352941176,-0.8573101764705883,0.0,0.0,2.0023802941176467,8.851723676470588,7239.5,7617.735294117647,5862.911764705882,7544.117647058823,7061.323529411765,8003.794117647059,6321.705882352941,7442.176470588235,-1.9461105882352943,-1.9794838235294117,-0.9842910294117648,0.4768587647058823,0.5041133235294117,-0.1846080588235294,0.07663464705882353,-0.15625723529411764,-0.10727552941176471,-0.00023899999999999987,0.17727247058823528,0.21975391176470588,-0.0025335294117647057,-0.018667205882352943,0.0021878529411764706,-0.24399708823529415,-0.11233341176470589,-8.787339205882354,3.1677389705882355,-0.0804874705882353,-0.010792470588235294,-1.9666439117647059,-2.007700294117647,-0.9671923823529411,0.091474,5940.794117647059,88.82352941176471,649.5882352941177,1456.2058823529412
0 days 00:00:24.188095,-5.812546848484848,-1.4453897878787878,-0.29298242424242427,0.5371267575757576,0.5745663030303031,-0.09589557575757575,0.435934393939394,1.6161992424242424,1.6622691212121212,0.2563639696969697,-0.1320371818181818,-0.09803684848484848,10.0,8.272727272727273,-79.72727272727273,0.032084,0.076932,0.0,-0.027731757575757576,0.200008,421.1818181818182,-0.8030272727272727,0.0,0.0,1.9334856363636364,8.928407909090907,6501.727272727273,7962.848484848485,6884.393939393939,7061.30303030303,6626.333333333333,7947.727272727273,7270.575757575758,7085.060606060606,-1.9125468484848485,-1.9453897878787878,-0.9929824242424242,0.5371267575757576,0.5745663030303031,-0.09589557575757575,0.2563639696969697,-0.1320371818181818,-0.09803684848484848,-0.002234,0.177891,0.219772,-0.00253,-0.018665,0.002198,-0.763346303030303,-0.1082801212121212,-8.06125715151515,1.8520878484848484,0.649591696969697,0.09576227272727272,-1.9455270000000002,-1.98446,-0.9778189999999999,0.12219400000000001,5976.393939393939,-752.2424242424242,108.93939393939394,801.7575757575758
0 days 00:00:24.253095,-5.775597242424242,-1.405193606060606,-0.29576803030303045,0.5863670606060606,0.707956,-0.008493333333333332,0.5238707575757576,2.0176930606060606,0.9735160303030304,0.29010521212121215,-0.092659,-0.0818020303030303,10.0,21.727272727272727,-76.81818181818181,0.028825333333333335,0.083523,0.0,0.002057030303030303,0.11631766666666665,433.90909090909093,-0.7528578787878788,0.0,0.0,1.140814,10.030021666666666,6855.545454545455,7580.636363636364,7648.515151515152,7074.30303030303,7357.424242424242,7919.181818181818,8129.424242424242,7416.878787878788,-1.8755972424242424,-1.905193606060606,-0.9957680303030304,0.5863670606060606,0.707956,-0.008493333333333332,0.29010521212121215,-0.092659,-0.0818020303030303,-0.011035060606060606,0.17478624242424243,0.22006287878787878,-0.002522090909090909,-0.018662363636363637,0.002241060606060606,-0.444276696969697,-0.180013,-8.848662303030302,-0.594926303030303,0.4790038787878788,0.05277857575757575,-1.893998393939394,-1.9310868181818182,-0.9916678181818182,0.19903257575757577,6644.606060606061,-636.060606060606,-134.5151515151515,-106.60606060606061
0 days 00:00:24.318095,-5.735819393939394,-1.3550087272727274,-0.2971627272727274,0.6164832424242425,0.8512464848484849,-0.08201609090909091,0.2501126666666667,1.4792072121212123,-2.9944752424242425,0.1833168181818182,-0.07599366666666667,-0.07624245454545454,10.0,30.0,-73.0,0.022308,0.096705,0.0,0.0,-0.051063,432.0,-0.7059038484848486,0.0,0.0,-0.421802,12.051431,8558.272727272728,8523.939393939394,8836.818181818182,8172.363636363636,8766.09090909091,8441.212121212122,8756.787878787878,8337.181818181818,-1.8358193939393939,-1.8550087272727274,-0.9971627272727274,0.6164832424242425,0.8512464848484849,-0.08201609090909091,0.1833168181818182,-0.07599366666666667,-0.07624245454545454,-0.014720212121212122,0.17387563636363637,0.22019633333333333,-0.002521848484848485,-0.018657757575757574,0.0022677878787878787,-0.7972301818181818,-0.38955957575757577,-12.655332575757575,-2.544130212121212,0.10361921212121211,-0.0038248484848484848,-1.861297303030303,-1.892245787878788,-0.9952465454545455,0.17583669696969698,7872.242424242424,-47.333333333333336,56.57575757575758,-525.5454545454545
0 days 00:00:24.383095,-5.6938417647058825,-1.2968413235294118,-0.3083723235294118,0.6329218823529412,0.8989673529411765,-0.25254535294117647,0.10362479411764708,-0.5134663823529412,-1.6114939117647058,0.010386147058823528,-0.07027673529411765,-0.07961891176470588,10.0,26.58823529411765,-67.88235294117646,0.03000388235294118,0.10121547058823528,0.0,0.001996470588235294,0.07437288235294116,437.11764705882354,-0.6611730588235294,0.0,0.0,-0.31397482352941175,10.259374176470589,8631.470588235294,7649.35294117647,7927.470588235294,8211.117647058823,8283.14705882353,7237.705882352941,7423.617647058823,8043.911764705882,-1.7938417647058824,-1.7968413235294118,-1.0083723235294118,0.6329218823529412,0.8989673529411765,-0.25254535294117647,0.010386147058823528,-0.07027673529411765,-0.07961891176470588,-0.018074,0.173221,0.220323,-0.002523,-0.018652,0.002296,-0.612764294117647,-0.24962670588235292,-11.20706005882353,-2.2772000588235293,0.05465873529411765,-0.09951608823529412,-1.826563,-1.849524,-0.997511,0.129973,6702.941176470588,831.4411764705883,26.676470588235293,-300.05882352941177
0 days 00:00:24.448095,-5.652878393939394,-1.2426774242424243,-0.3256296060606061,0.6372824545454545,0.8364303030303031,-0.27659309090909096,-0.10919733333333334,-1.3059745757575758,0.49547648484848483,-0.06973978787878789,-0.06922842424242424,-0.08776751515151515,10.0,15.333333333333334,-67.66666666666667,0.05057909090909091,0.10470136363636363,0.0,0.0030854848484848482,0.16141254545454545,450.0,-0.6193176666666667,0.0,0.0,0.6561584545454545,9.461054272727273,7921.545454545455,6963.545454545455,6738.909090909091,8065.363636363636,7798.969696969697,7109.121212121212,6619.454545454545,8069.636363636364,-1.752878393939394,-1.7426774242424243,-1.025629606060606,0.6372824545454545,0.8364303030303031,-0.27659309090909096,-0.06973978787878789,-0.06922842424242424,-0.08776751515151515,-0.018786,0.17303366666666667,0.220279,-0.0025009999999999998,-0.018655333333333333,0.0023233333333333335,-0.5937500303030303,-0.30832736363636365,-9.156871454545454,-0.040889848484848494,-0.08732096969696969,-0.11587066666666668,-1.7835023333333335,-1.7910599999999999,-1.0112436666666669,0.050473000000000004,6211.939393939394,1068.3030303030303,109.42424242424242,536.6363636363636
0 days 00:00:24.513095,-5.6125161212121215,-1.1922058787878786,-0.34146860606060603,0.6270948484848485,0.7856613939393939,-0.21750957575757576,-0.19037154545454546,-0.3452194545454546,1.2229296363636364,0.004183787878787879,-0.07508039393939395,-0.09222354545454546,10.0,0.15151515151515152,-68.75757575757575,0.05317072727272727,0.10533445454545454,0.0,0.002057030303030303,0.029824909090909086,454.4848484848485,-0.5806583939393939,0.0,0.0,1.2617933636363634,9.004779000000001,7278.121212121212,7269.606060606061,6277.575757575758,7849.545454545455,7124.060606060606,7492.818181818182,6481.090909090909,7722.454545454545,-1.7125161212121214,-1.6922058787878786,-1.041468606060606,0.6270948484848485,0.7856613939393939,-0.21750957575757576,0.004183787878787879,-0.07508039393939395,-0.09222354545454546,-0.019142,0.17294,0.220257,-0.00249,-0.018657,0.002337,-0.7766039696969695,-0.0794271515151515,-8.343957181818183,2.0358072424242426,-0.07034203030303031,-0.01870269696969697,-1.761972,-1.761828,-1.01811,0.010723,5937.757575757576,435.6666666666667,206.3939393939394,1136.5151515151515
0 days 00:00:24.578095,-5.5762021212121216,-1.1473324242424243,-0.3520199393939396,0.6330862424242425,0.7947709090909091,-0.14085051515151514,0.36493942424242426,0.7037024848484849,1.062104909090909,0.14315039393939394,-0.07199718181818182,-0.08958821212121212,10.0,-3.242424242424242,-69.0,0.05536351515151516,0.10526957575757576,0.0,0.002057,0.028113606060606058,457.8787878787879,-0.5444147272727273,0.0,0.0,1.2390991515151515,9.107825757575757,6680.878787878788,7689.818181818182,6685.333333333333,7387.787878787879,6785.121212121212,7839.151515151515,6997.272727272727,7378.818181818182,-1.6762021212121212,-1.6473324242424243,-1.0520199393939396,0.6330862424242425,0.7947709090909091,-0.14085051515151514,0.14315039393939394,-0.07199718181818182,-0.08958821212121212,-0.022510575757575757,0.16660190909090908,0.22029560606060605,-0.0024470606060606062,-0.018682606060606063,0.0023192727272727275,-0.33753554545454545,-0.20608424242424242,-8.553355878787878,1.906568090909091,0.0987659696969697,0.07736287878787879,-1.7366460303030304,-1.7284672424242424,-1.0275078181818182,0.024554606060606058,6001.272727272727,-335.75757575757575,124.0,1013.4242424242424
0 days 00:00:24.643095,-5.5417546470588235,-1.1027286470588233,-0.3572042647058826,0.6198161764705883,0.8573859117647059,-0.07658261764705883,-0.37128435294117645,1.2732827352941176,0.5658703235294118,0.20738973529411764,-0.06176144117647059,-0.08126144117647059,10.0,-0.11764705882352941,-67.94117647058823,0.07000714705882354,0.10515294117647059,0.0,0.0024955882352941175,0.16295658823529413,469.29411764705884,-0.5099176764705883,0.0,0.0,0.878858,10.065473176470588,7104.205882352941,8000.029411764706,7556.029411764706,7435.323529411765,7344.441176470588,8024.882352941177,7770.764705882353,7544.558823529412,-1.6417546470588236,-1.6027286470588233,-1.0572042647058826,0.6198161764705883,0.8573859117647059,-0.07658261764705883,0.20738973529411764,-0.06176144117647059,-0.08126144117647059,-0.027693,0.156851,0.220355,-0.002381,-0.018722,0.002292,-1.0616096176470589,-0.38335817647058823,-9.044806941176471,0.0861815588235294,0.17137241176470588,0.09692373529411764,-1.697683,-1.677143,-1.041966,0.045834,6595.735294117647,-452.79411764705884,27.0,320.6764705882353
0 days 00:00:24.708095,-5.504582878787879,-1.0487297575757577,-0.36176839393939386,0.6062571212121213,0.9435776666666666,-0.09454745454545455,0.08737845454545458,1.1085414545454546,-0.8979551212121213,0.15377845454545455,-0.050431000000000004,-0.07510066666666666,10.0,7.606060606060606,-65.24242424242425,0.06585463636363637,0.10337939393939394,0.0,0.002057060606060606,0.03424790909090909,472.6969696969697,-0.4776365454545454,0.0,0.0,0.41092545454545454,10.590192666666667,7901.454545454545,7883.181818181818,8044.636363636364,7799.727272727273,7996.939393939394,7771.909090909091,7974.272727272727,7846.727272727273,-1.6045828787878786,-1.5487297575757577,-1.0617683939393938,0.6062571212121213,0.9435776666666666,-0.09454745454545455,0.15377845454545455,-0.050431000000000004,-0.07510066666666666,-0.03246339393939394,0.15300481818181816,0.22048099999999998,-0.002346,-0.018739393939393938,0.0023047272727272725,-0.5562560303030304,-0.20001766666666668,-10.532285727272727,-1.3973424545454547,0.10644536363636364,0.015943060606060606,-1.654899212121212,-1.6192188484848484,-1.0499228787878787,0.07128239393939394,6915.242424242424,48.72727272727273,-26.09090909090909,-248.87878787878788
0 days 00:00:24.773095,-5.464149575757576,-0.9854038181818183,-0.3687573333333334,0.594848909090909,0.9889926666666666,-0.1391342424242424,-0.39011818181818186,-0.07561999999999999,-0.650544696969697,0.057687393939393934,-0.04679312121212121,-0.07725651515151516,10.0,11.0,-61.0,0.11086,0.105666,0.0,0.0,0.464919,499.0,-0.4478163333333333,0.0,0.0,-0.159842,10.314625,8083.636363636364,7542.969696969697,7711.272727272727,7851.030303030303,8050.121212121212,7528.727272727273,7596.30303030303,7887.212121212121,-1.5641495757575758,-1.4854038181818183,-1.0687573333333333,0.594848909090909,0.9889926666666666,-0.1391342424242424,0.057687393939393934,-0.04679312121212121,-0.07725651515151516,-0.039277,0.151866,0.220706,-0.002351,-0.018733,0.002372,-0.8980231818181819,-0.35825033333333334,-10.200165696969696,-1.4121611515151515,-0.010912363636363633,-0.04961230303030303,-1.561792,-1.489537,-1.065629,0.07999,6729.060606060606,405.5151515151515,47.696969696969695,-162.63636363636363
0 days 00:00:24.838095,-5.41949644117647,-0.912601,-0.3793762352941177,0.591861,0.9893000000000001,-0.1744565882352941,-0.3038931470588236,-0.6734235882352941,0.006183970588235284,-0.002874088235294118,-0.04631276470588236,-0.08259114705882353,10.0,6.470588235294118,-59.05882352941177,0.11928285294117646,0.10290573529411765,0.0,0.0024956176470588235,0.2986768235294118,510.0,-0.41946647058823533,0.0,0.0,0.1672021176470588,9.834643441176471,7900.764705882353,7415.85294117647,7296.941176470588,7963.794117647059,7745.911764705882,7377.235294117647,7139.64705882353,7918.970588235294,-1.5194964411764706,-1.412601,-1.0793762352941176,0.591861,0.9893000000000001,-0.1744565882352941,-0.002874088235294118,-0.04631276470588236,-0.08259114705882353,-0.03821111764705882,0.1572254117647059,0.22071482352941177,-0.002408058823529412,-0.018698882352941176,0.002449058823529412,-0.7123735588235294,-0.3173540882352941,-9.577263323529412,-0.4531969117647059,0.005773147058823529,-0.06246408823529411,-1.521167294117647,-1.4236993529411763,-1.0749625294117648,0.04269588235294118,6418.235294117647,573.1470588235294,32.38235294117647,289.88235294117646
0 days 00:00:24.903095,-5.376244727272727,-0.8424129090909092,-0.3906019393939393,0.5901913636363636,0.9672648181818182,-0.15572036363636366,-0.1288286969696969,-0.5683504242424242,0.4021518484848485,0.004790363636363636,-0.04535360606060606,-0.08594745454545455,10.0,0.36363636363636365,-57.09090909090909,0.11215451515151516,0.10297754545454545,0.0,0.0025712424242424242,0.08831160606060605,513.7272727272727,-0.3928728787878788,0.0,0.0,0.4319287272727273,9.478573272727273,7432.060606060606,7326.333333333333,6893.121212121212,7825.545454545455,7376.848484848485,7429.363636363636,6938.363636363636,7787.393939393939,-1.4762447272727273,-1.3424129090909092,-1.0906019393939392,0.5901913636363636,0.9672648181818182,-0.15572036363636366,0.004790363636363636,-0.04535360606060606,-0.08594745454545455,-0.03746024242424242,0.1611800606060606,0.2207230303030303,-0.002450545454545455,-0.018673575757575757,0.002506909090909091,-0.5144707878787879,-0.26399736363636367,-9.186257090909091,0.5552646363636364,-0.014256272727272729,-0.014167515151515151,-1.490800727272727,-1.3744215454545454,-1.0820005757575757,0.01684839393939394,6188.939393939394,397.6363636363636,40.15151515151515,636.3030303030303
0 days 00:00:24.968095,-5.329740787878788,-0.7685119090909089,-0.39983109090909097,0.595088303030303,0.9762836666666665,-0.11459151515151515,-0.12385354545454542,-0.20039024242424244,0.6314908181818182,0.0543350606060606,-0.0474859393939394,-0.08690321212121212,10.0,-4.484848484848484,-55.515151515151516,0.10099106060606061,0.10541181818181819,0.0,0.002571212121212121,0.00911351515151515,516.5757575757576,-0.3683712424242424,0.0,0.0,0.5100745151515151,9.469340151515151,7231.272727272727,7504.151515151515,6914.757575757576,7635.454545454545,7269.242424242424,7596.757575757576,7036.121212121212,7618.151515151515,-1.429740787878788,-1.268511909090909,-1.099831090909091,0.595088303030303,0.9762836666666665,-0.11459151515151515,0.0543350606060606,-0.0474859393939394,-0.08690321212121212,-0.037308,0.167678,0.220788,-0.002532,-0.018628,0.002632,-0.5468749393939394,-0.3371508181818182,-8.93516209090909,0.7661799393939394,-0.027306696969696967,0.03168648484848485,-1.429064,-1.272295,-1.098147,0.025117,6184.818181818182,127.0909090909091,105.78787878787878,641.9090909090909
0 days 00:00:25.033095,-5.288056878787879,-0.7002408484848486,-0.4064125454545455,0.6006874545454546,0.9919301515151514,-0.09151630303030303,-0.15803990909090912,0.004649484848484853,0.3067008484848486,0.09142072727272728,-0.04521066666666666,-0.0849530303030303,10.0,-5.96969696969697,-53.93939393939394,0.121743,0.105478,0.0,0.0,0.256602,534.6666666666666,-0.3453705151515152,0.0,0.0,0.48643499999999995,9.732145,7336.333333333333,7682.333333333333,7254.909090909091,7621.333333333333,7389.30303030303,7666.393939393939,7319.030303030303,7625.272727272727,-1.3880568787878789,-1.2002408484848486,-1.1064125454545455,0.6006874545454546,0.9919301515151514,-0.09151630303030303,0.09142072727272728,-0.04521066666666666,-0.0849530303030303,-0.03865927272727272,0.1693080606060606,0.22087139393939395,-0.002567878787878788,-0.018610060606060606,0.0026867878787878788,-0.5905243939393939,-0.4911517878787879,-9.245590696969696,0.2880267575757576,0.06017690909090909,0.044589,-1.398968,-1.2217771818181817,-1.1032810606060606,0.03902584848484848,6354.060606060606,14.606060606060606,55.515151515151516,411.75757575757575
0 days 00:00:25.098095,-5.245220529411765,-0.628726294117647,-0.41211567647058844,0.5934392352941176,1.0274094411764707,-0.07704155882352942,-0.23477600000000004,0.15501123529411764,-0.0716226470588235,0.08979732352941176,-0.04007611764705882,-0.08294267647058823,10.0,-5.0,-52.0,0.14477,0.109054,0.0,0.001996794117647059,0.294352,556.0,-0.32350635294117647,0.0,0.0,0.368115,9.933647,7569.85294117647,7593.764705882353,7432.882352941177,7669.235294117647,7620.911764705882,7581.411764705882,7454.0,7705.029411764706,-1.3452205294117647,-1.128726294117647,-1.1121156764705884,0.5934392352941176,1.0274094411764707,-0.07704155882352942,0.08979732352941176,-0.04007611764705882,-0.08294267647058823,-0.040095,0.17104,0.22096,-0.002606,-0.018591,0.002745,-0.6358283529411765,-0.3019876470588235,-9.636086852941176,-0.2684541764705882,0.06406535294117646,0.017247882352941175,-1.366991,-1.168102,-1.108736,0.053804,6481.617647058823,145.05882352941177,21.58823529411765,149.35294117647058
0 days 00:00:25.163095,-5.202194848484849,-0.5511708484848483,-0.4167310303030305,0.5696386666666666,1.0691654848484848,-0.05673784848484849,-0.7733122121212122,0.12530178787878787,0.5438585151515153,0.06998357575757574,-0.03621027272727273,-0.08435893939393939,10.0,-3.303030303030303,-48.60606060606061,0.1533306363636364,0.10572563636363635,0.0,0.0025710303030303033,0.22241663636363637,572.969696969697,-0.3030040606060606,0.0,0.0,0.10196454545454546,9.986188181818182,7664.666666666667,7578.181818181818,7476.757575757576,7745.242424242424,7639.878787878788,7591.575757575758,7458.484848484848,7756.909090909091,-1.3021948484848487,-1.0511708484848483,-1.1167310303030304,0.5696386666666666,1.0691654848484848,-0.05673784848484849,0.06998357575757574,-0.03621027272727273,-0.08435893939393939,-0.04324263636363636,0.17246157575757573,0.22113260606060606,-0.002668060606060606,-0.018566757575757577,0.0028448787878787877,-1.1185192424242425,-0.14459033333333335,-9.009528818181819,-0.35236884848484845,0.035430090909090904,-0.013997303030303028,-1.3086850606060607,-1.0634687878787876,-1.1162647272727273,0.04202218181818181,6511.818181818182,173.24242424242425,7.96969696969697,176.4848484848485
0 days 00:00:25.228095,-5.164608484848484,-0.4782036666666667,-0.42033069696969716,0.5410911515151515,1.0880233333333333,-0.045932515151515155,-0.41254372727272726,-0.3205284848484849,-0.04449899999999993,0.04635112121212121,-0.03393021212121212,-0.08550030303030302,10.0,-4.878787878787879,-45.18181818181818,0.155233,0.104986,0.0,-0.028246060606060604,0.206431,583.5151515151515,-0.2840950606060606,0.0,0.0,0.0019109090909090907,9.979681272727273,7666.666666666667,7593.69696969697,7406.636363636364,7821.0,7668.242424242424,7582.0,7361.30303030303,7819.333333333333,-1.2646084848484846,-0.9782036666666667,-1.1203306969696971,0.5410911515151515,1.0880233333333333,-0.045932515151515155,0.04635112121212121,-0.03393021212121212,-0.08550030303030302,-0.04411227272727273,0.17299345454545453,0.22120333333333334,-0.0026916363636363635,-0.01855751515151515,0.002886181818181818,-0.7234256969696969,-0.3372395151515152,-9.609108606060605,-0.382901303030303,-0.01373851515151515,-0.003676878787878788,-1.2826451212121213,-1.0135866363636363,-1.1198820606060607,0.032952363636363634,6506.181818181818,271.6363636363636,34.75757575757576,262.3939393939394
0 days 00:00:25.293095,-5.127152588235294,-0.402504705882353,-0.42418464705882375,0.5343775882352941,1.090255117647059,-0.05873229411764706,-0.2311603235294117,-0.4834850294117647,-0.047694558823529416,0.028385558823529413,-0.03631329411764706,-0.08647985294117647,5.104721176470588,-5.882352941176471,-43.6764705882353,0.14508876470588233,0.10302517647058823,0.14610164705882353,0.0019965,0.11101605882352941,583.1176470588235,-0.6236864705882352,-0.05227805882352941,-0.5472111764705883,-0.2754558823529412,9.799776,7591.970588235294,7523.735294117647,7372.323529411765,7865.5,7484.5,7497.64705882353,7373.058823529412,7792.235294117647,-1.227152588235294,-0.902504705882353,-1.1241846470588237,0.5343775882352941,1.090255117647059,-0.05873229411764706,0.028385558823529413,-0.03631329411764706,-0.08647985294117647,-0.045159,0.173655,0.221292,-0.002721,-0.018546,0.002938,-0.5436867647058824,-0.29486450000000003,-9.62721155882353,-0.15408141176470588,-0.13857844117647058,-0.0031738235294117632,-1.249778,-0.950327,-1.124472,0.021143,6406.14705882353,202.73529411764707,-91.44117647058823,305.1470588235294
0 days 00:00:25.358095,-5.0900364848484845,-0.32743642424242425,-0.42913860606060616,0.5323249696969697,1.0805259393939395,-0.05144133333333334,-0.01661209090909092,-0.6771205151515152,0.2676306363636364,0.016014333333333332,-0.05304730303030303,-0.08738048484848485,4.5862684848484845,-7.484848484848484,-41.03030303030303,0.12708978787878789,0.10063975757575758,0.155233,0.0030855151515151516,-0.009270121212121212,583.4545454545455,-0.7455363636363637,-0.1450362727272727,-0.6005008787878787,-0.5223317575757577,9.58278906060606,7351.818181818182,7465.484848484848,7281.242424242424,7568.787878787879,7455.151515151515,7469.515151515152,7252.727272727273,7601.424242424242,-1.1900364848484848,-0.8274364242424243,-1.1291386060606061,0.5323249696969697,1.0805259393939395,-0.05144133333333334,0.016014333333333332,-0.05304730303030303,-0.08738048484848485,-0.045682939393939394,0.17498257575757575,0.22139836363636364,-0.002747787878787879,-0.018534181818181818,0.002993939393939394,-0.46345290909090914,-0.34629506060606063,-9.323449424242424,-0.3396883636363636,-0.3651382121212121,0.01161521212121212,-1.2043591515151517,-0.8585997878787879,-1.1318575757575755,0.018154575757575758,6276.060606060606,166.93939393939394,35.21212121212121,256.27272727272725
0 days 00:00:25.423095,-5.0543645757575755,-0.25636142424242425,-0.4326253030303031,0.5400805151515151,1.0523863636363635,-0.03354663636363636,0.017385696969696964,-0.8975658484848484,0.3582150303030302,-0.0038256060606060606,-0.07585327272727273,-0.08838648484848485,4.54060006060606,-8.93939393939394,-37.878787878787875,0.114063,0.102184,0.155233,0.0,0.050236,588.6666666666666,-0.81316,-0.212173,-0.600987,0.010736,9.721789,7667.454545454545,7442.848484848485,7147.121212121212,7691.939393939394,7677.848484848485,7492.121212121212,7134.909090909091,7706.181818181818,-1.1543645757575758,-0.7563614242424243,-1.132625303030303,0.5400805151515151,1.0523863636363635,-0.03354663636363636,-0.0038256060606060606,-0.07585327272727273,-0.08838648484848485,-0.04587690909090909,0.17609245454545455,0.22145672727272728,-0.0027626363636363634,-0.018528545454545454,0.003025636363636363,-0.617631393939394,-0.3812736666666667,-9.238636363636363,-0.1395522121212121,-0.3421741515151515,-0.024924575757575756,-1.177823181818182,-0.804864,-1.1354992727272726,0.021377636363636366,6358.0,377.90909090909093,164.27272727272728,272.1212121212121
0 days 00:00:25.488095,-5.017717878787879,-0.18652457575757575,-0.43540954545454547,0.5512416969696969,1.0193827272727272,-0.020867272727272727,0.14654112121212123,-0.797780696969697,-0.10748833333333335,0.002495242424242424,-0.08842030303030303,-0.0904180909090909,4.495407151515152,-7.0,-34.0,0.135582,0.104827,0.155233,0.002057030303030303,0.268088,610.0,-0.702553,-0.101272,-0.601282,-0.343887,9.987314,7667.212121212121,7731.484848484848,7210.333333333333,7746.636363636364,7649.242424242424,7779.181818181818,7282.727272727273,7784.393939393939,-1.1177178787878788,-0.6865245757575758,-1.1354095454545454,0.5512416969696969,1.0193827272727272,-0.020867272727272727,0.002495242424242424,-0.08842030303030303,-0.0904180909090909,-0.046018,0.178099,0.221536,-0.002783,-0.018522,0.00307,-0.6461885757575757,-0.31167145454545453,-9.699869757575758,0.1661709393939394,-0.04288742424242424,-9.615151515151585e-05,-1.139669,-0.727424,-1.139908,0.032118,6529.0,185.54545454545453,180.36363636363637,445.7878787878788
0 days 00:00:25.553095,-4.980334058823529,-0.11848932352941177,-0.4389669999999999,0.5729385588235294,0.9895375588235295,-0.050042676470588236,0.013517588235294123,-0.8445728529411765,-0.29572005882352936,0.011634911764705883,-0.08204473529411765,-0.09030417647058823,4.449936764705883,-2.8823529411764706,-31.529411764705884,0.1689095294117647,0.10950355882352941,0.155233,0.002495676470588235,0.3477284705882353,642.9411764705883,-0.530534411764706,0.07048135294117647,-0.6010159705882353,-0.09885564705882353,10.144004529411765,7702.705882352941,7803.64705882353,7342.382352941177,7871.323529411765,7721.205882352941,7795.441176470588,7360.970588235294,7878.882352941177,-1.0803340588235295,-0.6184893235294118,-1.1389669999999998,0.5729385588235294,0.9895375588235295,-0.050042676470588236,0.011634911764705883,-0.08204473529411765,-0.09030417647058823,-0.04599520588235294,0.1801394411764706,0.2216176176470588,-0.0027977058823529413,-0.018520529411764707,0.0031082352941176473,-0.7186350588235293,-0.4404585,-9.880514735294117,0.11711570588235294,0.15500767647058822,0.01310464705882353,-1.1005888529411765,-0.6521997352941176,-1.1437205,0.039425352941176474,6621.117647058823,221.5,138.11764705882354,418.02941176470586
0 days 00:00:25.618095,-4.94280203030303,-0.05318999999999996,-0.4435288484848485,0.562577,0.9683912121212122,-0.05724336363636364,-0.19503654545454552,-0.5788849090909091,-0.1678894545454545,0.021761848484848485,-0.06683263636363637,-0.08995390909090908,4.405009242424242,-0.7272727272727273,-29.09090909090909,0.1698039393939394,0.1109238787878788,0.155233,0.0025713333333333335,0.2101481212121212,657.6363636363636,-0.5257697272727272,0.07509060606060607,-0.6008603333333333,-0.06259809090909091,10.089610424242423,7656.787878787879,7774.636363636364,7432.0,7915.393939393939,7604.545454545455,7718.424242424242,7430.151515151515,7899.424242424242,-1.0428020303030303,-0.55319,-1.1435288484848485,0.562577,0.9683912121212122,-0.05724336363636364,0.021761848484848485,-0.06683263636363637,-0.08995390909090908,-0.0458650303030303,0.18136378787878787,0.22166863636363637,-0.0028057575757575756,-0.018520636363636364,0.003132818181818182,-0.7859256666666666,-0.2887961212121212,-9.734937242424243,0.13714042424242426,0.22555639393939395,0.013442575757575757,-1.074959606060606,-0.6043563636363637,-1.1468559393939395,0.038934636363636366,6584.393939393939,177.36363636363637,-3.393939393939394,411.6666666666667
0 days 00:00:25.683095,-4.907187909090909,0.01059681818181818,-0.44918939393939405,0.5450440303030303,0.954324393939394,-0.06515181818181819,-0.39142969696969704,-0.549608696969697,0.10060366666666666,0.02764090909090909,-0.05750184848484849,-0.08923327272727272,4.361151878787879,-1.4545454545454546,-25.09090909090909,0.14805566666666664,0.10804460606060605,0.155233,0.002056848484848485,0.03251515151515151,662.0,-0.6379423636363636,-0.036987818181818184,-0.6009552424242425,-0.36861893939393936,9.82908996969697,7476.636363636364,7635.0,7439.727272727273,7791.121212121212,7440.515151515152,7599.363636363636,7436.606060606061,7724.636363636364,-1.007187909090909,-0.4894031818181818,-1.149189393939394,0.5450440303030303,0.954324393939394,-0.06515181818181819,0.02764090909090909,-0.05750184848484849,-0.08923327272727272,-0.045412,0.183183,0.221749,-0.002816,-0.018523,0.003173,-0.8770714242424242,-0.34407542424242427,-9.461499787878788,0.016239060606060608,0.025486727272727272,0.018710121212121213,-1.032021,-0.527238,-1.153404,0.027341,6425.121212121212,64.45454545454545,-60.63636363636363,315.54545454545456
0 days 00:00:25.748095,-4.872243411764706,0.07307497058823526,-0.4546562058823529,0.537759,0.9377203235294118,-0.05676394117647059,-0.09766144117647062,-0.6366015,0.13079129411764706,0.015000264705882354,-0.06284864705882354,-0.08857667647058824,4.317060529411765,-2.9411764705882355,-23.294117647058822,0.14247435294117647,0.1073825294117647,0.155233,0.0019965882352941176,0.04040976470588235,666.2352941176471,-0.6667906176470587,-0.06575126470588234,-0.6010403529411765,-0.45771529411764705,9.704112676470587,7480.235294117647,7523.529411764706,7381.882352941177,7625.14705882353,7540.117647058823,7498.029411764706,7321.0,7619.029411764706,-0.9722434117647057,-0.42692502941176474,-1.1546562058823528,0.537759,0.9377203235294118,-0.05676394117647059,0.015000264705882354,-0.06284864705882354,-0.08857667647058824,-0.04459282352941177,0.18535841176470588,0.22180270588235296,-0.002818588235294118,-0.01852623529411765,0.003195,-0.6347081470588235,-0.2990579705882353,-9.450884735294117,-0.38508158823529415,-0.1859275,0.011905382352941177,-0.9971089411764706,-0.4661983529411765,-1.1596254705882354,0.027258823529411762,6346.441176470588,169.94117647058823,49.088235294117645,180.76470588235293
0 days 00:00:25.813095,-4.836665909090909,0.13394363636363638,-0.4593924242424241,0.5543021515151515,0.9090838787878788,-0.054672696969696975,0.0739884848484848,-0.8712926666666667,0.256572606060606,-0.00924390909090909,-0.07290790909090909,-0.0891549393939394,4.273461666666667,-6.0,-20.87878787878788,0.148975,0.109884,0.155233,0.0,0.196276,679.7575757575758,-0.633367,-0.032253,-0.601115,-0.317895,9.55538,7574.969696969697,7369.333333333333,7140.060606060606,7574.181818181818,7579.787878787879,7388.787878787879,7125.30303030303,7594.030303030303,-0.9366659090909091,-0.3660563636363636,-1.159392424242424,0.5543021515151515,0.9090838787878788,-0.054672696969696975,-0.00924390909090909,-0.07290790909090909,-0.0891549393939394,-0.04408439393939394,0.18667869696969697,0.22183318181818182,-0.00282,-0.018528151515151515,0.003207757575757576,-0.527491696969697,-0.2544388484848485,-9.349491060606061,-0.2773659090909091,-0.13626739393939394,-0.012192212121212121,-0.9763414242424243,-0.43001775757575755,-1.1632599696969699,0.02706790909090909,6244.0,329.3333333333333,124.51515151515152,196.12121212121212
0 days 00:00:25.878095,-4.801527545454546,0.19149987878787883,-0.4646588181818181,0.5548538787878788,0.8732300606060606,-0.04275687878787879,0.05476590909090911,-0.9609362121212122,-0.019783454545454535,-0.012204424242424242,-0.07762878787878788,-0.09072321212121212,4.230912757575758,-5.757575757575758,-16.515151515151516,0.10976481818181819,0.11142718181818181,0.155233,0.005142363636363637,-0.04875245454545455,674.3030303030303,-0.8361798181818182,-0.23432027272727274,-0.6018595454545455,-0.4275860909090909,9.862532545454545,7565.575757575758,7512.393939393939,7270.090909090909,7720.272727272727,7564.0,7602.939393939394,7351.090909090909,7770.969696969697,-0.9015275454545455,-0.30850012121212117,-1.164658818181818,0.5548538787878788,0.8732300606060606,-0.04275687878787879,-0.012204424242424242,-0.07762878787878788,-0.09072321212121212,-0.042113,0.190957,0.221871,-0.00282,-0.018533,0.003232,-0.6088423636363637,-0.31690921212121215,-9.62550303030303,0.13213190909090908,-0.07467003030303031,-0.0175189696969697,-0.921155,-0.337658,-1.170971,0.022393,6456.090909090909,190.1818181818182,22.424242424242426,323.7878787878788
0 days 00:00:25.943095,-4.765773878787879,0.2463474545454546,-0.4691629696969697,0.5716208484848485,0.8334997878787879,-0.07032821212121212,0.21487636363636362,-0.8879938181818181,-0.4445025757575757,-0.0026146363636363637,-0.08258927272727272,-0.09121284848484848,4.188794303030303,-4.0,-13.0,0.118943,0.114079,0.155233,0.0,0.163163,691.0,-0.789378,-0.187023,-0.602355,-0.482147,9.987858,7582.454545454545,7751.272727272727,7409.30303030303,7766.484848484848,7593.484848484848,7752.848484848485,7412.060606060606,7759.757575757576,-0.8657738787878788,-0.2536525454545454,-1.1691629696969696,0.5716208484848485,0.8334997878787879,-0.07032821212121212,-0.0026146363636363637,-0.08258927272727272,-0.09121284848484848,-0.04150984848484849,0.19281299999999998,0.22188942424242425,-0.002818060606060606,-0.018536878787878786,0.0032489696969696972,-0.5322857575757576,-0.32510657575757573,-10.048147484848485,0.07148869696969697,-0.09293621212121213,0.017748242424242423,-0.8952975454545454,-0.2966378787878788,-1.1734728181818181,0.028827909090909095,6537.0,93.9090909090909,87.18181818181819,357.93939393939394
0 days 00:00:26.008095,-4.728594264705882,0.2994912647058824,-0.4753661764705881,0.5886867647058823,0.7965790882352941,-0.09606011764705882,0.2695047352941176,-0.8438027647058823,-0.4232313529411765,-0.004988617647058824,-0.08483488235294118,-0.09018288235294118,4.1464500882352935,-4.0,-11.764705882352942,0.1159165294117647,0.11697370588235294,0.155233,0.001996529411764706,0.11691594117647058,695.9411764705883,-0.8053397647058824,-0.2026194705882353,-0.602720294117647,-0.3437917058823529,9.918529764705882,7630.823529411765,7666.14705882353,7419.294117647059,7766.382352941177,7634.117647058823,7592.5,7395.35294117647,7761.117647058823,-0.8285942647058823,-0.20050873529411764,-1.175366176470588,0.5886867647058823,0.7965790882352941,-0.09606011764705882,-0.004988617647058824,-0.08483488235294118,-0.09018288235294118,-0.040869,0.194785,0.221909,-0.002816,-0.018541,0.003267,-0.5023264705882353,-0.24488735294117644,-10.031537205882353,-0.11710852941176471,-0.019236882352941177,0.02083085294117647,-0.867824,-0.253054,-1.176131,0.035665,6489.35294117647,203.35294117647058,35.05882352941177,228.76470588235293
0 days 00:00:26.073095,-4.691611090909091,0.34975642424242426,-0.4831302727272726,0.598073303030303,0.758560606060606,-0.11029251515151516,-0.08712563636363636,-0.8306255151515152,0.01899454545454546,-0.007746454545454545,-0.08479227272727273,-0.09077921212121212,4.104560303030303,-3.5757575757575757,-9.727272727272727,0.12306660606060606,0.12137624242424243,0.155233,0.00257130303030303,0.14464751515151514,711.3030303030303,-0.7688534242424243,-0.16577145454545453,-0.6030819696969697,-0.299489,9.897152666666667,7632.69696969697,7549.181818181818,7396.636363636364,7747.333333333333,7620.333333333333,7581.666666666667,7398.848484848485,7734.727272727273,-0.791611090909091,-0.15024357575757577,-1.1831302727272726,0.598073303030303,0.758560606060606,-0.11029251515151516,-0.007746454545454545,-0.08479227272727273,-0.09077921212121212,-0.04024936363636364,0.1974400303030303,0.22191966666666668,-0.0028092121212121212,-0.018554575757575756,0.003319363636363637,-0.8178268181818181,-0.2683179090909091,-9.56389093939394,0.04814754545454545,-0.020929484848484847,-0.007087545454545455,-0.8150996363636362,-0.17668163636363635,-1.1826890606060605,0.034716636363636366,6472.545454545455,187.06060606060606,34.27272727272727,209.87878787878788
0 days 00:00:26.138095,-4.65397696969697,0.39718509090909093,-0.4904909696969699,0.6011128484848485,0.7270312121212121,-0.11526742424242424,-0.18747257575757578,-0.7446068484848485,0.04301833333333338,-0.002311090909090909,-0.083282,-0.09132203030303031,4.063699848484848,-3.0,-6.454545454545454,0.12270393939393938,0.1254950303030303,0.155233,0.002056969696969697,0.09253321212121211,724.9090909090909,-0.7712352424242424,-0.1676406666666667,-0.6035945757575758,-0.466441,9.910355818181818,7592.545454545455,7635.454545454545,7447.757575757576,7739.727272727273,7561.939393939394,7627.484848484848,7459.757575757576,7724.181818181818,-0.7539769696969696,-0.10281490909090908,-1.1904909696969699,0.6011128484848485,0.7270312121212121,-0.11526742424242424,-0.002311090909090909,-0.083282,-0.09132203030303031,-0.0403359696969697,0.19799651515151517,0.22191921212121213,-0.0028042727272727273,-0.01856209090909091,0.0033505454545454546,-0.9095052727272728,-0.24115169696969696,-9.527728484848485,0.057054878787878786,0.005171303030303027,0.012066484848484849,-0.7911798484848485,-0.14519115151515152,-1.1861306060606058,0.03438524242424243,6485.878787878788,99.21212121212122,2.727272727272727,233.0
0 days 00:00:26.203095,-4.617527696969697,0.4424320303030303,-0.49761727272727274,0.5854570606060606,0.6967405757575758,-0.10840124242424243,0.013523878787878788,-0.7423328484848485,-0.07390190909090909,-0.00478160606060606,-0.08278115151515152,-0.09121415151515151,4.023220393939394,-3.0,-5.0,0.107168,0.125987,0.155233,0.0,-0.061086,722.0,-0.851671,-0.247705,-0.603966,-0.557935,9.88,7543.454545454545,7589.454545454545,7514.575757575758,7700.090909090909,7558.606060606061,7579.969696969697,7502.454545454545,7695.757575757576,-0.717527696969697,-0.057567969696969694,-1.1976172727272727,0.5854570606060606,0.6967405757575758,-0.10840124242424243,-0.00478160606060606,-0.08278115151515152,-0.09121415151515151,-0.040499,0.198725,0.221918,-0.002797,-0.018573,0.003396,-0.7167672424242424,-0.21303860606060607,-9.6577,-0.134736,-0.05605615151515152,0.008433909090909091,-0.756915,-0.100416,-1.19111,0.033921,6473.0,85.81818181818181,-29.78787878787879,151.5151515151515
0 days 00:00:26.268095,-4.581645794117647,0.48539055882352944,-0.5044661176470588,0.5944686470588235,0.660514794117647,-0.1168090294117647,0.23435805882352942,-0.8134592941176471,-0.20469826470588234,-0.017171764705882355,-0.08621658823529411,-0.09207238235294117,3.9825619411764706,-3.1176470588235294,-2.5294117647058822,0.10604097058823529,0.1262216176470588,0.155233,-0.024420470588235293,-0.0510804705882353,745.9411764705883,-0.8575596470588236,-0.2535130882352941,-0.6040464705882352,-0.6118440294117646,9.874784764705883,7589.85294117647,7561.264705882353,7504.705882352941,7699.35294117647,7583.705882352941,7555.294117647059,7490.176470588235,7705.14705882353,-0.681645794117647,-0.014609441176470587,-1.2044661176470588,0.5944686470588235,0.660514794117647,-0.1168090294117647,-0.017171764705882355,-0.08621658823529411,-0.09207238235294117,-0.04093814705882353,0.19954373529411762,0.22190529411764703,-0.0027827058823529406,-0.018588088235294117,0.0034611176470588237,-0.5405272647058823,-0.1408260882352941,-9.811810647058824,-0.21542541176470587,-0.07304111764705883,0.002412617647058825,-0.7119195,-0.04587123529411765,-1.1985683529411764,0.033355588235294116,6472.117647058823,121.58823529411765,-28.08823529411765,131.6764705882353
0 days 00:00:26.333095,-4.543270212121212,0.5266840303030303,-0.5122916060606062,0.6131242727272728,0.6193652424242425,-0.1298779393939394,0.006877696969696948,-0.9413314242424242,0.05357457575757573,-0.030870151515151517,-0.0907159090909091,-0.0925851212121212,3.9423439090909094,-4.0,1.0,0.094395,0.128646,0.155233,0.0,0.05231,753.0,-0.918409,-0.31353,-0.604878,-0.868904,9.820894,7556.575757575758,7551.090909090909,7508.030303030303,7674.333333333333,7565.484848484848,7562.090909090909,7487.606060606061,7665.030303030303,-0.6432702121212122,0.0266840303030303,-1.2122916060606062,0.6131242727272728,0.6193652424242425,-0.1298779393939394,-0.030870151515151517,-0.0907159090909091,-0.0925851212121212,-0.041227515151515154,0.19996642424242422,0.2218942424242424,-0.0027768181818181815,-0.018595151515151516,0.0034913333333333337,-0.7804213636363636,-0.1577000303030303,-9.545602515151515,-0.23598048484848486,-0.10930842424242425,0.00037733333333333314,-0.6852632121212121,-0.01565,-1.20303,0.03325360606060606,6453.0,90.27272727272727,-12.484848484848484,122.84848484848484
0 days 00:00:26.398095,-4.505027393939394,0.5642565757575757,-0.5200315454545454,0.6244605454545454,0.565950606060606,-0.13219745454545456,0.25045248484848487,-1.1287506666666667,-0.12384751515151511,-0.0452459696969697,-0.09602233333333333,-0.09324145454545454,3.903086242424243,-3.090909090909091,2.8181818181818183,0.06821590909090909,0.13182281818181818,0.155233,0.002057090909090909,-0.08048451515151515,743.9090909090909,-1.0545209393939394,-0.4484476666666667,-0.6060731515151516,-0.5068662424242425,9.937562757575758,7647.090909090909,7513.151515151515,7488.878787878788,7773.787878787879,7659.69696969697,7508.787878787879,7490.181818181818,7815.606060606061,-0.605027393939394,0.06425657575757576,-1.2200315454545454,0.6244605454545454,0.565950606060606,-0.13219745454545456,-0.0452459696969697,-0.09602233333333333,-0.09324145454545454,-0.041776,0.200624,0.22187,-0.00277,-0.018605,0.003533,-0.5920926666666667,-0.17489342424242424,-9.75624412121212,-0.12247724242424243,-0.10458839393939393,-0.008027030303030303,-0.638417,0.0346,-1.21093,0.033393,6521.545454545455,237.75757575757575,-68.57575757575758,123.18181818181819
0 days 00:00:26.463095,-4.464947794117647,0.5987721470588235,-0.5284532941176472,0.6427963529411764,0.5093596176470588,-0.1509769411764706,0.2518620588235294,-1.152906911764706,-0.3662745294117647,-0.040947235294117645,-0.103246,-0.09425317647058823,3.8636552647058826,-2.2941176470588234,5.117647058823529,0.09549535294117648,0.1376125588235294,0.155233,0.001996470588235294,0.20727217647058824,769.1176470588235,-0.9145537352941178,-0.3078597941176471,-0.6066939411764707,-0.6368745588235294,9.960422411764705,7666.14705882353,7611.735294117647,7480.058823529412,7758.14705882353,7641.411764705882,7679.5,7475.676470588235,7708.411764705882,-0.5649477941176471,0.09877214705882353,-1.2284532941176471,0.6427963529411764,0.5093596176470588,-0.1509769411764706,-0.040947235294117645,-0.103246,-0.09425317647058823,-0.04241155882352941,0.20103226470588237,0.2218459117647059,-0.0027632058823529415,-0.01861241176470588,0.0035719117647058825,-0.6841108235294118,-0.23469091176470586,-9.994801205882354,0.2047981176470588,-0.12683105882352944,-0.00895414705882353,-0.5991982647058824,0.07025985294117647,-1.2182120588235295,0.03418605882352941,6532.35294117647,97.20588235294117,68.20588235294117,191.23529411764707
0 days 00:00:26.528095,-4.423184,0.6299933636363636,-0.5384139696969696,0.6636350303030303,0.461452696969697,-0.16767033333333334,0.10837399999999998,-0.8697330909090909,-0.03485487878787886,-0.029322727272727275,-0.10154169696969696,-0.09429148484848485,3.8245874242424245,-1.4848484848484849,7.03030303030303,0.1195989393939394,0.14366242424242423,0.155233,0.002571181818181818,0.2820680909090909,794.4242424242424,-0.7907411515151515,-0.18364151515151517,-0.6070991515151516,-0.5874848181818182,9.961365181818183,7572.909090909091,7709.636363636364,7513.545454545455,7706.363636363636,7576.575757575758,7670.484848484848,7516.939393939394,7716.727272727273,-0.523184,0.12999336363636363,-1.2384139696969696,0.6636350303030303,0.461452696969697,-0.16767033333333334,-0.029322727272727275,-0.10154169696969696,-0.09429148484848485,-0.042858787878787885,0.20127845454545454,0.22183006060606061,-0.002758575757575758,-0.018617515151515156,0.0035985454545454545,-0.8034741515151516,-0.11484969696969696,-9.626953242424243,0.07980436363636365,0.10834663636363635,0.025523727272727274,-0.573007696969697,0.09377175757575758,-1.2231306363636365,0.034804969696969695,6523.787878787879,52.81818181818182,6.545454545454546,207.33333333333334
0 days 00:00:26.593095,-4.383284878787879,0.657040606060606,-0.5475759696969698,0.6712342727272728,0.4188438181818182,-0.1734910606060606,0.45461881818181815,-0.8289154545454545,-0.38841415151515146,-0.02720239393939394,-0.0896271515151515,-0.09438218181818182,3.7865374545454547,-1.0,9.212121212121213,0.13497651515151513,0.14650851515151517,0.155233,0.002057030303030303,0.19551439393939393,820.7272727272727,-0.7118334545454545,-0.10439454545454545,-0.607438484848485,-0.5117237272727273,9.924999757575758,7579.121212121212,7598.606060606061,7527.212121212121,7721.484848484848,7551.212121212121,7576.69696969697,7555.69696969697,7710.727272727273,-0.4832848787878788,0.15704060606060605,-1.2475759696969697,0.6712342727272728,0.4188438181818182,-0.1734910606060606,-0.02720239393939394,-0.0896271515151515,-0.09438218181818182,-0.04458,0.201069,0.2218,-0.002745,-0.018634,0.00368,-0.3830196060606061,-0.04782200000000002,-10.012754454545455,0.05649272727272727,0.19921133333333332,0.015846969696969696,-0.511814,0.139748,-1.236271,0.0389,6493.272727272727,64.66666666666667,-69.15151515151516,127.39393939393939
0 days 00:00:26.658095,-4.340881575757575,0.6820536363636364,-0.5587912727272728,0.6940334848484848,0.3787221515151515,-0.19798427272727273,0.145511393939394,-0.8588840606060606,-0.33625945454545464,-0.025969181818181815,-0.07770969696969697,-0.09450615151515152,3.7488076363636362,-1.1818181818181819,10.181818181818182,0.13797796969696968,0.14650051515151516,0.155233,0.002056969696969697,0.17854851515151515,829.3636363636364,-0.6964983636363636,-0.08892624242424242,-0.6075721212121212,-0.5637620303030302,9.889859454545455,7519.454545454545,7543.606060606061,7571.090909090909,7706.606060606061,7535.212121212121,7519.848484848485,7566.818181818182,7711.454545454545,-0.44088157575757575,0.18205363636363636,-1.2587912727272728,0.6940334848484848,0.3787221515151515,-0.19798427272727273,-0.025969181818181815,-0.07770969696969697,-0.09450615151515152,-0.045280666666666664,0.200632,0.221786,-0.002737,-0.018643333333333335,0.0037243333333333334,-0.5604285454545455,-0.11911093939393938,-9.944779878787879,-0.05522763636363637,0.109375,0.022209363636363638,-0.49013166666666663,0.1531856666666667,-1.241502,0.03406766666666667,6471.757575757576,79.87878787878788,-111.42424242424242,91.21212121212122
0 days 00:00:26.723095,-4.298929794117647,0.7038998823529412,-0.570471617647059,0.6914681764705882,0.3378936764705882,-0.2012733529411765,-0.439583205882353,-0.7175044411764705,0.4429556176470588,-0.030156470588235295,-0.07438352941176471,-0.09507214705882353,3.7109511764705885,-4.029411764705882,12.411764705882353,0.12295470588235294,0.15615129411764705,0.155233,0.0024956470588235295,0.054894235294117646,837.3235294117648,-0.7744587647058824,-0.16634511764705884,-0.6081136470588235,-0.5816511176470588,9.697861411764706,7495.676470588235,7423.088235294118,7526.058823529412,7626.14705882353,7488.176470588235,7408.323529411765,7500.529411764706,7596.058823529412,-0.39892979411764706,0.20389988235294118,-1.270471617647059,0.6914681764705882,0.3378936764705882,-0.2012733529411765,-0.030156470588235295,-0.07438352941176471,-0.09507214705882353,-0.046726911764705885,0.19973194117647058,0.22175670588235294,-0.0027209411764705883,-0.018662176470588238,0.0038140000000000005,-1.0685604705882352,-0.02757352941176472,-9.123994705882353,-0.05669808823529412,-0.06165264705882353,0.006455382352941178,-0.444827705882353,0.18107467647058823,-1.252458205882353,0.024220470588235295,6351.705882352941,87.52941176470588,-99.94117647058823,10.911764705882353
0 days 00:00:26.788095,-4.255326303030303,0.7249156060606061,-0.581213,0.6845602424242424,0.30233863636363634,-0.18223884848484848,0.20642193939393938,-0.9032769393939394,0.21897360606060606,-0.031313939393939394,-0.07844866666666667,-0.09579736363636362,3.6734224545454546,-8.0,14.0,0.12699,0.155798,0.155233,0.0,0.145802,854.0,-0.754013,-0.145551,-0.608462,-0.533557,9.53537,7402.969696969697,7330.363636363636,7417.69696969697,7497.606060606061,7402.848484848485,7368.848484848485,7420.666666666667,7492.848484848485,-0.35532630303030305,0.22491560606060607,-1.281213,0.6845602424242424,0.30233863636363634,-0.18223884848484848,-0.031313939393939394,-0.07844866666666667,-0.09579736363636362,-0.048209,0.198872,0.221714,-0.002719,-0.018668,0.003847,-0.46747748484848484,-0.14441290909090906,-9.397845727272728,0.05050018181818182,-0.09793742424242424,-0.01389381818181818,-0.380831,0.214526,-1.268767,0.018197,6243.0,53.06060606060606,-70.9090909090909,26.96969696969697
0 days 00:00:26.853095,-4.211929424242424,0.7427442121212121,-0.591402,0.698293303030303,0.258841,-0.16915639393939394,0.30968033333333334,-0.8803176666666667,-0.23870636363636366,-0.02818966666666667,-0.08194424242424242,-0.0967829696969697,3.636890696969697,-9.0,16.0,0.12030103030303031,0.15730781818181816,0.155233,0.002057,0.08732830303030302,864.0,-0.788998696969697,-0.18002566666666667,-0.6089730303030303,-0.6483623333333333,9.73994890909091,7412.484848484848,7458.878787878788,7500.939393939394,7561.181818181818,7435.606060606061,7480.606060606061,7548.212121212121,7616.363636363636,-0.31192942424242426,0.24274421212121214,-1.291402,0.698293303030303,0.258841,-0.16915639393939394,-0.02818966666666667,-0.08194424242424242,-0.0967829696969697,-0.049060878787878785,0.19843163636363637,0.2216970303030303,-0.0027156060606060607,-0.018673939393939396,0.003872878787878788,-0.42613633333333334,-0.09629493939393935,-9.860499545454545,-0.00207890909090909,-0.03185660606060606,0.0028187272727272722,-0.35288572727272727,0.22643066666666667,-1.2750962727272728,0.020521424242424244,6382.636363636364,11.575757575757576,-124.0,79.96969696969697
0 days 00:00:26.918095,-4.1671739117647055,0.7580092058823529,-0.6016583529411765,0.7113202647058823,0.2188379705882353,-0.17809323529411766,0.05676408823529412,-0.8802985,-0.06158761764705883,-0.02944005882352941,-0.08368414705882353,-0.09740867647058823,3.6001298823529413,-8.5,17.0,0.11885623529411765,0.16111499999999998,0.155233,0.0024968235294117644,0.09589064705882352,872.0,-0.7967272941176471,-0.18747147058823527,-0.6092558235294118,-0.6243923529411765,9.813427647058823,7447.441176470588,7524.14705882353,7572.64705882353,7622.323529411765,7473.205882352941,7538.705882352941,7569.235294117647,7632.14705882353,-0.2671739117647059,0.25800920588235293,-1.3016583529411765,0.7113202647058823,0.2188379705882353,-0.17809323529411766,-0.02944005882352941,-0.08368414705882353,-0.09740867647058823,-0.050217,0.197834,0.221674,-0.002711,-0.018682,0.003908,-0.6839096764705883,-0.1258904117647059,-9.662971088235295,-0.053502676470588234,-0.06910617647058823,0.001134588235294118,-0.31496,0.24258700000000002,-1.283686,0.023676,6429.35294117647,-1.2647058823529411,-94.61764705882354,90.6470588235294
0 days 00:00:26.983095,-4.123369090909091,0.7708182727272728,-0.6110687272727273,0.7111854848484849,0.17894278787878787,-0.1799962121212121,0.04739048484848483,-0.8288182424242425,-0.057211060606060606,-0.03470915151515152,-0.08605596969696969,-0.09846848484848485,3.563758303030303,-8.606060606060606,18.606060606060606,0.12395190909090908,0.16583727272727272,0.155233,0.00257,0.1437601818181818,895.7575757575758,-0.7709955454545454,-0.16121039393939396,-0.6097845757575757,-0.5003913333333333,9.815286090909092,7526.909090909091,7548.848484848485,7541.30303030303,7671.636363636364,7508.606060606061,7518.393939393939,7506.090909090909,7666.787878787879,-0.2233690909090909,0.27081827272727277,-1.3110687272727273,0.7111854848484849,0.17894278787878787,-0.1799962121212121,-0.03470915151515152,-0.08605596969696969,-0.09846848484848485,-0.05222057575757576,0.19667187878787878,0.2216259393939394,-0.0027054848484848485,-0.01869618181818182,0.00396630303030303,-0.7284861515151515,-0.031101939393939397,-9.653201969696969,-0.05914860606060606,-0.035984909090909095,-0.0050308181818181814,-0.2591364242424242,0.2618663939393939,-1.2946406666666668,0.027264787878787878,6424.606060606061,75.21212121212122,-72.78787878787878,120.36363636363636
0 days 00:00:27.048095,-4.07899206060606,0.7810616060606062,-0.6212587878787879,0.7149497272727272,0.1395850303030303,-0.1799140909090909,0.19706945454545455,-0.8426402121212122,-0.20329772727272724,-0.030514969696969697,-0.08358706060606061,-0.09977272727272728,3.528272303030303,-9.0,19.78787878787879,0.14099209090909093,0.16752836363636364,0.155233,0.002057,0.225696,922.1515151515151,-0.6833066363636363,-0.07339227272727272,-0.6099137272727273,-0.5391692727272728,9.782483181818181,7416.848484848485,7530.30303030303,7499.0,7660.606060606061,7378.181818181818,7578.363636363636,7529.606060606061,7647.545454545455,-0.1789920606060606,0.2810616060606061,-1.3212587878787878,0.7149497272727272,0.1395850303030303,-0.1799140909090909,-0.030514969696969697,-0.08358706060606061,-0.09977272727272728,-0.053377939393939394,0.19596263636363637,0.22159675757575759,-0.0027027878787878787,-0.018704121212121214,0.003996787878787879,-0.5686848787878789,-0.07043081818181816,-9.814068424242425,0.1869599696969697,0.06130145454545455,-0.011733545454545455,-0.22762142424242424,0.2710819696969697,-1.3010401818181818,0.02828239393939394,6401.272727272727,-41.06060606060606,-110.15151515151516,224.5151515151515
0 days 00:00:27.113095,-4.035090818181818,0.7889856666666666,-0.6309178484848483,0.7245016666666667,0.10788333333333333,-0.19239142424242425,-0.0434100303030303,-0.6408546666666667,-0.10422709090909091,-0.021473727272727273,-0.07613472727272728,-0.1005188787878788,3.4931564545454545,-9.0,21.0,0.162449,0.169853,0.155233,0.0,0.322429,947.0,-0.572657,0.037188,-0.609845,-0.72695,9.82,7309.757575757576,7683.757575757576,7580.727272727273,7637.575757575758,7324.848484848485,7669.939393939394,7577.121212121212,7637.484848484848,-0.13509081818181817,0.28898566666666664,-1.3309178484848483,0.7245016666666667,0.10788333333333333,-0.19239142424242425,-0.021473727272727273,-0.07613472727272728,-0.1005188787878788,-0.055309,0.194724,0.221546,-0.002699,-0.018717,0.004043,-0.7447619999999999,0.029178484848484853,-9.68859496969697,0.009713727272727271,0.10147375757575758,0.024828333333333334,-0.176104,0.28366,-1.311822,0.028443,6428.0,-142.06060606060606,-109.6969696969697,286.3030303030303
0 days 00:00:27.178095,-3.989691176470588,0.7954764705882353,-0.6413465294117646,0.7184513235294118,0.08206085294117647,-0.1943120882352941,-0.23048932352941176,-0.6643289117647059,0.026920529411764732,-0.02951664705882353,-0.06974755882352941,-0.09965529411764706,3.457856441176471,-9.0,21.88235294117647,0.1326105588235294,0.17246897058823527,0.155233,0.0019965,0.014112941176470589,942.5882352941177,-0.7267851764705882,-0.1165845,-0.6102006764705882,-0.5512654411764706,9.82,7362.058823529412,7584.382352941177,7591.470588235294,7675.029411764706,7395.205882352941,7537.323529411765,7585.470588235294,7689.058823529412,-0.08969117647058823,0.29547647058823534,-1.3413465294117646,0.7184513235294118,0.08206085294117647,-0.1943120882352941,-0.02951664705882353,-0.06974755882352941,-0.09965529411764706,-0.05710758823529411,0.19344694117647057,0.22149400000000002,-0.0026974705882352942,-0.01872694117647059,0.004075117647058824,-0.8705767647058823,0.040814529411764715,-9.55256205882353,-0.19137041176470587,0.014634000000000001,0.018841823529411765,-0.12363752941176473,0.29242276470588235,-1.323810294117647,0.019911176470588238,6427.14705882353,-19.176470588235293,-170.7058823529412,173.58823529411765
